     3.02           OBSERVATION DATA    M: Mixed            RINEX VERSION / TYPE
CONVBIN 2.4.3                           20220826 040232 UTC PGM / RUN BY / DATE 
format: RTCM 3                                              COMMENT             
log: C:\ProjectFlutter\C#\KDT-DataConverter\2022-08-25_14-13COMMENT             
Naruemarn                                                   MARKER NAME         
Naruemarn                                                   MARKER NUMBER       
RG-CORS                                                     MARKER TYPE         
KKFC                KKFC                                    OBSERVER / AGENCY   
5904C00382          TRIMBLE BD990       5.41,24/APR/2019    REC # / TYPE / VERS 
se1234              C220GR2                                 ANT # / TYPE        
 -3918545.7166  3445005.7638  3656561.1665                  APPROX POSITION XYZ 
        1.9210        0.0000        0.0000                  ANTENNA: DELTA H/E/N
G   10 C1C L1C D1C S1C C2W L2W S2W C5X L5X S5X              SYS / # / OBS TYPES 
R    7 C1C L1C D1C S1C C2P L2P S2P                          SYS / # / OBS TYPES 
E   10 C1X L1X D1X S1X C6X L6X S6X C8X L8X S8X              SYS / # / OBS TYPES 
J   10 C1C L1C D1C S1C C2X L2X S2X C5X L5X S5X              SYS / # / OBS TYPES 
C   10 C1I L1I D1I S1I C7I L7I S7I C6I L6I S6I              SYS / # / OBS TYPES 
     1.000                                                  INTERVAL            
  2022    08    25    07    14   05.0000000     GPS         TIME OF FIRST OBS   
  2022    08    25    07    15   08.0000000     GPS         TIME OF LAST OBS    
G L1C                                                       SYS / PHASE SHIFT   
G L2W  0.00000                                              SYS / PHASE SHIFT   
G L5X  0.00000                                              SYS / PHASE SHIFT   
R L1C                                                       SYS / PHASE SHIFT   
R L2P  0.00000                                              SYS / PHASE SHIFT   
E L1X  0.00000                                              SYS / PHASE SHIFT   
E L6X  0.00000                                              SYS / PHASE SHIFT   
E L8X  0.00000                                              SYS / PHASE SHIFT   
J L1C                                                       SYS / PHASE SHIFT   
J L2X  0.00000                                              SYS / PHASE SHIFT   
J L5X  0.00000                                              SYS / PHASE SHIFT   
C L1I                                                       SYS / PHASE SHIFT   
C L7I                                                       SYS / PHASE SHIFT   
C L6I                                                       SYS / PHASE SHIFT   
  7 R03  5 R04  6 R13 -2 R14 -7 R18 -3 R19  3 R20  2        GLONASS SLOT / FRQ #
 C1C    0.000 C1P    0.000 C2C    0.000 C2P    0.000        GLONASS COD/PHS/BIS 
                                                            END OF HEADER       
> 2022 08 25 07 14 05.0000000  0 41                     
G02  23871277.723   125444243.4541      -3271.830          39.000    23871286.068    97749250.9421         25.000                                                  
G05  21039662.195   110564902.6581      -1694.336          49.000    21039670.397    86154479.6251         44.000                                                  
G13  21206578.668   111441719.5461      -1914.648          49.000    21206585.441    86837725.0981         39.000                                                  
G14  24344523.948   127931425.3131        -70.625          39.000    24344532.525    99686825.1861         20.000    24344532.346    95533207.9421         31.000  
G15  20256479.376   106448339.6411         85.620          51.000    20256486.792    82946779.8801         56.000                                                  
G18  21603296.763   113525807.1531        496.358          47.000    21603304.626    88461390.5851         39.000    21603305.108    84776312.2821         39.000  
G20  23354420.076   122728141.0811      -3172.500          37.000    23354429.493    95632318.2631         22.000                                                  
G23  23634772.056   124200995.3561       3176.382          39.000    23634780.543    96780141.3601         27.000    23634781.222    92747568.7121         32.000  
G24  21105604.018   110911083.8541       2702.105          48.000    21105614.847    86424235.8261         53.000    21105610.237    82823228.2311         40.000  
R03  20538002.134   109940795.4031       -802.464          52.000    20538007.441    85510197.1191         49.000  
R04  20764789.001   111194724.0051       1511.817          51.000    20764794.129    86485081.6861         49.000  
R13  20617902.094   110098208.2841       -724.535          40.000    20617907.115    85631918.3861         45.000  
R14  20954388.627   111698173.3411       3338.945          51.000    20954395.667    86876799.9481         48.000  
R18  22971737.563   122625144.5181      -3990.062          42.000    22971746.604    95374307.0011         40.000  
R19  21475034.525   114876969.6871      -2071.955          38.000    21475040.457    89349129.6161         44.000  
R20  23083385.523   123436836.4121       1958.870          35.000    23083395.173    96006428.5671         41.000  
E03  25181009.276   132327496.1061       1229.283          49.000    25181004.559   107408723.2651         47.000    25181014.833   100104935.6771         50.000  
E05  23850867.600   125337131.5181       -545.000          52.000    23850861.650   101734703.9481         52.000    23850872.943    94816752.9051         54.000  
E09  26897883.872   141349688.6911      -1808.628          42.000    26897881.353   114731896.9881         43.000    26897890.573   106930130.5431         44.000  
E15  25365006.480   133293413.9701        716.070          47.000    25365002.102   108193705.9481         46.000    25365013.020   100836299.9961         49.000  
E24  26100610.721   137159502.5231       1495.835          44.000    26100607.397   111330773.9501         46.000    26100615.367   103760406.6391         46.000  
E25  27305930.266   143494114.1741       2836.544          40.000    27305927.121   116472499.8801         38.000    27305939.880   108551944.9921         43.000  
E31  27442793.759   144213352.6581       -669.287          38.000    27442790.168   117056296.3931         38.000    27442801.604   109096469.2041         42.000  
E36  27447211.232   144236591.4001      -3159.384          39.000    27447210.160   117074305.0051         39.000    27447221.435   109113249.7591         40.000  
J02  37344842.664   196249160.7101        428.081          38.000    37344853.082   152921435.1711         44.000    37344850.651   146549710.6581         33.000  
J03  37217224.246   195577521.8351       -405.708          40.000    37217233.324   152398058.6311         43.000    37217230.715   146048137.2161         31.000  
C06  37471886.146   195126481.1201        427.008          42.000    37471882.215   150884188.2051         44.000    37471873.209   158556261.9801         43.000  
C09  39185990.168   204051315.8471        477.749          38.000    39185988.721   157785434.3311         41.000    39185978.124   165808419.7671         39.000  
C13  36283665.861   188938499.7091        275.669          48.000    36283668.095   146099235.2371         48.000    36283657.463   153528008.9271         47.000  
C14  25545179.428   133020834.4221      -2192.880          37.000    25545179.893   102860146.8821         41.000    25545171.441   108090324.0471         38.000  
C16  37280166.522   194127468.8161        282.935          46.000    37280167.558   150111691.8401         45.000    37280159.570   157744485.2191         42.000  
C23  24388509.870   126997779.4041       3084.815          42.000                                                    24388494.109   103195831.4721         45.000  
C24  25082646.219   130612046.8771      -2162.905          41.000                                                    25082637.463   106132834.1541         41.000  
C25  22494328.642   117133262.5431        850.713          50.000                                                    22494322.049    95181038.3111         50.000  
C27  25121790.977   130815872.4091      -2133.130          40.000                                                    25121787.117   106298039.5221         41.000  
C30  25787596.097   134282285.2051       -266.694          37.000                                                    25787592.309   109115343.0621         38.000  
C32  24952624.686   129935153.1221       2263.199          41.000                                                    24952617.324   105582097.0601         44.000  
C33  23684232.332   123329651.7311      -1594.819          46.000                                                    23684239.193   100215156.2561         46.000  
C38  35841611.375   186635905.5851       -422.148          50.000                                                    35841601.118   151656962.3661         51.000  
C39  36819140.279   191726978.0881        180.664          48.000                                                    36819132.041   155793891.1841         49.000  
C41  22001427.601   114567406.2901        556.070          52.000                                                    22001427.851    93095417.7541         52.000  
> 2022 08 25 07 14 06.0000000  0 41                     
G02  23871900.477   125447515.396       -3271.927          40.000    23871908.786    97751800.505          25.000                                                  
G05  21039984.928   110566597.261       -1694.754          49.000    21039992.879    86155800.093          44.000                                                  
G13  21206942.678   111443634.189       -1914.685          48.000    21206949.790    86839217.016          39.000                                                  
G14  24344537.206   127931496.262         -71.262          38.000    24344545.926    99686880.474          20.000    24344545.783    95533260.916          30.000  
G15  20256463.187   106448254.228          85.324          51.000    20256470.620    82946713.329          56.000                                                  
G18  21603202.790   113525311.120         495.784          47.000    21603210.170    88461004.064          39.000    21603210.635    84775941.870          39.000  
G20  23355022.477   122731313.633       -3172.649          38.000    23355033.091    95634790.382          25.000                                                  
G23  23634167.368   124197819.077        3176.360          39.000    23634176.016    96777666.349          28.000    23634176.910    92745196.828          32.000  
G24  21105089.837   110908382.043        2701.599          48.000    21105100.701    86422130.517          53.000    21105096.073    82821210.640          40.000  
R03  20538151.912   109941597.996        -802.647          52.000    20538157.416    85510821.352          49.000  
R04  20764506.670   111193212.197        1511.776          51.000    20764511.852    86483905.840          49.000  
R13  20618037.238   110098933.258        -725.289          40.000    20618042.813    85632482.252          45.000  
R14  20953762.121   111694834.653        3338.499          51.000    20953769.286    86874203.188          48.000  
R18  22972485.774   122629134.693       -3990.249          43.000    22972494.030    95377410.458          40.000  
R19  21475422.140   114879042.168       -2072.748          39.000    21475427.750    89350741.546          44.000  
R20  23083020.209   123434877.935        1958.063          35.000    23083028.911    96004905.321          42.000  
E03  25180775.353   132326266.877        1229.304          49.000    25180770.599   107407725.517          47.000    25180780.928   100104005.776          50.000  
E05  23850971.294   125337676.574        -545.086          52.000    23850965.237   101735146.363          51.000    23850976.637    94817165.237          54.000  
E09  26898227.958   141351497.312       -1808.577          42.000    26898225.456   114733365.017          44.000    26898234.748   106931498.747          44.000  
E15  25364870.318   133292698.164         715.583          46.000    25364865.941   108193124.930          46.000    25364876.805   100835758.485          49.000  
E24  26100326.175   137158006.946        1495.466          45.000    26100322.583   111329560.010          46.000    26100330.767   103759275.249          46.000  
E25  27305390.890   143491277.580        2836.672          40.000    27305387.334   116470197.455          39.000    27305400.093   108549799.138          43.000  
E31  27442920.826   144214022.202        -669.758          38.000    27442917.627   117056839.857          38.000    27442928.992   109096975.712          42.000  
E36  27447812.364   144239750.677       -3159.163          39.000    27447811.292   117076869.349          39.000    27447822.603   109115639.729          40.000  
J02  37344761.628   196248732.674         428.000          39.000    37344771.384   152921101.645          44.000    37344769.312   146549391.034          32.000  
J03  37217301.172   195577927.575        -405.716          39.000    37217310.500   152398374.788          42.000    37217307.891   146048440.204          31.000  
C06  37471803.913   195126054.155         426.969          42.000    37471800.249   150883858.051          44.000    37471791.172   158555915.033          43.000  
C09  39185898.393   204050838.278         477.579          37.000    39185897.017   157785065.044          41.000    39185886.385   165808031.703          39.000  
C13  36283612.790   188938224.146         275.539          48.000    36283614.970   146099022.158          48.000    36283604.517   153527785.004          47.000  
C14  25545600.922   133023027.374       -2192.928          37.000    25545600.922   102861842.611          40.000    25545592.613   108092106.005          38.000  
C16  37280112.271   194127185.951         282.882          46.000    37280113.290   150111473.106          45.000    37280105.249   157744255.373          43.000  
C23  24387917.547   126994694.631        3084.768          42.000                                                    24387901.680   103193324.848          45.000  
C24  25083061.745   130614209.954       -2163.133          41.000                                                    25083052.882   106134591.828          42.000  
C25  22494165.302   117132412.086         850.255          50.000                                                    22494158.762    95180347.243          50.000  
C27  25122200.749   130818005.800       -2133.436          40.000                                                    25122196.782   106299773.073          41.000  
C30  25787647.113   134282552.208        -267.230          38.000                                                    25787643.575   109115560.022          38.000  
C32  24952189.772   129932889.922        2263.263          40.000                                                    24952182.714   105580258.029          44.000  
C33  23684538.392   123331246.525       -1594.803          45.000                                                    23684545.522   100216452.154          46.000  
C38  35841692.518   186636327.820        -422.274          50.000                                                    35841682.101   151657305.473          51.000  
C39  36819105.506   191726797.487         180.602          48.000                                                    36819097.393   155793744.432          49.000  
C41  22001320.780   114566850.318         555.944          52.000                                                    22001320.959    93094965.979          53.000  
> 2022 08 25 07 14 07.0000000  0 41                     
G02  23872523.212   125450787.485       -3272.139          40.000    23872531.396    97754350.176          27.000                                                  
G05  21040307.428   110568292.365       -1695.298          49.000    21040315.433    86157120.945          44.000                                                  
G13  21207307.868   111445549.078       -1914.985          49.000    21207314.140    86840709.142          39.000                                                  
G14  24344550.251   127931567.809         -71.792          38.000    24344559.525    99686936.207          20.000    24344559.400    95533314.343          30.000  
G15  20256446.336   106448169.196          84.907          51.000    20256454.484    82946647.068          56.000                                                  
G18  21603108.227   113524815.841         494.966          47.000    21603115.714    88460618.127          40.000    21603116.429    84775572.019          39.000  
G20  23355626.467   122734486.506       -3173.042          37.000    23355636.849    95637262.757          24.000                                                  
G23  23633562.877   124194642.912        3176.133          39.000    23633571.615    96775191.406          28.000    23633572.329    92742825.010          32.000  
G24  21104575.853   110905680.760        2701.045          48.000    21104586.628    86420025.621          53.000    21104581.999    82819193.451          39.000  
R03  20538302.208   109942400.873        -802.974          52.000    20538307.390    85511445.816          49.000  
R04  20764224.608   111191700.584        1511.503          51.000    20764229.575    86482730.139          49.000  
R13  20618173.614   110099659.183        -726.323          40.000    20618178.850    85633046.861          45.000  
R14  20953135.883   111691496.543        3337.869          51.000    20953143.066    86871606.873          48.000  
R18  22973232.932   122633125.052       -3990.444          43.000    22973241.455    95380514.064          40.000  
R19  21475809.897   114881115.395       -2073.548          38.000    21475815.383    89352354.056          44.000  
R20  23082653.465   123432920.293        1957.146          35.000    23082662.811    96003382.699          42.000  
E03  25180541.483   132325037.833        1228.980          49.000    25180536.765   107406727.914          47.000    25180547.040   100103076.010          50.000  
E05  23851075.238   125338221.783        -545.268          52.000    23851069.056   101735588.903          51.000    23851080.385    94817577.684          54.000  
E09  26898572.509   141353306.012       -1808.672          42.000    26898569.524   114734833.127          44.000    26898578.959   106932867.021          45.000  
E15  25364734.049   133291982.918         714.981          47.000    25364729.814   108192544.373          46.000    25364740.697   100835217.408          49.000  
E24  26100041.307   137156511.786        1495.049          45.000    26100038.019   111328346.399          46.000    26100046.221   103758144.168          46.000  
E25  27304851.138   143488441.040        2836.572          39.000    27304847.636   116467895.068          39.000    27304860.287   108547653.309          43.000  
E31  27443048.500   144214692.239        -670.186          39.000    27443045.159   117057383.718          38.000    27443056.505   109097482.593          42.000  
E36  27448413.621   144242910.051       -3159.453          39.000    27448412.674   117079433.769          38.000    27448423.824   109118029.768          40.000  
J02  37344680.092   196248304.749         427.925          39.000    37344690.134   152920768.193          44.000    37344687.918   146549071.482          32.000  
J03  37217378.920   195578333.415        -405.884          39.000    37217387.712   152398691.032          43.000    37217385.067   146048743.260          32.000  
C06  37471722.001   195125627.366         426.720          42.000    37471718.302   150883528.031          44.000    37471709.207   158555568.235          43.000  
C09  39185806.028   204050360.827         477.466          37.000    39185805.188   157784695.858          42.000    39185794.717   165807643.740          39.000  
C13  36283559.952   188937948.817         275.215          49.000    36283562.132   146098809.257          48.000    36283551.678   153527561.282          48.000  
C14  25546022.399   133025220.502       -2193.242          38.000    25546022.203   102863538.470          41.000    25546013.822   108093888.106          38.000  
C16  37280057.860   194126903.243         282.642          46.000    37280058.968   150111254.496          45.000    37280050.945   157744025.647          43.000  
C23  24387325.386   126991610.131        3084.425          42.000                                                    24387309.322   103190818.436          45.000  
C24  25083477.057   130616373.507       -2163.701          42.000                                                    25083468.284   106136349.891          42.000  
C25  22494002.175   117131562.235         849.571          50.000                                                    22493995.617    95179656.674          50.000  
C27  25122610.200   130820139.488       -2133.915          40.000                                                    25122606.429   106301506.869          41.000  
C30  25787698.326   134282819.750        -267.768          37.000                                                    25787694.949   109115777.419          38.000  
C32  24951755.304   129930626.824        2263.087          40.000                                                    24951748.050   105578419.081          44.000  
C33  23684844.846   123332841.606       -1595.180          46.000                                                    23684851.851   100217748.288          46.000  
C38  35841773.590   186636750.299        -422.543          51.000                                                    35841763.226   151657648.772          51.000  
C39  36819070.983   191726617.030         180.411          48.000                                                    36819062.745   155793597.795          49.000  
C41  22001213.977   114566294.605         555.650          51.000                                                    22001214.334    93094514.419          52.000  
> 2022 08 25 07 14 08.0000000  0 41                     
G02  23873145.465   125454059.671       -3272.383          40.000    23873154.132    97756899.920          26.000                                                  
G05  21040630.035   110569987.887       -1695.825          48.000    21040638.183    86158442.126          44.000                                                  
G13  21207671.752   111447464.143       -1915.302          48.000    21207678.453    86842201.398          39.000                                                  
G14  24344564.135   127931639.929         -72.514          38.000    24344573.159    99686992.416          19.000    24344573.105    95533368.199          31.000  
G15  20256431.058   106448084.461          84.463          51.000    20256438.313    82946581.045          56.000                                                  
G18  21603013.897   113524321.225         494.136          47.000    21603021.652    88460232.717          39.000    21603022.313    84775202.660          39.000  
G20  23356230.976   122737659.610       -3173.335          37.000    23356240.626    95639735.305          22.000                                                  
G23  23632958.564   124191466.789        3175.943          39.000    23632967.177    96772716.516          27.000    23632967.963    92740453.232          32.000  
G24  21104061.654   110902979.947        2700.435          48.000    21104072.554    86417921.095          53.000    21104068.140    82817176.612          39.000  
R03  20538452.147   109943203.960        -803.345          52.000    20538457.454    85512070.434          49.000  
R04  20763941.688   111190189.099        1511.313          51.000    20763947.245    86481554.542          49.000  
R13  20618309.365   110100385.991        -727.417          40.000    20618314.869    85633612.147          45.000  
R14  20952509.985   111688158.924        3337.225          51.000    20952516.918    86869010.952          48.000  
R18  22973980.876   122637115.510       -3990.619          43.000    22973989.006    95383617.742          40.000  
R19  21476197.941   114883189.372       -2074.418          38.000    21476203.052    89353967.139          44.000  
R20  23082287.615   123430963.366        1956.394          35.000    23082296.924    96001860.644          42.000  
E03  25180307.488   132323808.842        1228.853          49.000    25180303.003   107405730.354          48.000    25180313.170   100102146.284          49.000  
E05  23851178.861   125338767.074        -545.483          53.000    23851172.678   101736031.507          51.000    23851184.150    94817990.193          54.000  
E09  26898916.595   141355114.703       -1808.818          43.000    26898913.807   114736301.207          44.000    26898923.152   106934235.271          45.000  
E15  25364598.030   133291268.128         714.439          47.000    25364593.867   108191964.184          46.000    25364604.678   100834676.674          49.000  
E24  26099756.814   137155017.007        1494.361          44.000    26099753.544   111327133.105          46.000    26099761.764   103757013.375          47.000  
E25  27304311.476   143485604.493        2836.455          39.000    27304307.741   116465592.691          38.000    27304320.518   108545507.494          43.000  
E31  27443176.281   144215362.764        -670.839          39.000    27443172.761   117057927.975          38.000    27443184.108   109097989.841          42.000  
E36  27449014.645   144246069.357       -3159.443          39.000    27449013.877   117081998.141          39.000    27449025.009   109120419.759          40.000  
J02  37344598.573   196247876.825         427.960          39.000    37344608.812   152920434.750          44.000    37344606.435   146548751.936          32.000  
J03  37217455.668   195578739.270        -406.030          39.000    37217465.192   152399007.282          42.000    37217462.262   146049046.338          32.000  
C06  37471640.357   195125200.610         426.524          42.000    37471636.283   150883198.038          44.000    37471627.224   158555221.463          43.000  
C09  39185714.520   204049883.450         477.198          37.000    39185713.341   157784326.722          42.000    39185703.066   165807255.841          39.000  
C13  36283507.220   188937673.591         275.025          49.000    36283509.365   146098596.428          48.000    36283498.875   153527337.629          47.000  
C14  25546443.197   133027413.744       -2193.553          38.000    25546443.447   102865234.422          41.000    25546435.048   108095670.295          38.000  
C16  37280003.431   194126620.599         282.438          46.000    37280004.771   150111035.944          45.000    37279996.730   157743795.978          43.000  
C23  24386733.260   126988525.782        3084.156          43.000                                                    24386716.999   103188312.153          45.000  
C24  25083892.369   130618537.430       -2164.257          41.000                                                    25083883.917   106138108.260          42.000  
C25  22493839.085   117130712.910         848.917          50.000                                                    22493832.473    95178966.525          50.000  
C27  25123020.455   130822273.391       -2134.101          40.000                                                    25123016.148   106303240.835          41.000  
C30  25787749.949   134283087.782        -268.407          37.000                                                    25787746.447   109115995.215          38.000  
C32  24951320.462   129928363.711        2263.004          40.000                                                    24951313.368   105576580.109          44.000  
C33  23685150.942   123334436.845       -1595.458          45.000                                                    23685158.179   100219044.550          46.000  
C38  35841854.805   186637172.932        -422.841          50.000                                                    35841844.405   151657992.193          51.000  
C39  36819036.067   191726436.629         180.216          48.000                                                    36819028.097   155793451.206          49.000  
C41  22001107.299   114565739.058         555.328          51.000                                                    22001107.656    93094062.989          52.000  
> 2022 08 25 07 14 09.0000000  0 41                     
G02  23873768.594   125457331.922       -3272.362          39.000    23873776.974    97759449.716          27.000                                                  
G05  21040952.589   110571683.801       -1696.176          49.000    21040960.844    86159763.620          44.000                                                  
G13  21208035.977   111449379.355       -1915.336          48.000    21208042.981    86843693.771          39.000                                                  
G14  24344577.626   127931712.575         -72.938          39.000    24344586.918    99687049.036          19.000    24344586.918    95533422.449          31.000  
G15  20256414.404   106448000.011          84.259          51.000    20256422.284    82946515.233          56.000                                                  
G18  21602920.138   113523827.257         493.566          47.000    21602927.643    88459847.810          39.000    21602928.358    84774833.791          39.000  
G20  23356834.521   122740832.943       -3173.417          38.000    23356844.599    95642208.035          22.000                                                  
G23  23632354.162   124188290.659        3176.007          39.000    23632362.614    96770241.607          28.000    23632363.472    92738081.447          32.000  
G24  21103547.991   110900279.579        2700.079          48.000    21103558.873    86415816.908          53.000    21103554.263    82815160.101          40.000  
R03  20538602.033   109944007.241        -803.446          52.000    20538607.554    85512695.208          49.000  
R04  20763660.018   111188677.702        1511.299          51.000    20763665.093    86480379.006          49.000  
R13  20618445.866   110101113.604        -728.046          39.000    20618451.245    85634178.068          45.000  
R14  20951883.854   111684821.795        3336.840          51.000    20951890.966    86866415.403          48.000  
R18  22974728.390   122641106.066       -3990.653          43.000    22974736.539    95386721.497          40.000  
R19  21476584.734   114885263.997       -2074.949          38.000    21476590.863    89355580.737          45.000  
R20  23081923.766   123429007.167        1955.809          35.000    23081930.949    96000339.151          42.000  
E03  25180073.761   132322579.927        1228.829          49.000    25180069.151   107404732.860          48.000    25180079.318   100101216.620          50.000  
E05  23851282.662   125339312.415        -545.429          52.000    23851276.604   101736474.156          51.000    23851287.933    94818402.740          54.000  
E09  26899260.716   141356923.344       -1808.661          42.000    26899257.964   114737769.255          44.000    26899267.328   106935603.499          45.000  
E15  25364462.190   133290553.786         714.058          47.000    25364458.044   108191384.363          47.000    25364468.748   100834136.279          49.000  
E24  26099472.178   137153522.519        1494.274          45.000    26099469.194   111325920.048          46.000    26099477.360   103755882.805          46.000  
E25  27303771.617   143482767.865        2836.515          39.000    27303767.829   116463290.232          39.000    27303780.694   108543361.609          43.000  
E31  27443303.956   144216033.661        -671.069          39.000    27443300.489   117058472.527          38.000    27443311.764   109098497.368          42.000  
E36  27449615.902   144249228.658       -3159.159          39.000    27449615.312   117084562.499          38.000    27449626.195   109122809.742          40.000  
J02  37344517.466   196247448.941         427.784          39.000    37344527.329   152920101.338          43.000    37344525.114   146548432.404          33.000  
J03  37217533.219   195579145.139        -405.873          40.000    37217542.297   152399323.544          42.000    37217539.474   146049349.418          32.000  
C06  37471557.820   195124773.944         426.535          41.000    37471554.354   150882868.109          44.000    37471545.330   158554874.755          43.000  
C09  39185623.138   204049406.133         477.272          38.000    39185621.727   157783957.628          42.000    39185611.327   165806867.975          40.000  
C13  36283454.417   188937398.463         275.031          48.000    36283456.562   146098383.684          48.000    36283445.947   153527114.070          47.000  
C14  25546864.137   133029607.047       -2193.402          38.000    25546864.441   102866930.414          41.000    25546856.257   108097452.531          38.000  
C16  37279949.377   194126338.028         282.462          45.000    37279950.521   150110817.435          45.000    37279942.462   157743566.361          43.000  
C23  24386140.741   126985441.616        3084.069          43.000                                                    24386124.802   103185806.018          45.000  
C24  25084308.056   130620701.714       -2164.486          41.000                                                    25084299.533   106139866.910          42.000  
C25  22493676.119   117129864.082         848.527          50.000                                                    22493669.436    95178276.785          50.000  
C27  25123430.334   130824407.501       -2134.251          40.000                                                    25123426.010   106304974.969          41.000  
C30  25787802.056   134283356.210        -268.631          37.000                                                    25787797.981   109116213.332          38.000  
C32  24950886.548   129926100.566        2263.087          40.000                                                    24950878.811   105574741.121          44.000  
C33  23685457.593   123336032.237       -1595.506          45.000                                                    23685464.633   100220340.933          46.000  
C38  35841936.037   186637595.696        -422.860          50.000                                                    35841925.530   151658335.723          51.000  
C39  36819001.526   191726256.266         180.289          48.000                                                    36818993.467   155793304.649          50.000  
C41  22001000.621   114565183.668         555.275          51.000                                                    22001000.978    93093611.694          52.000  
> 2022 08 25 07 14 10.0000000  0 41                     
G02  23874391.222   125460604.281       -3272.486          39.000    23874399.763    97761999.597          25.000                                                  
G05  21041275.518   110573380.191       -1696.685          49.000    21041283.809    86161085.482          44.000                                                  
G13  21208400.469   111451294.781       -1915.571          48.000    21208407.706    86845186.304          39.000                                                  
G14  24344592.118   127931785.801         -73.609          38.000    24344601.070    99687106.105          20.000    24344600.802    95533477.128          31.000  
G15  20256398.751   106447915.904          83.843          51.000    20256406.327    82946449.695          56.000                                                  
G18  21602826.147   113523333.991         492.822          47.000    21602833.652    88459463.444          39.000    21602834.510    84774465.445          39.000  
G20  23357438.100   122744006.549       -3173.877          37.000    23357448.482    95644680.967          22.000                                                  
G23  23631749.993   124185114.623        3175.956          39.000    23631758.087    96767766.772          28.000    23631759.463    92735709.732          32.000  
G24  21103034.274   110897579.731        2699.497          48.000    21103045.013    86413713.135          53.000    21103040.510    82813143.987          40.000  
R03  20538752.097   109944810.820        -803.734          52.000    20538757.618    85513320.208          49.000  
R04  20763377.884   111187166.432        1511.143          51.000    20763382.745    86479203.581          49.000  
R13  20618581.653   110101842.166        -729.071          40.000    20618587.729    85634744.732          45.000  
R14  20951258.242   111681485.236        3336.215          51.000    20951264.925    86863820.308          48.000  
R18  22975475.137   122645096.742       -3990.838          43.000    22975484.286    95389825.353          40.000  
R19  21476973.475   114887339.408       -2075.906          38.000    21476978.889    89357194.950          44.000  
R20  23081557.683   123427051.792        1954.954          35.000    23081565.295    95998818.304          42.000  
E03  25179839.695   132321351.118        1228.691          49.000    25179835.263   107403735.450          48.000    25179845.484   100100287.036          50.000  
E05  23851386.410   125339857.876        -545.596          53.000    23851380.388   101736916.900          51.000    23851391.717    94818815.373          55.000  
E09  26899604.999   141358732.030       -1808.745          42.000    26899602.086   114739237.349          44.000    26899611.521   106936971.757          45.000  
E15  25364326.403   133289839.967         713.437          47.000    25364322.133   108190804.972          47.000    25364332.925   100833596.284          49.000  
E24  26099188.168   137152028.433        1493.818          44.000    26099184.755   111324707.321          46.000    26099193.046   103754752.545          46.000  
E25  27303231.544   143479931.224        2836.591          39.000    27303228.184   116460987.774          39.000    27303240.907   108541215.714          43.000  
E31  27443431.880   144216705.063        -671.841          39.000    27443428.449   117059017.499          39.000    27443439.564   109099005.279          42.000  
E36  27450217.016   144252387.964       -3159.424          39.000    27450216.534   117087126.863          39.000    27450227.398   109125199.731          40.000  
J02  37344436.269   196247021.040         427.744          38.000    37344445.578   152919767.904          43.000    37344443.738   146548112.865          33.000  
J03  37217610.181   195579551.061        -406.001          40.000    37217619.580   152399639.847          42.000    37217616.811   146049652.535          32.000  
C06  37471476.302   195124347.380         426.469          41.000    37471472.424   150882538.260          44.000    37471463.472   158554528.141          43.000  
C09  39185531.309   204048928.953         477.114          38.000    39185530.112   157783588.656          42.000    39185519.694   165806480.232          40.000  
C13  36283401.311   188937123.510         274.785          49.000    36283403.705   146098171.079          47.000    36283393.144   153526890.650          47.000  
C14  25547285.525   133031800.519       -2193.619          38.000    25547285.864   102868626.543          41.000    25547277.466   108099234.904          39.000  
C16  37279895.163   194126055.546         282.373          46.000    37279896.342   150110599.012          45.000    37279888.247   157743336.826          42.000  
C23  24385549.026   126982357.662        3083.754          43.000                                                    24385532.515   103183300.053          45.000  
C24  25084724.530   130622866.422       -2165.005          41.000                                                    25084715.238   106141625.911          43.000  
C25  22493513.136   117129015.829         847.934          50.000                                                    22493506.524    95177587.511          50.000  
C27  25123839.946   130826541.898       -2134.566          40.000                                                    25123835.961   106306709.340          41.000  
C30  25787853.554   134283625.220        -269.429          37.000                                                    25787849.712   109116431.920          38.000  
C32  24950451.580   129923837.445        2263.031          40.000                                                    24950444.183   105572902.157          44.000  
C33  23685763.993   123337627.848       -1595.787          46.000                                                    23685771.069   100221637.497          46.000  
C38  35842017.216   186638018.657        -423.096          50.000                                                    35842006.799   151658679.414          51.000  
C39  36818966.771   191726076.010         180.146          48.000                                                    36818958.801   155793158.174          50.000  
C41  22000894.014   114564628.487         555.024          51.000                                                    22000894.354    93093160.564          52.000  
> 2022 08 25 07 14 11.0000000  0 41                     
G02  23875013.725   125463876.678       -3272.381          39.000    23875022.499    97764549.521          25.000                                                  
G05  21041598.482   110575076.924       -1696.952          49.000    21041606.541    86162407.610          44.000                                                  
G13  21208765.015   111453210.318       -1915.619          48.000    21208772.109    86846678.937          40.000                                                  
G14  24344606.056   127931859.520         -74.037          38.000    24344614.990    99687163.534          20.000    24344614.847    95533532.181          30.000  
G15  20256382.847   106447832.049          83.707          51.000    20256390.370    82946384.353          56.000                                                  
G18  21602732.460   113522841.344         492.282          47.000    21602740.036    88459079.559          39.000    21602740.787    84774097.553          40.000  
G20  23358042.324   122747180.369       -3173.900          37.000    23358052.348    95647154.067          23.000                                                  
G23  23631145.913   124181938.582        3175.881          39.000    23631153.489    96765291.944          28.000    23631155.490    92733338.021          32.000  
G24  21102520.343   110894880.282        2699.181          48.000    21102531.297    86411609.664          53.000    21102526.830    82811128.161          40.000  
R03  20538902.697   109945614.555        -803.823          52.000    20538907.843    85513945.333          49.000  
R04  20763095.000   111185655.229        1511.147          51.000    20763100.575    86478028.203          49.000  
R13  20618718.834   110102571.559        -729.991          40.000    20618724.212    85635312.040          44.000  
R14  20950631.968   111678149.144        3335.823          51.000    20950639.205    86861225.574          48.000  
R18  22976222.741   122649087.486       -3990.825          44.000    22976231.801    95392929.251          40.000  
R19  21477361.340   114889415.478       -2076.458          38.000    21477366.897    89358809.662          44.000  
R20  23081191.029   123425097.127        1954.089          35.000    23081199.677    95997298.016          42.000  
E03  25179605.968   132320122.356        1228.708          49.000    25179601.465   107402738.081          48.000    25179611.668   100099357.488          50.000  
E05  23851490.282   125340403.369        -545.555          52.000    23851484.082   101737359.669          51.000    23851495.554    94819228.040          55.000  
E09  26899949.156   141360540.636       -1808.700          42.000    26899946.315   114740705.371          44.000    26899955.714   106938339.954          45.000  
E15  25364190.474   133289126.562         713.146          46.000    25364186.239   108190225.904          47.000    25364197.192   100833056.595          49.000  
E24  26098903.872   137150534.625        1493.629          44.000    26098900.405   111323494.808          46.000    26098908.786   103753622.485          47.000  
E25  27302691.756   143477094.543        2836.779          39.000    27302688.379   116458685.273          39.000    27302701.084   108539069.785          43.000  
E31  27443559.232   144217376.837        -671.976          39.000    27443556.356   117059562.765          38.000    27443567.399   109099513.476          42.000  
E36  27450818.166   144255547.212       -3159.358          39.000    27450817.558   117089691.178          39.000    27450828.565   109127589.670          40.000  
J02  37344354.536   196246593.144         427.750          39.000    37344364.489   152919434.488          43.000    37344362.291   146547793.342          33.000  
J03  37217687.840   195579956.978        -405.902          40.000    37217696.935   152399956.139          43.000    37217694.059   146049955.657          32.000  
C06  37471394.623   195123920.853         426.465          42.000    37471390.638   150882208.445          44.000    37471381.543   158554181.558          43.000  
C09  39185440.052   204048451.826         477.046          38.000    39185438.748   157783219.704          42.000    39185427.991   165806092.525          40.000  
C13  36283348.615   188936848.671         274.780          49.000    36283350.956   146097958.554          48.000    36283340.431   153526667.316          48.000  
C14  25547706.930   133033994.049       -2193.637          38.000    25547707.234   102870322.704          41.000    25547698.746   108101017.310          38.000  
C16  37279840.734   194125773.100         282.378          45.000    37279842.020   150110380.604          45.000    37279833.925   157743107.322          42.000  
C23  24384956.525   126979273.848        3083.677          42.000                                                    24384940.336   103180794.208          45.000  
C24  25085140.074   130625031.456       -2165.307          41.000                                                    25085130.978   106143385.176          41.000  
C25  22493350.278   117128168.048         847.490          50.000                                                    22493343.702    95176898.617          49.000  
C27  25124250.326   130828676.456       -2134.672          40.000                                                    25124245.805   106308443.840          40.000  
C30  25787904.999   134283894.596        -269.634          37.000                                                    25787901.389   109116650.808          38.000  
C32  24950017.149   129921574.274        2263.121          40.000                                                    24950009.608   105571063.154          44.000  
C33  23686070.268   123339223.586       -1595.864          45.000                                                    23686077.487   100222934.160          46.000  
C38  35842098.342   186638441.729        -423.183          50.000                                                    35842087.995   151659023.193          51.000  
C39  36818932.587   191725895.755         180.235          48.000                                                    36818924.189   155793011.699          49.000  
C41  22000787.354   114564073.446         554.912          51.000                                                    22000787.801    93092709.547          52.000  
> 2022 08 25 07 14 12.0000000  0 41                     
G02  23875636.121   125467149.221       -3272.621          39.000    23875645.199    97767099.535          26.000                                                  
G05  21041921.286   110576774.168       -1697.494          49.000    21041929.613    86163730.135          44.000                                                  
G13  21209129.472   111455126.108       -1915.936          48.000    21209136.780    86848171.756          39.000                                                  
G14  24344620.279   127931933.855         -74.647          38.000    24344629.410    99687221.438          20.000    24344628.982    95533587.682          31.000  
G15  20256366.837   106447748.573          83.259          51.000    20256374.449    82946319.307          56.000                                                  
G18  21602638.772   113522349.410         491.633          47.000    21602646.545    88458696.243          39.000    21602647.206    84773730.208          39.000  
G20  23358646.529   122750354.477       -3174.242          38.000    23358656.232    95649627.419          24.000                                                  
G23  23630541.136   124178762.625        3175.910          39.000    23630549.069    96762817.175          28.000    23630550.695    92730966.376          32.000  
G24  21102007.038   110892181.361        2698.605          48.000    21102017.723    86409506.615          53.000    21102013.292    82809112.735          40.000  
R03  20539052.278   109946418.512        -804.096          52.000    20539058.014    85514570.637          49.000  
R04  20762813.420   111184144.205        1510.904          51.000    20762818.459    86476852.955          49.000  
R13  20618856.050   110103301.936        -730.927          40.000    20618861.035    85635880.118          45.000  
R14  20950006.159   111674813.653        3335.189          51.000    20950013.557    86858631.308          48.000  
R18  22976971.006   122653078.414       -3991.048          44.000    22976979.351    95396033.304          41.000  
R19  21477749.026   114891492.293       -2077.180          38.000    21477755.209    89360424.967          44.000  
R20  23080826.072   123423143.218        1953.494          35.000    23080834.256    95995778.307          42.000  
E03  25179372.080   132318893.735        1228.547          49.000    25179367.738   107401740.823          48.000    25179377.888   100098428.046          50.000  
E05  23851594.083   125340949.000        -545.716          53.000    23851587.990   101737802.549          51.000    23851599.373    94819640.806          55.000  
E09  26900293.063   141362349.301       -1808.724          42.000    26900290.454   114742173.441          44.000    26900299.907   106939708.193          45.000  
E15  25364054.866   133288413.687         712.614          47.000    25364050.720   108189647.280          47.000    25364061.513   100832517.312          49.000  
E24  26098619.754   137149041.296        1493.166          44.000    26098616.091   111322282.697          46.000    26098624.633   103752492.793          47.000  
E25  27302151.647   143474257.906        2836.540          39.000    27302148.627   116456382.819          39.000    27302161.296   108536923.898          43.000  
E31  27443687.443   144218049.119        -672.606          39.000    27443684.244   117060108.454          39.000    27443695.341   109100022.047          42.000  
E36  27451419.083   144258706.477       -3159.378          39.000    27451418.815   117092255.517          38.000    27451429.769   109129979.631          40.000  
J02  37344272.660   196246165.349         427.658          39.000    37344282.953   152919101.144          43.000    37344280.844   146547473.895          33.000  
J03  37217764.820   195580362.971        -406.063          41.000    37217773.987   152400272.503          43.000    37217771.574   146050258.837          32.000  
C06  37471312.282   195123494.464         426.279          42.000    37471308.726   150881878.733          44.000    37471299.667   158553835.079          43.000  
C09  39185348.134   204047974.774         477.007          38.000    39185347.044   157782850.813          42.000    39185336.358   165805704.886          40.000  
C13  36283295.901   188936574.003         274.551          49.000    36283298.153   146097746.163          47.000    36283287.735   153526444.133          47.000  
C14  25548128.228   133036187.727       -2193.653          38.000    25548128.514   102872018.999          41.000    25548119.919   108102799.858          39.000  
C16  37279786.733   194125490.790         282.212          45.000    37279787.966   150110162.309          45.000    37279779.693   157742877.920          42.000  
C23  24384364.346   126976190.276        3083.408          42.000                                                    24384348.192   103178288.553          45.000  
C24  25085555.796   130627196.925       -2165.713          41.000                                                    25085546.898   106145144.802          42.000  
C25  22493187.545   117127320.860         846.895          50.000                                                    22493181.040    95176210.212          49.000  
C27  25124660.509   130830811.315       -2135.015          40.000                                                    25124655.738   106310178.591          40.000  
C30  25787957.194   134284164.545        -270.171          36.000                                                    25787953.227   109116870.163          39.000  
C32  24949581.984   129919311.170        2263.086          40.000                                                    24949574.944   105569224.197          44.000  
C33  23686376.883   123340819.560       -1596.099          45.000                                                    23686383.994   100224231.020          46.000  
C38  35842179.806   186638865.022        -423.418          50.000                                                    35842169.335   151659367.153          51.000  
C39  36818897.689   191725715.644         179.995          48.000                                                    36818889.612   155792865.342          49.000  
C41  22000681.158   114563518.631         554.639          51.000                                                    22000681.248    93092258.713          52.000  
> 2022 08 25 07 14 13.0000000  0 41                     
G02  23876259.571   125470421.806       -3272.554          39.000    23876267.970    97769649.594          27.000                                                  
G05  21042244.394   110578471.756       -1697.734          48.000    21042252.560    86165052.928          44.000                                                  
G13  21209494.089   111457041.998       -1915.869          48.000    21209501.201    86849664.650          39.000                                                  
G14  24344634.307   127932008.675         -75.127          37.000    24344643.616    99687279.729          20.000    24344643.223    95533643.554          30.000  
G15  20256350.612   106447665.322          83.159          50.000    20256358.599    82946254.437          56.000                                                  
G18  21602545.567   113521858.107         491.006          47.000    21602552.912    88458313.405          40.000    21602553.769    84773363.322          39.000  
G20  23359250.913   122753528.770       -3174.370          38.000    23359260.312    95652100.880          22.000                                                  
G23  23629937.055   124175586.640        3176.055          39.000    23629944.668    96760342.378          28.000    23629946.240    92728594.690          32.000  
G24  21101493.232   110889482.846        2698.330          48.000    21101504.096    86407403.871          53.000    21101499.736    82807097.610          39.000  
R03  20539203.164   109947222.587        -804.119          52.000    20539208.275    85515196.027          49.000  
R04  20762530.785   111182633.208        1510.979          52.000    20762536.253    86475677.739          50.000  
R13  20618992.444   110104033.134        -731.624          40.000    20618998.019    85636448.820          45.000  
R14  20949380.511   111671478.605        3334.869          51.000    20949387.855    86856037.387          48.000  
R18  22977717.949   122657069.319       -3990.920          43.000    22977727.009    95399137.339          40.000  
R19  21478137.570   114893569.774       -2077.906          38.000    21478143.485    89362040.781          44.000  
R20  23080460.060   123421190.041        1952.939          35.000    23080469.084    95994259.160          42.000  
E03  25179138.264   132317665.128        1228.614          49.000    25179134.065   107400743.575          48.000    25179144.072   100097498.609          50.000  
E05  23851697.813   125341494.649        -545.620          53.000    23851691.791   101738245.450          52.000    23851703.192    94820053.584          55.000  
E09  26900637.435   141364157.872       -1808.467          42.000    26900634.647   114743641.436          44.000    26900644.082   106941076.365          45.000  
E15  25363919.401   133287701.233         712.265          46.000    25363915.237   108189068.984          47.000    25363925.941   100831978.341          49.000  
E24  26098335.690   137147548.208        1492.949          44.000    26098332.081   111321070.768          45.000    26098340.497   103751363.279          47.000  
E25  27301611.770   143471421.148        2836.777          39.000    27301608.822   116454080.249          39.000    27301621.491   108534777.907          43.000  
E31  27443815.581   144218721.762        -672.842          39.000    27443812.151   117060654.425          38.000    27443823.355   109100530.899          42.000  
E36  27452020.179   144261865.661       -3159.170          39.000    27452019.857   117094819.777          39.000    27452030.918   109132369.524          40.000  
J02  37344191.338   196245737.480         427.944          39.000    37344201.309   152918767.739          43.000    37344199.397   146547154.371          33.000  
J03  37217842.139   195580768.905        -405.903          41.000    37217851.145   152400588.811          43.000    37217849.054   146050561.968          33.000  
C06  37471230.692   195123068.094         426.308          41.000    37471226.761   150881549.037          44.000    37471217.791   158553488.617          43.000  
C09  39185256.394   204047497.824         476.855          38.000    39185255.447   157782482.011          42.000    39185244.672   165805317.325          39.000  
C13  36283243.134   188936299.428         274.589          49.000    36283245.421   146097533.839          47.000    36283234.968   153526221.015          47.000  
C14  25548549.704   133038381.472       -2193.692          38.000    25548549.829   102873715.340          41.000    25548541.306   108104582.451          38.000  
C16  37279732.537   194125208.507         282.299          45.000    37279733.644   150109944.027          45.000    37279725.550   157742648.542          42.000  
C23  24383772.256   126973106.799        3083.437          43.000                                                    24383756.049   103175782.983          45.000  
C24  25085971.698   130629362.730       -2165.948          41.000                                                    25085962.799   106146904.691          42.000  
C25  22493025.169   117126474.132         846.503          50.000                                                    22493018.396    95175522.173          49.000  
C27  25125070.389   130832946.323       -2135.133          40.000                                                    25125065.779   106311913.448          40.000  
C30  25788008.854   134284434.903        -270.547          37.000                                                    25788005.191   109117089.847          38.000  
C32  24949147.964   129917047.964        2263.349          40.000                                                    24949140.316   105567385.159          44.000  
C33  23686683.265   123342415.648       -1596.153          45.000                                                    23686690.484   100225527.972          46.000  
C38  35842261.075   186639288.400        -423.409          51.000                                                    35842250.711   151659711.186          51.000  
C39  36818863.077   191725535.508         180.126          48.000                                                    36818854.929   155792718.971          49.000  
C41  22000574.462   114562963.922         554.692          51.000                                                    22000574.784    93091807.968          52.000  
> 2022 08 25 07 14 14.0000000  0 41                     
G02  23876881.503   125473694.538       -3272.789          39.000    23876890.866    97772199.775          26.000                                                  
G05  21042567.573   110580169.862       -1698.297          48.000    21042575.757    86166376.135          44.000                                                  
G13  21209859.010   111458958.154       -1916.222          48.000    21209865.961    86851157.761          39.000                                                  
G14  24344648.798   127932084.132         -75.670          37.000    24344657.983    99687338.543          20.000    24344657.608    95533699.897          30.000  
G15  20256335.244   106447582.468          82.728          51.000    20256342.892    82946189.877          56.000                                                  
G18  21602452.005   113521367.544         490.277          48.000    21602459.671    88457931.143          39.000    21602460.422    84772996.990          40.000  
G20  23359855.422   122756703.394       -3174.635          38.000    23359864.285    95654574.592          23.000                                                  
G23  23629332.189   124172410.801        3175.766          39.000    23629340.391    96757867.703          28.000    23629342.303    92726223.124          32.000  
G24  21100980.069   110886784.887        2697.713          48.000    21100990.719    86405301.568          53.000    21100986.341    82805082.896          39.000  
R03  20539353.050   109948026.941        -804.411          52.000    20539358.464    85515821.635          49.000  
R04  20762249.152   111181122.426        1510.744          51.000    20762254.030    86474502.689          49.000  
R13  20619129.071   110104765.303        -732.610          40.000    20619135.039    85637018.287          45.000  
R14  20948755.185   111668144.156        3334.239          51.000    20948762.314    86853443.926          48.000  
R18  22978465.965   122661060.451       -3991.154          43.000    22978474.649    95402241.543          40.000  
R19  21478526.132   114895648.031       -2078.668          38.000    21478532.046    89363657.206          44.000  
R20  23080094.317   123419237.706        1952.046          35.000    23080104.002    95992740.677          42.000  
E03  25178904.520   132316436.689        1228.387          49.000    25178900.213   107399746.468          48.000    25178910.309   100096569.302          50.000  
E05  23851801.650   125342040.466        -545.826          53.000    23851795.753   101738688.481          52.000    23851807.064    94820466.493          55.000  
E09  26900981.378   141365966.534       -1808.634          42.000    26900978.644   114745109.504          44.000    26900988.275   106942444.602          45.000  
E15  25363783.739   133286989.341         711.708          47.000    25363779.933   108188491.147          46.000    25363790.458   100831439.802          49.000  
E24  26098051.519   137146055.574        1492.469          44.000    26098047.963   111319859.214          45.000    26098056.469   103750234.114          47.000  
E25  27301071.947   143468584.496        2836.664          39.000    27301069.088   116451777.779          39.000    27301081.686   108532632.005          43.000  
E31  27443943.685   144219394.986        -673.414          39.000    27443940.397   117061200.871          39.000    27443951.458   109101040.186          42.000  
E36  27452621.043   144265024.967       -3159.362          39.000    27452621.132   117097384.140          38.000    27452632.104   109134759.510          40.000  
J02  37344109.927   196245309.725         427.694          38.000    37344120.076   152918434.431          43.000    37344117.789   146546834.960          32.000  
J03  37217919.369   195581174.991        -406.046          41.000    37217928.304   152400905.244          43.000    37217926.338   146050865.207          32.000  
C06  37471148.638   195122641.882         426.155          42.000    37471144.903   150881219.469          44.000    37471135.897   158553142.292          43.000  
C09  39185164.959   204047020.996         476.662          37.000    39185164.101   157782113.293          42.000    39185153.219   165804929.865          39.000  
C13  36283190.778   188936025.094         274.280          49.000    36283192.761   146097321.712          47.000    36283182.254   153525998.099          47.000  
C14  25548970.931   133040575.421       -2193.914          38.000    25548971.163   102875411.833          41.000    25548962.711   108106365.209          38.000  
C16  37279678.161   194124926.377         282.101          46.000    37279679.501   150109725.864          45.000    37279671.282   157742419.289          42.000  
C23  24383180.166   126970023.608        3083.117          43.000                                                    24383163.923   103173277.635          45.000  
C24  25086387.778   130631529.011       -2166.492          41.000                                                    25086378.862   106148664.964          42.000  
C25  22492862.632   117125628.017         845.891          50.000                                                    22492855.949    95174834.631          50.000  
C27  25125480.161   130835081.660       -2135.477          40.000                                                    25125475.855   106313648.593          40.000  
C30  25788060.835   134284705.815        -271.258          36.000                                                    25788057.225   109117309.985          38.000  
C32  24948712.978   129914784.883        2263.102          39.000                                                    24948705.688   105565546.225          44.000  
C33  23686990.040   123344012.003       -1596.434          46.000                                                    23686997.116   100226825.141          46.000  
C38  35842342.254   186639712.030        -423.709          50.000                                                    35842332.033   151660055.414          51.000  
C39  36818828.625   191725355.534         179.973          48.000                                                    36818820.388   155792572.726          49.000  
C41  22000467.981   114562409.491         554.343          51.000                                                    22000468.267    93091357.448          52.000  
> 2022 08 25 07 14 15.0000000  0 41                     
G02  23877504.113   125476967.290       -3272.911          39.000    23877513.476    97774749.964          25.000                                                  
G05  21042890.806   110581868.336       -1698.752          48.000    21042898.918    86167699.620          44.000                                                  
G13  21210223.770   111460874.417       -1916.388          48.000    21210230.525    86852650.948          39.000                                                  
G14  24344663.433   127932160.043         -76.169          38.000    24344672.403    99687397.690          19.000    24344672.010    95533756.577          31.000  
G15  20256319.412   106447499.858          82.327          51.000    20256327.168    82946125.498          55.000                                                  
G18  21602358.532   113520877.585         489.564          48.000    21602366.627    88457549.366          40.000    21602367.163    84772631.113          39.000  
G20  23360459.413   122759878.212       -3175.011          38.000    23360468.294    95657048.476          23.000                                                  
G23  23628727.698   124169234.941        3175.702          39.000    23628736.096    96755393.021          27.000    23628738.133    92723851.547          33.000  
G24  21100466.906   110884087.325        2697.230          47.000    21100477.431    86403199.574          53.000    21100472.946    82803068.492          40.000  
R03  20539503.025   109948831.442        -804.685          52.000    20539508.707    85516447.360          50.000  
R04  20761967.089   111179611.707        1510.607          51.000    20761971.967    86473327.683          49.000  
R13  20619267.305   110105498.334        -733.602          40.000    20619272.309    85637588.421          45.000  
R14  20948129.733   111664810.150        3333.677          51.000    20948136.827    86850850.808          48.000  
R18  22979213.587   122665051.630       -3991.252          43.000    22979222.253    95405345.787          40.000  
R19  21478914.444   114897726.937       -2079.323          38.000    21478920.733    89365274.137          44.000  
R20  23079730.647   123417286.063        1951.137          35.000    23079739.027    95991222.733          42.000  
E03  25178670.989   132315208.276        1228.295          49.000    25178666.504   107398749.384          48.000    25178676.547   100095640.020          50.000  
E05  23851905.523   125342586.294        -545.944          53.000    23851899.483   101739131.528          51.000    23851910.937    94820879.406          54.000  
E09  26901325.786   141367775.125       -1808.718          42.000    26901322.819   114746577.516          44.000    26901332.451   106943812.789          45.000  
E15  25363648.470   133286277.852         711.166          46.000    25363644.432   108187913.642          47.000    25363655.082   100830901.560          49.000  
E24  26097767.491   137144563.225        1492.103          44.000    26097763.953   111318647.894          46.000    26097772.477   103749105.157          47.000  
E25  27300531.713   143465747.697        2836.766          39.000    27300529.247   116449475.187          39.000    27300541.827   108530485.992          43.000  
E31  27444071.859   144220068.554        -673.874          39.000    27444068.625   117061747.596          39.000    27444079.632   109101549.738          42.000  
E36  27453222.586   144268184.106       -3159.342          38.000    27453222.300   117099948.376          38.000    27453233.271   109137149.378          40.000  
J02  37344028.480   196244881.891         427.899          38.000    37344038.504   152918101.047          43.000    37344036.235   146546515.462          32.000  
J03  37217996.456   195581581.013        -405.998          41.000    37218005.837   152401221.625          43.000    37218003.461   146051168.408          32.000  
C06  37471066.726   195122215.690         426.072          42.000    37471063.045   150880889.906          44.000    37471054.111   158552795.971          43.000  
C09  39185073.755   204046544.162         476.741          38.000    39185072.504   157781744.582          41.000    39185061.604   165804542.401          39.000  
C13  36283137.885   188935750.812         274.138          49.000    36283139.869   146097109.615          47.000    36283129.666   153525775.218          47.000  
C14  25549392.229   133042769.378       -2194.099          38.000    25549392.372   102877108.338          41.000    25549384.098   108108147.977          38.000  
C16  37279623.893   194124644.262         282.048          46.000    37279625.322   150109507.715          45.000    37279617.174   157742190.045          42.000  
C23  24382588.236   126966940.535        3082.912          43.000                                                    24382571.904   103170772.383          44.000  
C24  25086803.983   130633695.606       -2166.858          41.000                                                    25086794.924   106150425.496          42.000  
C25  22492699.952   117124782.373         845.319          49.000                                                    22492693.609    95174147.481          50.000  
C27  25125890.452   130837217.157       -2135.627          40.000                                                    25125885.931   106315383.859          40.000  
C30  25788113.191   134284977.115        -271.609          37.000                                                    25788109.349   109117530.434          39.000  
C32  24948278.261   129912521.703        2263.132          39.000                                                    24948271.059   105563707.209          44.000  
C33  23687296.476   123345608.466       -1596.604          45.000                                                    23687303.624   100228122.393          46.000  
C38  35842423.772   186640135.750        -423.846          50.000                                                    35842413.408   151660399.724          51.000  
C39  36818793.959   191725175.558         179.875          48.000                                                    36818785.865   155792426.478          49.000  
C41  22000361.374   114561855.156         554.177          51.000                                                    22000361.803    93090907.003          52.000  
> 2022 08 25 07 14 16.0000000  0 41                     
G02  23878127.510   125480240.169       -3272.944          39.000    23878136.265    97777300.236          26.000                                                  
G05  21043214.021   110583567.264       -1699.218          49.000    21043222.294    86169023.458          44.000                                                  
G13  21210588.227   111462790.878       -1916.591          49.000    21210595.267    86854144.302          39.000                                                  
G14  24344677.961   127932236.541         -76.816          37.000    24344687.092    99687457.315          19.000    24344686.591    95533813.718          31.000  
G15  20256303.831   106447417.573          82.119          51.000    20256311.550    82946061.385          55.000                                                  
G18  21602265.631   113520388.315         488.902          48.000    21602273.547    88457168.117          40.000    21602274.066    84772265.752          39.000  
G20  23361062.814   122763053.282       -3175.210          38.000    23361072.660    95659522.548          22.000                                                  
G23  23628123.778   124166059.143        3175.733          39.000    23628131.480    96752918.364          27.000    23628133.803    92721480.007          31.000  
G24  21099953.619   110881390.271        2696.812          48.000    21099964.269    86401097.971          53.000    21099959.730    82801054.453          39.000  
R03  20539653.535   109949636.211        -804.903          52.000    20539659.110    85517073.289          50.000  
R04  20761684.348   111178101.116        1510.546          51.000    20761689.976    86472152.779          49.000  
R13  20619404.396   110106232.242        -734.415          40.000    20619409.811    85638159.249          45.000  
R14  20947504.550   111661476.710        3333.146          52.000    20947511.483    86848258.144          48.000  
R18  22979961.709   122669042.952       -3991.343          42.000    22979970.161    95408450.151          40.000  
R19  21479303.381   114899806.589       -2079.931          38.000    21479309.510    89366891.649          44.000  
R20  23079366.566   123415335.171        1950.426          34.000    23079374.178    95989705.370          42.000  
E03  25178437.227   132313979.963        1228.252          49.000    25178432.813   107397752.377          48.000    25178442.820   100094710.812          50.000  
E05  23852009.342   125343132.245        -546.006          53.000    23852003.498   101739574.663          51.000    23852014.827    94821292.412          54.000  
E09  26901669.764   141369583.734       -1808.657          42.000    26901667.137   114748045.541          44.000    26901676.608   106945180.984          46.000  
E15  25363513.077   133285566.876         710.694          46.000    25363509.306   108187336.547          47.000    25363519.778   100830363.714          49.000  
E24  26097483.695   137143071.261        1491.753          44.000    26097480.193   111317436.887          46.000    26097488.592   103747976.502          47.000  
E25  27299992.051   143462910.945        2836.592          40.000    27299989.263   116447172.639          39.000    27300002.022   108528340.016          42.000  
E31  27444199.998   144220742.603        -674.336          39.000    27444196.710   117062294.715          39.000    27444207.896   109102059.649          42.000  
E36  27453823.592   144271343.286       -3159.165          38.000    27453823.414   117102512.634          38.000    27453834.439   109139539.266          41.000  
J02  37343947.658   196244454.195         427.681          38.000    37343957.057   152917767.787          43.000    37343954.663   146546196.088          32.000  
J03  37218073.918   195581987.108        -406.098          41.000    37218082.996   152401538.065          43.000    37218080.619   146051471.665          32.000  
C06  37470985.100   195121789.602         426.034          41.000    37470981.276   150880560.428          44.000    37470972.253   158552449.738          43.000  
C09  39184981.640   204046067.488         476.737          38.000    39184980.890   157781375.987          41.000    39184970.097   165804155.069          39.000  
C13  36283085.476   188935476.688         274.032          49.000    36283087.370   146096897.647          48.000    36283076.970   153525552.472          47.000  
C14  25549813.580   133044963.521       -2194.206          37.000    25549813.795   102878804.991          41.000    25549805.414   108109930.895          38.000  
C16  37279569.893   194124362.261         281.913          46.000    37279571.179   150109289.660          45.000    37279563.013   157741960.898          42.000  
C23  24381996.432   126963857.681        3082.777          43.000                                                    24381979.850   103168267.314          45.000  
C24  25087220.225   130635862.591       -2167.238          40.000                                                    25087211.058   106152186.355          42.000  
C25  22492537.809   117123937.284         844.823          50.000                                                    22492531.215    95173460.777          50.000  
C27  25126300.564   130839352.929       -2135.895          40.000                                                    25126296.079   106317119.347          40.000  
C30  25788165.422   134285248.966        -272.027          37.000                                                    25788161.545   109117751.340          39.000  
C32  24947843.454   129910258.576        2263.158          39.000                                                    24947836.520   105561868.239          44.000  
C33  23687603.091   123347205.143       -1596.798          46.000                                                    23687610.238   100229419.827          46.000  
C38  35842505.076   186640559.663        -423.996          50.000                                                    35842494.819   151660744.185          51.000  
C39  36818759.705   191724995.671         179.804          48.000                                                    36818751.288   155792280.303          49.000  
C41  22000255.089   114561301.037         554.046          50.000                                                    22000255.447    93090456.736          52.000  
> 2022 08 25 07 14 17.0000000  0 41                     
G02  23878750.585   125483513.153       -3273.094          39.000    23878759.180    97779850.618          26.000                                                  
G05  21043537.629   110585266.629       -1699.661          49.000    21043545.616    86170347.637          44.000                                                  
G13  21210952.934   111464707.531       -1916.854          49.000    21210960.135    86855637.802          39.000                                                  
G14  24344692.059   127932313.644         -77.396          38.000    24344701.798    99687517.381          19.000    24344701.244    95533871.290          31.000  
G15  20256288.445   106447335.622          81.701          51.000    20256295.807    82945997.521          55.000                                                  
G18  21602172.552   113519899.756         488.156          48.000    21602180.539    88456787.421          40.000    21602181.129    84771900.919          39.000  
G20  23361667.627   122766228.637       -3175.428          38.000    23361676.990    95661996.841          23.000                                                  
G23  23627518.983   124162883.412        3175.646          39.000    23627527.114    96750443.760          27.000    23627529.330    92719108.516          32.000  
G24  21099440.599   110878693.697        2696.330          48.000    21099451.088    86398996.745          53.000    21099446.567    82799040.778          40.000  
R03  20539803.796   109950441.240        -805.244          52.000    20539809.460    85517699.423          49.000  
R04  20761402.839   111176590.630        1510.336          51.000    20761407.842    86470977.959          49.000  
R13  20619542.596   110106967.059        -735.191          40.000    20619547.509    85638730.774          45.000  
R14  20946878.884   111658143.835        3332.542          51.000    20946886.442    86845665.906          48.000  
R18  22980707.937   122673034.349       -3991.567          42.000    22980717.980    95411554.562          40.000  
R19  21479692.586   114901886.997       -2080.800          37.000    21479698.375    89368509.737          44.000  
R20  23079000.983   123413385.093        1949.606          34.000    23079009.507    95988188.647          42.000  
E03  25178203.571   132312751.761        1228.117          48.000    25178199.193   107396755.458          48.000    25178209.093   100093781.685          50.000  
E05  23852113.286   125343678.287        -546.155          53.000    23852107.264   101740017.884          52.000    23852118.736    94821705.494          54.000  
E09  26902013.957   141371392.326       -1808.694          42.000    26902011.474   114749513.546          44.000    26902020.801   106946549.171          45.000  
E15  25363377.951   133284856.390         710.129          46.000    25363374.109   108186759.863          46.000    25363384.581   100829826.238          49.000  
E24  26097200.007   137141579.686        1491.271          45.000    26097196.397   111316226.193          46.000    26097204.760   103746848.136          47.000  
E25  27299452.031   143460074.167        2836.711          39.000    27299449.619   116444870.061          39.000    27299462.198   108526194.017          43.000  
E31  27444328.476   144221417.088        -674.686          40.000    27444325.099   117062842.192          38.000    27444336.249   109102569.900          42.000  
E36  27454424.814   144274502.490       -3159.290          39.000    27454424.653   117105076.918          38.000    27454435.606   109141929.179          40.000  
J02  37343866.461   196244026.450         427.717          38.000    37343875.396   152917434.487          43.000    37343873.180   146545876.683          33.000  
J03  37218151.398   195582393.233        -406.238          40.000    37218160.369   152401854.524          43.000    37218157.795   146051774.936          32.000  
C06  37470902.867   195121363.622         425.895          42.000    37470899.526   150880231.034          44.000    37470890.466   158552103.589          43.000  
C09  39184890.008   204045590.896         476.475          38.000    39184889.579   157781007.462          41.000    39184878.590   165803767.799          39.000  
C13  36283032.387   188935202.744         273.854          49.000    36283034.656   146096685.816          47.000    36283024.346   153525329.868          47.000  
C14  25550234.950   133047157.755       -2194.452          37.000    25550235.146   102880501.703          41.000    25550226.748   108111713.883          38.000  
C16  37279515.660   194124080.338         281.783          45.000    37279516.875   150109071.660          45.000    37279508.888   157741731.812          42.000  
C23  24381404.074   126960775.033        3082.510          43.000                                                    24381387.903   103165762.408          45.000  
C24  25087636.055   130638029.986       -2167.636          40.000                                                    25087627.245   106153947.544          42.000  
C25  22492375.612   117123092.751         844.229          50.000                                                    22492369.090    95172774.515          50.000  
C27  25126710.747   130841488.926       -2136.132          41.000                                                    25126706.316   106318855.017          40.000  
C30  25788217.117   134285521.296        -272.660          37.000                                                    25788213.919   109117972.628          38.000  
C32  24947409.111   129907995.454        2263.160          39.000                                                    24947401.928   105560029.263          44.000  
C33  23687909.741   123348802.019       -1597.001          45.000                                                    23687917.014   100230717.417          46.000  
C38  35842586.809   186640983.753        -424.262          50.000                                                    35842576.231   151661088.793          51.000  
C39  36818725.021   191724815.864         179.708          48.000                                                    36818716.783   155792134.201          49.000  
C41  22000149.001   114560747.121         553.766          51.000                                                    22000149.072    93090006.631          51.000  
> 2022 08 25 07 14 18.0000000  0 41                     
G02  23879372.605   125486786.198       -3272.982          40.000    23879381.951    97782401.039          26.000                                                  
G05  21043861.094   110586966.417       -1699.955          49.000    21043869.117    86171672.145          44.000                                                  
G13  21211317.319   111466624.365       -1916.874          49.000    21211324.860    86857131.430          39.000                                                  
G14  24344707.248   127932391.260         -77.831          38.000    24344716.486    99687577.870          18.000    24344715.986    95533929.257          30.000  
G15  20256272.578   106447253.992          81.510          51.000    20256280.315    82945933.919          55.000                                                  
G18  21602079.865   113519411.851         487.550          48.000    21602087.799    88456407.236          40.000    21602088.317    84771536.577          39.000  
G20  23362271.850   122769404.221       -3175.668          38.000    23362281.302    95664471.322          23.000                                                  
G23  23626915.332   124159707.711        3175.792          39.000    23626922.873    96747969.201          27.000    23626925.089    92716737.059          32.000  
G24  21098927.401   110875997.600        2695.968          48.000    21098938.033    86396895.894          53.000    21098933.566    82797027.465          40.000  
R03  20539954.110   109951246.491        -805.349          52.000    20539959.739    85518325.722          49.000  
R04  20761120.562   111175080.288        1510.334          51.000    20761125.708    86469803.246          49.000  
R13  20619679.347   110107702.729        -736.092          40.000    20619685.226    85639302.966          45.000  
R14  20946254.022   111654811.485        3332.128          51.000    20946261.169    86843074.083          48.000  
R18  22981456.739   122677025.839       -3991.463          42.000    22981465.620    95414659.051          40.000  
R19  21480082.363   114903968.101       -2081.314          38.000    21480087.563    89370128.374          44.000  
R20  23078636.187   123411435.756        1949.037          34.000    23078644.997    95986672.498          42.000  
E03  25177969.952   132311523.645        1228.097          48.000    25177965.538   107395758.610          48.000    25177975.384   100092852.618          50.000  
E05  23852217.123   125344224.411        -546.127          52.000    23852211.154   101740461.161          51.000    23852222.662    94822118.631          54.000  
E09  26902358.008   141373200.932       -1808.612          42.000    26902355.631   114750981.569          44.000    26902364.976   106947917.368          45.000  
E15  25363242.808   133284146.365         709.899          46.000    25363239.020   108186183.535          47.000    25363249.473   100829289.102          49.000  
E24  26096916.104   137140088.438        1491.075          44.000    26096912.584   111315015.769          45.000    26096921.000   103745720.016          47.000  
E25  27298912.047   143457237.371        2836.798          39.000    27298909.688   116442567.470          38.000    27298922.375   108524047.999          42.000  
E31  27444456.936   144222092.050        -675.126          39.000    27444453.398   117063390.051          38.000    27444464.692   109103080.506          42.000  
E36  27455026.142   144277661.656       -3159.086          39.000    27455025.677   117107641.159          38.000    27455036.756   109144319.054          40.000  
J02  37343784.478   196243598.754         427.745          38.000    37343794.217   152917101.211          43.000    37343792.001   146545557.295          32.000  
J03  37218228.575   195582799.384        -406.102          40.000    37218237.438   152402170.999          43.000    37218235.043   146052078.231          31.000  
C06  37470821.349   195120937.724         425.912          41.000    37470817.632   150879901.704          44.000    37470808.644   158551757.514          43.000  
C09  39184798.787   204045114.379         476.571          38.000    39184798.000   157780638.987          41.000    39184787.011   165803380.590          39.000  
C13  36282980.209   188934928.937         273.871          48.000    36282982.175   146096474.093          47.000    36282971.775   153525107.377          47.000  
C14  25550656.391   133049352.108       -2194.562          37.000    25550656.659   102882198.522          41.000    25550648.260   108113496.977          38.000  
C16  37279461.606   194123798.508         281.825          45.000    37279462.732   150108853.731          45.000    37279454.709   157741502.800          43.000  
C23  24380811.877   126957692.551        3082.484          43.000                                                    24380795.938   103163257.648          45.000  
C24  25088052.456   130640197.782       -2167.970          40.000                                                    25088043.629   106155709.051          42.000  
C25  22492213.647   117122248.735         843.788          50.000                                                    22492207.000    95172088.686          50.000  
C27  25127121.270   130843625.170       -2136.256          41.000                                                    25127116.499   106320590.890          40.000  
C30  25788269.670   134285794.089        -273.004          37.000                                                    25788266.311   109118194.280          39.000  
C32  24946974.304   129905732.333        2263.182          39.000                                                    24946967.246   105558190.294          44.000  
C33  23688216.588   123350399.080       -1597.160          46.000                                                    23688223.610   100232015.160          46.000  
C38  35842667.917   186641407.997        -424.274          50.000                                                    35842657.713   151661433.530          51.000  
C39  36818690.301   191724636.131         179.798          48.000                                                    36818682.260   155791988.152          49.000  
C41  22000042.376   114560193.377         553.714          50.000                                                    22000042.752    93089556.673          52.000  
> 2022 08 25 07 14 19.0000000  0 41                     
G02  23879995.644   125490059.314       -3273.081          39.000    23880004.919    97784951.521          27.000                                                  
G05  21044184.523   110588666.610       -1700.337          49.000    21044192.618    86172996.968          44.000                                                  
G13  21211682.526   111468541.344       -1916.992          48.000    21211689.674    86858625.175          39.000                                                  
G14  24344722.097   127932469.425         -78.339          37.000    24344731.228    99687638.778          18.000    24344730.817    95533987.633          31.000  
G15  20256257.192   106447172.637          81.260          51.000    20256264.823    82945870.522          55.000                                                  
G18  21601986.642   113518924.595         486.963          48.000    21601995.148    88456027.560          40.000    21601995.595    84771172.716          39.000  
G20  23362875.573   122772580.027       -3175.898          38.000    23362885.812    95666945.972          23.000                                                  
G23  23626310.734   124156532.060        3175.679          39.000    23626318.560    96745494.654          28.000    23626320.973    92714365.634          33.000  
G24  21098414.328   110873301.960        2695.479          48.000    21098425.085    86394795.398          53.000    21098420.617    82795014.489          40.000  
R03  20540104.264   109952051.894        -805.454          52.000    20540110.250    85518952.152          49.000  
R04  20760838.821   111173570.047        1510.234          51.000    20760843.699    86468628.612          49.000  
R13  20619817.510   110108439.300        -736.997          40.000    20619823.300    85639875.852          45.000  
R14  20945628.946   111651479.619        3331.633          51.000    20945636.075    86840482.625          48.000  
R18  22982204.325   122681017.459       -3991.626          43.000    22982213.349    95417763.642          40.000  
R19  21480470.264   114906049.911       -2082.005          38.000    21480476.839    89371747.552          43.000  
R20  23078273.089   123409487.126        1948.283          34.000    23078280.611    95985156.900          42.000  
E03  25177736.243   132310295.590        1228.042          49.000    25177731.758   107394761.812          48.000    25177741.693   100091923.603          51.000  
E05  23852321.138   125344770.603        -546.172          53.000    23852315.134   101740904.501          51.000    23852326.588    94822531.819          54.000  
E09  26902702.165   141375009.491       -1808.549          42.000    26902699.788   114752449.555          43.000    26902709.134   106949285.531          45.000  
E15  25363107.807   133283436.816         709.317          46.000    25363103.966   108185607.614          47.000    25363114.437   100828752.339          49.000  
E24  26096632.594   137138597.539        1490.777          45.000    26096628.824   111313805.623          46.000    26096637.293   103744592.163          47.000  
E25  27298371.848   143454400.517        2836.856          40.000    27298369.990   116440264.830          39.000    27298382.516   108521901.946          43.000  
E31  27444585.450   144222767.419        -675.605          39.000    27444581.769   117063938.249          38.000    27444593.223   109103591.421          43.000  
E36  27455627.077   144280820.780       -3159.097          38.000    27455627.024   117110205.379          38.000    27455637.924   109146708.907          41.000  
J02  37343703.764   196243171.076         427.730          38.000    37343712.734   152916767.962          43.000    37343710.643   146545237.934          32.000  
J03  37218305.965   195583205.568        -406.167          41.000    37218314.775   152402487.507          43.000    37218312.309   146052381.543          32.000  
C06  37470739.669   195120511.890         425.853          41.000    37470735.917   150879572.427          44.000    37470726.875   158551411.491          43.000  
C09  39184707.029   204044637.955         476.444          38.000    39184706.600   157780270.588          41.000    39184695.611   165802993.449          39.000  
C13  36282927.281   188934655.260         273.646          49.000    36282929.783   146096262.469          47.000    36282919.186   153524884.990          47.000  
C14  25551077.653   133051546.527       -2194.303          38.000    25551077.992   102883895.382          41.000    25551069.701   108115280.125          38.000  
C16  37279407.535   194123516.733         281.775          45.000    37279408.732   150108635.840          45.000    37279400.584   157741273.835          43.000  
C23  24380219.876   126954610.237        3082.298          43.000                                                    24380203.991   103160753.018          45.000  
C24  25088468.787   130642365.938       -2168.307          40.000                                                    25088459.995   106157470.851          42.000  
C25  22492051.611   117121405.243         843.270          50.000                                                    22492044.981    95171403.281          50.000  
C27  25127531.096   130845761.623       -2136.510          41.000                                                    25127526.701   106322326.933          40.000  
C30  25788321.973   134286067.358        -273.366          37.000                                                    25788318.774   109118416.332          39.000  
C32  24946539.587   129903469.194        2263.153          39.000                                                    24946532.671   105556351.305          44.000  
C33  23688523.363   123351996.290       -1597.253          45.000                                                    23688530.368   100233313.021          46.000  
C38  35842749.757   186641832.392        -424.391          50.000                                                    35842739.214   151661778.381          51.000  
C39  36818655.832   191724456.434         179.740          48.000                                                    36818647.755   155791842.135          49.000  
C41  21999936.038   114559639.792         553.538          50.000                                                    21999936.431    93089106.838          52.000  
> 2022 08 25 07 14 20.0000000  0 41                     
G02  23880618.559   125493332.551       -3273.408          39.000    23880627.690    97787502.085          26.000                                                  
G05  21044508.292   110590367.246       -1700.888          48.000    21044516.244    86174322.144          44.000                                                  
G13  21212047.519   111470458.510       -1917.236          49.000    21212054.613    86860119.078          39.000                                                  
G14  24344736.392   127932548.159         -79.062          37.000    24344746.131    99687700.134          19.000    24344745.827    95534046.426          30.000  
G15  20256241.593   106447091.605          80.884          52.000    20256249.419    82945807.380          56.000                                                  
G18  21601894.527   113518438.025         486.222          48.000    21601902.640    88455648.408          39.000    21601903.033    84770809.371          39.000  
G20  23363480.153   122775756.098       -3176.210          38.000    23363490.249    95669420.805          23.000                                                  
G23  23625706.385   124153356.450        3175.538          39.000    23625714.266    96743020.162          27.000    23625716.553    92711994.230          33.000  
G24  21097901.397   110870606.786        2694.967          49.000    21097912.297    86392695.265          53.000    21097907.705    82793001.860          40.000  
R03  20540255.328   109952857.491        -805.656          52.000    20540260.671    85519578.727          49.000  
R04  20760555.955   111172059.908        1510.061          51.000    20760561.673    86467454.055          48.000  
R13  20619956.299   110109176.738        -737.908          40.000    20619961.463    85640449.413          46.000  
R14  20945003.244   111648148.242        3331.119          51.000    20945011.053    86837891.558          48.000  
R18  22982952.179   122685009.190       -3991.775          42.000    22982961.150    95420868.319          40.000  
R19  21480860.148   114908132.469       -2082.950          38.000    21480866.152    89373367.322          43.000  
R20  23077907.989   123407539.279        1947.466          35.000    23077916.334    95983641.908          42.000  
E03  25177502.641   132309067.617        1227.911          48.000    25177498.102   107393765.078          48.000    25177508.020   100090994.652          50.000  
E05  23852425.225   125345316.880        -546.288          53.000    23852419.114   101741347.908          52.000    23852430.532    94822945.077          54.000  
E09  26903046.126   141376818.060       -1808.602          42.000    26903043.928   114753917.549          43.000    26903053.291   106950653.693          45.000  
E15  25362972.914   133282727.742         708.843          46.000    25362969.144   108185032.064          47.000    25362979.508   100828215.931          49.000  
E24  26096348.870   137137106.991        1490.421          45.000    26096345.403   111312595.766          46.000    26096353.658   103743464.580          47.000  
E25  27297831.721   143451563.647        2836.998          40.000    27297829.988   116437962.191          39.000    27297842.693   108519755.879          43.000  
E31  27444714.107   144223443.246        -676.127          40.000    27444710.176   117064486.810          38.000    27444721.827   109104102.675          43.000  
E36  27456228.781   144283979.884       -3159.086          38.000    27456228.120   117112769.584          38.000    27456239.091   109149098.741          41.000  
J02  37343621.942   196242743.403         427.618          38.000    37343631.073   152916434.713          43.000    37343629.089   146544918.572          32.000  
J03  37218382.695   195583611.757        -406.210          40.000    37218392.398   152402804.016          43.000    37218389.610   146052684.864          32.000  
C06  37470657.686   195120086.116         425.713          41.000    37470654.059   150879243.192          44.000    37470645.035   158551065.516          43.000  
C09  39184615.879   204044161.610         476.368          38.000    39184615.022   157779902.250          41.000    39184604.050   165802606.384          40.000  
C13  36282874.836   188934381.703         273.492          49.000    36282877.301   146096050.935          47.000    36282866.669   153524662.705          47.000  
C14  25551499.290   133053741.121       -2194.604          38.000    25551499.326   102885592.379          41.000    25551491.124   108117063.405          38.000  
C16  37279353.267   194123235.040         281.705          45.000    37279354.625   150108418.020          44.000    37279346.512   157741044.931          43.000  
C23  24379628.001   126951528.133        3081.997          43.000                                                    24379612.169   103158248.556          45.000  
C24  25088885.171   130644534.467       -2168.686          41.000                                                    25088876.397   106159232.958          42.000  
C25  22491889.985   117120562.277         842.715          50.000                                                    22491883.159    95170718.307          50.000  
C27  25127941.762   130847898.309       -2136.802          41.000                                                    25127937.098   106324063.166          40.000  
C30  25788375.008   134286341.116        -274.092          37.000                                                    25788371.416   109118638.775          38.000  
C32  24946104.726   129901206.031        2263.232          39.000                                                    24946098.061   105554512.301          44.000  
C33  23688829.835   123353593.704       -1597.514          46.000                                                    23688837.143   100234611.053          46.000  
C38  35842830.989   186642256.950        -424.629          50.000                                                    35842820.733   151662123.372          51.000  
C39  36818621.416   191724276.812         179.580          48.000                                                    36818613.304   155791696.171          49.000  
C41  21999829.950   114559086.405         553.282          51.000                                                    21999830.164    93088657.164          52.000  
> 2022 08 25 07 14 21.0000000  0 41                     
G02  23881241.616   125496605.857       -3273.341          39.000    23881250.461    97790052.712          25.000                                                  
G05  21044831.900   110592068.308       -1701.242          49.000    21044840.066    86175647.644          44.000                                                  
G13  21212412.065   111472375.864       -1917.423          48.000    21212419.319    86861613.110          39.000                                                  
G14  24344751.688   127932627.436         -79.576          37.000    24344761.266    99687761.920          19.000    24344760.927    95534105.622          30.000  
G15  20256226.458   106447010.899          80.575          52.000    20256234.106    82945744.497          56.000                                                  
G18  21601801.752   113517952.139         485.565          48.000    21601810.061    88455269.802          39.000    21601810.597    84770446.530          40.000  
G20  23364084.716   122778932.404       -3176.198          38.000    23364094.794    95671895.855          23.000                                                  
G23  23625102.609   124150180.881        3175.521          39.000    23625109.953    96740545.688          27.000    23625111.686    92709622.859          32.000  
G24  21097388.699   110867912.111        2694.466          48.000    21097399.492    86390595.518          53.000    21097394.989    82790989.603          40.000  
R03  20540405.875   109953663.292        -805.847          51.000    20540411.271    85520205.461          49.000  
R04  20760274.911   111170549.862        1510.036          51.000    20760279.753    86466279.584          49.000  
R13  20620093.408   110109915.083        -738.782          40.000    20620099.591    85641023.686          45.000  
R14  20944379.150   111644817.436        3330.537          50.000    20944386.226    86835300.929          48.000  
R18  22983700.391   122689001.013       -3991.780          42.000    22983708.986    95423973.071          40.000  
R19  21481249.585   114910215.742       -2083.644          39.000    21481255.375    89374987.645          43.000  
R20  23077544.676   123405592.196        1946.752          34.000    23077552.413    95982127.508          42.000  
E03  25177268.825   132307839.764        1227.850          49.000    25177264.465   107392768.450          48.000    25177274.382   100090065.789          50.000  
E05  23852529.151   125345863.251        -546.339          52.000    23852523.130   101741791.393          52.000    23852534.512    94823358.402          54.000  
E09  26903390.551   141378626.633       -1808.570          42.000    26903387.942   114755385.544          44.000    26903397.466   106952021.867          45.000  
E15  25362838.110   133282019.154         708.392          46.000    25362834.340   108184456.912          47.000    25362844.668   100827679.888          49.000  
E24  26096065.288   137135616.823        1489.994          45.000    26096061.893   111311386.221          46.000    26096070.113   103742337.282          47.000  
E25  27297291.898   143448726.810        2836.815          39.000    27297290.236   116435659.566          39.000    27297302.870   108517609.837          43.000  
E31  27444842.925   144224119.510        -676.500          40.000    27444838.780   117065035.719          38.000    27444850.520   109104614.269          43.000  
E36  27456830.056   144287138.988       -3158.990          38.000    27456829.341   117115333.792          38.000    27456840.259   109151488.576          41.000  
J02  37343539.976   196242315.793         427.611          38.000    37343549.894   152916101.517          42.000    37343547.553   146544599.250          33.000  
J03  37218460.336   195584018.014        -406.237          40.000    37218469.538   152403120.575          43.000    37218467.037   146052988.240          31.000  
C06  37470576.221   195119660.468         425.642          41.000    37470572.308   150878914.047          44.000    37470563.356   158550719.642          43.000  
C09  39184524.569   204043685.363         476.218          37.000    39184523.210   157779533.984          41.000    39184512.668   165802219.395          39.000  
C13  36282822.479   188934108.305         273.391          49.000    36282824.802   146095839.529          48.000    36282814.134   153524440.549          47.000  
C14  25551920.713   133055935.803       -2194.700          37.000    25551920.713   102887289.442          40.000    25551912.601   108118846.756          39.000  
C16  37279299.320   194122953.434         281.555          45.000    37279300.535   150108200.268          45.000    37279292.387   157740816.110          43.000  
C23  24379035.821   126948446.212        3081.902          42.000                                                    24379020.364   103155744.236          45.000  
C24  25089302.055   130646703.412       -2169.085          40.000                                                    25089292.995   106160995.403          42.000  
C25  22491728.128   117119719.872         842.151          50.000                                                    22491721.338    95170033.780          50.000  
C27  25128352.089   130850035.233       -2136.956          41.000                                                    25128347.443   106325799.585          40.000  
C30  25788427.418   134286615.319        -274.471          36.000                                                    25788424.112   109118861.590          39.000  
C32  24945670.723   129898942.927        2263.132          39.000                                                    24945663.486   105552673.341          44.000  
C33  23689136.878   123355191.291       -1597.664          46.000                                                    23689143.883   100235909.222          46.000  
C38  35842912.651   186642681.682        -424.773          50.000                                                    35842902.305   151662468.502          51.000  
C39  36818586.625   191724097.272         179.529          47.000                                                    36818578.763   155791550.284          49.000  
C41  21999723.682   114558533.190         553.176          51.000                                                    21999723.915    93088207.633          52.000  
> 2022 08 25 07 14 22.0000000  0 41                     
G02  23881864.816   125499879.331       -3273.705          39.000    23881873.411    97792603.469          25.000                                                  
G05  21045155.597   110593769.874       -1702.035          49.000    21045163.799    86176973.535          44.000                                                  
G13  21212776.968   111474293.461       -1917.865          48.000    21212784.276    86863107.347          39.000                                                  
G14  24344767.341   127932707.356         -80.316          37.000    24344776.419    99687824.188          19.000    24344776.115    95534165.302          31.000  
G15  20256210.876   106446930.542          80.035          52.000    20256218.863    82945681.883          56.000                                                  
G18  21601709.547   113517466.972         484.664          48.000    21601717.749    88454891.753          39.000    21601718.285    84770084.236          39.000  
G20  23364689.421   122782109.050       -3176.810          38.000    23364699.160    95674371.139          23.000                                                  
G23  23624498.261   124147005.429        3175.240          39.000    23624505.855    96738071.310          26.000    23624507.767    92707251.591          32.000  
G24  21096876.144   110865217.962        2693.766          48.000    21096886.776    86388496.184          53.000    21096882.345    82788977.738          39.000  
R03  20540556.386   109954469.379        -806.408          51.000    20540561.836    85520832.425          49.000  
R04  20759992.491   111169040.034        1509.563          51.000    20759997.708    86465105.273          48.000  
R13  20620231.607   110110654.385        -740.016          40.000    20620237.915    85641598.699          45.000  
R14  20943754.324   111641487.211        3329.763          50.000    20943761.472    86832710.749          48.000  
R18  22984447.674   122692993.015       -3992.212          42.000    22984457.055    95427077.956          40.000  
R19  21481639.201   114912299.821       -2084.663          39.000    21481645.045    89376608.586          43.000  
R20  23077179.183   123403645.935        1945.724          35.000    23077188.421    95980613.742          42.000  
E03  25177035.134   132306612.035        1227.516          49.000    25177030.952   107391771.914          48.000    25177040.745   100089137.018          50.000  
E05  23852633.042   125346409.777        -546.766          53.000    23852627.092   101742234.997          52.000    23852638.510    94823771.848          54.000  
E09  26903734.423   141380435.243       -1808.807          42.000    26903732.243   114756853.562          44.000    26903741.642   106953390.068          45.000  
E15  25362703.306   133281311.110         707.672          46.000    25362699.715   108183882.198          47.000    25362709.918   100827144.255          49.000  
E24  26095781.635   137134127.085        1489.337          45.000    26095778.312   111310177.014          46.000    26095786.621   103741210.298          47.000  
E25  27296752.021   143445889.959        2836.632          40.000    27296750.288   116433356.934          39.000    27296763.029   108515463.789          43.000  
E31  27444971.886   144224796.311        -677.206          40.000    27444967.454   117065585.063          38.000    27444979.284   109105126.258          43.000  
E36  27457431.312   144290298.165       -3159.389          39.000    27457430.490   117117898.057          38.000    27457441.426   109153878.469          41.000  
J02  37343459.173   196241888.226         427.379          38.000    37343468.750   152915768.343          42.000    37343466.374   146544279.974          33.000  
J03  37218537.566   195584424.350        -406.688          40.000    37218546.929   152403437.201          43.000    37218544.338   146053291.670          32.000  
C06  37470494.506   195119234.939         425.408          42.000    37470490.575   150878585.007          44.000    37470481.605   158550373.860          42.000  
C09  39184432.954   204043209.242         475.882          37.000    39184431.882   157779165.812          41.000    39184421.232   165801832.503          39.000  
C13  36282770.141   188933835.106         272.962          49.000    36282772.178   146095628.272          47.000    36282761.725   153524218.552          47.000  
C14  25552341.940   133058130.650       -2195.100          37.000    25552342.065   102888986.634          40.000    25552334.024   108120630.254          39.000  
C16  37279245.213   194122671.982         281.272          46.000    37279246.410   150107982.630          45.000    37279238.440   157740587.403          43.000  
C23  24378443.731   126945364.544        3081.380          42.000                                                    24378428.650   103153240.135          45.000  
C24  25089718.671   130648872.801       -2169.816          41.000                                                    25089709.594   106162758.205          42.000  
C25  22491566.342   117118878.038         841.405          50.000                                                    22491559.677    95169349.722          50.000  
C27  25128762.379   130852172.469       -2137.565          40.000                                                    25128757.930   106327536.266          40.000  
C30  25788479.792   134286890.080        -275.275          36.000                                                    25788476.736   109119084.853          39.000  
C32  24945236.059   129896679.861        2262.806          39.000                                                    24945228.912   105550834.419          44.000  
C33  23689443.368   123356789.127       -1598.088          46.000                                                    23689450.783   100237207.589          46.000  
C38  35842994.187   186643106.632        -425.217          50.000                                                    35842983.895   151662813.804          51.000  
C39  36818552.620   191723917.862         179.178          48.000                                                    36818544.329   155791404.497          49.000  
C41  21999617.165   114557980.237         552.688          51.000                                                    21999617.737    93087758.311          52.000  
> 2022 08 25 07 14 23.0000000  0 41                     
G02  23882487.551   125503152.867       -3273.681          38.000    23882496.361    97795154.273          25.000                                                  
G05  21045479.741   110595471.831       -1702.260          49.000    21045487.675    86178299.738          44.000                                                  
G13  21213142.104   111476211.185       -1917.909          48.000    21213149.162    86864601.679          39.000                                                  
G14  24344782.369   127932787.739         -80.746          37.000    24344791.536    99687886.810          19.000    24344791.411    95534225.333          30.000  
G15  20256195.723   106446850.485          79.923          51.000    20256203.585    82945619.498          56.000                                                  
G18  21601617.772   113516982.466         484.102          48.000    21601625.581    88454514.206          39.000    21601626.099    84769722.423          39.000  
G20  23365293.895   122785285.904       -3177.065          38.000    23365303.598    95676846.614          23.000                                                  
G23  23623894.038   124143829.980        3175.333          39.000    23623901.703    96735596.934          28.000    23623903.508    92704880.310          32.000  
G24  21096363.571   110862524.253        2693.394          48.000    21096374.096    86386397.189          53.000    21096369.718    82786966.204          40.000  
R03  20540706.789   109955275.643        -806.471          51.000    20540712.454    85521459.517          49.000  
R04  20759711.018   111167530.257        1509.632          51.000    20759715.825    86463931.005          49.000  
R13  20620370.878   110111394.555        -740.768          40.000    20620376.453    85642174.389          45.000  
R14  20943129.784   111638157.476        3329.430          50.000    20943136.842    86830120.953          48.000  
R18  22985196.010   122696985.097       -3992.116          42.000    22985204.873    95430182.895          40.000  
R19  21482029.050   114914384.582       -2085.210          38.000    21482034.697    89378230.067          43.000  
R20  23076814.744   123401700.420        1945.079          34.000    23076824.661    95979100.563          42.000  
E03  25176801.604   132305384.371        1227.569          49.000    25176797.422   107390775.433          48.000    25176807.125   100088208.297          50.000  
E05  23852737.022   125346956.339        -546.703          53.000    23852731.036   101742678.635          52.000    23852742.525    94824185.321          54.000  
E09  26904078.616   141382243.831       -1808.647          42.000    26904076.293   114758321.572          44.000    26904085.817   106954758.249          45.000  
E15  25362568.610   133280603.515         707.262          46.000    25362564.946   108183307.854          47.000    25362575.275   100826608.965          49.000  
E24  26095498.179   137132637.645        1489.171          45.000    26095494.998   111308968.066          46.000    26095503.236   103740083.559          47.000  
E25  27296212.127   143443053.066        2836.832          40.000    27296210.483   116431054.268          38.000    27296223.188   108513317.704          42.000  
E31  27445100.543   144225473.520        -677.587          40.000    27445096.362   117066134.756          38.000    27445108.155   109105638.564          42.000  
E36  27458032.408   144293457.260       -3159.120          39.000    27458031.622   117120462.236          38.000    27458042.558   109156268.291          40.000  
J02  37343377.976   196241460.682         427.418          38.000    37343387.339   152915435.195          42.000    37343385.070   146543960.696          33.000  
J03  37218615.403   195584830.677        -406.400          40.000    37218624.088   152403753.822          43.000    37218621.622   146053595.098          32.000  
C06  37470412.756   195118809.471         425.391          42.000    37470408.914   150878256.002          44.000    37470399.890   158550028.134          43.000  
C09  39184340.964   204042733.190         476.020          38.000    39184340.535   157778797.703          41.000    39184329.814   165801445.679          39.000  
C13  36282717.552   188933562.025         272.959          49.000    36282719.625   146095417.104          47.000    36282709.243   153523996.645          47.000  
C14  25552763.470   133060325.602       -2195.141          37.000    25552763.560   102890683.906          40.000    25552755.572   108122413.830          39.000  
C16  37279191.034   194122390.576         281.250          46.000    37279192.302   150107765.031          45.000    37279184.404   157740358.740          43.000  
C23  24377851.838   126942283.016        3081.396          42.000                                                    24377836.863   103150736.143          45.000  
C24  25090135.466   130651042.528       -2169.961          41.000                                                    25090126.282   106164521.286          42.000  
C25  22491404.877   117118036.709         840.938          50.000                                                    22491398.141    95168666.081          50.000  
C27  25129172.866   130854309.879       -2137.656          40.000                                                    25129168.381   106329273.089          40.000  
C30  25788532.362   134287165.289        -275.679          36.000                                                    25788529.557   109119308.486          39.000  
C32  24944800.877   129894416.751        2263.023          39.000                                                    24944794.337   105548995.457          45.000  
C33  23689750.608   123358387.110       -1598.115          46.000                                                    23689757.666   100238506.084          46.000  
C38  35843076.027   186643531.717        -425.210          50.000                                                    35843065.520   151663159.220          52.000  
C39  36818518.330   191723738.470         179.277          48.000                                                    36818509.860   155791258.722          49.000  
C41  21999511.202   114557427.414         552.646          51.000                                                    21999511.649    93087309.102          53.000  
> 2022 08 25 07 14 24.0000000  0 41                     
G02  23883109.858   125506426.479       -3273.700          39.000    23883119.382    97797705.131          26.000                                                  
G05  21045803.510   110597174.234       -1702.660          49.000    21045811.605    86179626.285          44.000                                                  
G13  21213507.186   111478129.105       -1918.105          48.000    21213514.208    86866096.163          39.000                                                  
G14  24344798.183   127932868.741         -81.362          37.000    24344807.011    99687949.938          19.000    24344806.850    95534285.822          30.000  
G15  20256180.517   106446770.747          79.522          51.000    20256188.343    82945557.365          56.000                                                  
G18  21601525.729   113516498.637         483.356          47.000    21601533.537    88454137.201          39.000    21601534.020    84769361.128          39.000  
G20  23365897.778   122788462.991       -3177.304          38.000    23365908.178    95679322.275          23.000                                                  
G23  23623289.582   124140654.584        3175.245          39.000    23623297.320    96733122.615          27.000    23623299.160    92702509.066          32.000  
G24  21095850.766   110859831.031        2692.906          48.000    21095861.595    86384298.579          53.000    21095857.252    82784955.040          40.000  
R03  20540858.033   109956082.167        -806.706          52.000    20540863.072    85522086.816          49.000  
R04  20759428.902   111166020.638        1509.500          51.000    20759433.798    86462756.859          49.000  
R13  20620509.828   110112135.604        -741.491          40.000    20620515.385    85642750.751          45.000  
R14  20942505.315   111634828.254        3328.922          51.000    20942512.320    86827531.558          48.000  
R18  22985943.025   122700977.299       -3992.438          42.000    22985952.764    95433287.936          40.000  
R19  21482419.166   114916470.053       -2085.884          39.000    21482424.581    89379852.095          43.000  
R20  23076452.271   123399755.642        1944.234          34.000    23076461.027    95977587.963          41.000  
E03  25176567.966   132304156.809        1227.452          49.000    25176563.678   107389779.037          48.000    25176573.541   100087279.655          50.000  
E05  23852841.180   125347503.015        -546.781          53.000    23852835.176   101743122.366          52.000    23852846.541    94824598.871          54.000  
E09  26904422.809   141384052.429       -1808.715          41.000    26904420.611   114759789.597          44.000    26904429.974   106956126.437          45.000  
E15  25362434.235   133279896.404         706.798          46.000    25362430.464   108182733.907          47.000    25362440.703   100826074.043          49.000  
E24  26095214.794   137131148.606        1488.771          45.000    26095211.792   111307759.426          46.000    26095219.869   103738957.107          48.000  
E25  27295672.107   143440216.200        2836.871          40.000    27295670.570   116428751.627          39.000    27295683.347   108511171.638          42.000  
E31  27445229.432   144226151.149        -677.904          40.000    27445225.090   117066684.776          38.000    27445237.098   109106151.186          42.000  
E36  27458633.308   144296616.358       -3159.125          39.000    27458632.647   117123026.434          38.000    27458643.726   109158658.123          40.000  
J02  37343295.743   196241033.189         427.257          38.000    37343305.892   152915102.088          42.000    37343303.712   146543641.475          33.000  
J03  37218692.651   195585237.048        -406.444          40.000    37218701.621   152404070.472          43.000    37218698.887   146053898.549          32.000  
C06  37470331.166   195118384.104         425.317          41.000    37470327.199   150877927.084          44.000    37470318.175   158549682.492          43.000  
C09  39184250.029   204042257.229         475.801          38.000    39184249.225   157778429.664          41.000    39184238.468   165801058.923          40.000  
C13  36282665.017   188933289.108         272.769          49.000    36282667.340   146095206.067          47.000    36282656.798   153523774.879          47.000  
C14  25553184.983   133062520.667       -2195.215          37.000    25553185.143   102892381.274          40.000    25553177.174   108124197.505          39.000  
C16  37279137.462   194122109.264         281.177          46.000    37279138.427   150107547.501          45.000    37279130.333   157740130.156          42.000  
C23  24377260.641   126939201.711        3081.079          41.000                                                    24377245.184   103148232.333          45.000  
C24  25090552.029   130653212.671       -2170.346          41.000                                                    25090543.005   106166284.705          42.000  
C25  22491243.341   117117195.930         840.415          50.000                                                    22491236.694    95167982.881          50.000  
C27  25129582.889   130856447.576       -2137.920          40.000                                                    25129578.886   106331010.138          40.000  
C30  25788585.255   134287440.990        -276.049          36.000                                                    25788582.485   109119532.510          39.000  
C32  24944366.338   129892153.676        2262.954          39.000                                                    24944359.727   105547156.525          44.000  
C33  23690057.580   123359985.297       -1598.291          46.000                                                    23690064.495   100239804.737          46.000  
C38  35843157.599   186643956.981        -425.434          50.000                                                    35843147.235   151663504.787          52.000  
C39  36818483.825   191723559.174         179.194          48.000                                                    36818475.355   155791113.036          49.000  
C41  21999405.185   114556874.792         552.471          52.000                                                    21999405.435    93086860.047          53.000  
> 2022 08 25 07 14 25.0000000  0 41                     
G02  23883733.648   125509700.182       -3273.779          39.000    23883742.296    97800256.066          26.000                                                  
G05  21046127.547   110598877.018       -1703.027          49.000    21046135.642    86180953.125          44.000                                                  
G13  21213872.089   111480047.134       -1918.144          48.000    21213879.147    86867590.728          39.000                                                  
G14  24344813.211   127932950.225         -81.772          37.000    24344822.503    99688013.439          18.000    24344822.360    95534346.673          29.000  
G15  20256165.775   106446691.300          79.239          51.000    20256173.262    82945495.460          56.000                                                  
G18  21601433.542   113516015.427         482.862          47.000    21601441.530    88453760.671          39.000    21601442.066    84769000.286          39.000  
G20  23366502.931   122791640.312       -3177.510          38.000    23366512.830    95681798.094          23.000                                                  
G23  23622685.055   124137479.206        3175.318          40.000    23622693.221    96730648.290          27.000    23622694.973    92700137.851          33.000  
G24  21095338.515   110857138.249        2692.471          48.000    21095349.200    86382200.305          53.000    21095344.858    82782944.190          39.000  
R03  20541008.561   109956888.886        -806.893          52.000    20541013.797    85522714.261          49.000  
R04  20759146.517   111164511.106        1509.411          51.000    20759151.896    86461582.779          49.000  
R13  20620649.439   110112877.557        -742.508          40.000    20620654.317    85643327.821          45.000  
R14  20941880.936   111631499.532        3328.414          51.000    20941887.923    86824942.557          48.000  
R18  22986691.648   122704969.569       -3992.336          43.000    22986700.636    95436393.031          40.000  
R19  21482809.319   114918556.220       -2086.686          39.000    21482814.608    89381474.663          44.000  
R20  23076088.708   123397811.626        1943.573          34.000    23076097.464    95976075.948          41.000  
E03  25176334.454   132302929.305        1227.456          49.000    25176330.076   107388782.683          48.000    25176339.957   100086351.054          50.000  
E05  23852945.267   125348049.726        -546.792          53.000    23852939.210   101743566.127          52.000    23852950.574    94825012.459          54.000  
E09  26904767.038   141385860.958       -1808.623          41.000    26904764.679   114761257.557          44.000    26904774.132   106957494.580          45.000  
E15  25362299.645   133279189.742         706.382          45.000    25362296.143   108182160.311          46.000    25362306.221   100825539.453          49.000  
E24  26094931.374   137129659.875        1488.536          45.000    26094928.479   111306551.041          46.000    26094936.556   103737830.894          48.000  
E25  27295132.409   143437379.240        2836.822          39.000    27295130.765   116426448.909          38.000    27295143.506   108509025.507          43.000  
E31  27445358.500   144226829.233        -678.364          40.000    27445354.176   117067235.176          38.000    27445366.148   109106664.150          43.000  
E36  27459234.654   144299775.424       -3159.087          39.000    27459233.743   117125590.603          38.000    27459244.875   109161047.927          40.000  
J02  37343215.296   196240605.663         427.466          38.000    37343224.499   152914768.953          42.000    37343222.283   146543322.221          33.000  
J03  37218769.899   195585643.434        -406.494          40.000    37218778.976   152404387.134          43.000    37218776.546   146054202.019          32.000  
C06  37470249.558   195117958.779         425.209          41.000    37470245.484   150877598.190          44.000    37470236.478   158549336.877          43.000  
C09  39184158.861   204041781.322         475.834          37.000    39184157.825   157778061.656          41.000    39184146.978   165800672.206          39.000  
C13  36282612.894   188933016.280         272.744          49.000    36282615.020   146094995.104          47.000    36282604.459   153523553.182          47.000  
C14  25553606.459   133064715.805       -2195.269          38.000    25553606.852   102894078.687          40.000    25553598.776   108125981.225          38.000  
C16  37279083.158   194121827.995         281.201          46.000    37279084.481   150107330.010          45.000    37279076.350   157739901.597          42.000  
C23  24376668.765   126936120.546        3081.103          42.000                                                    24376653.487   103145728.632          45.000  
C24  25090968.717   130655383.165       -2170.723          41.000                                                    25090959.800   106168048.409          42.000  
C25  22491081.877   117116355.653         839.961          50.000                                                    22491075.265    95167300.083          50.000  
C27  25129993.287   130858585.443       -2138.042          40.000                                                    25129989.427   106332747.328          40.000  
C30  25788637.808   134287717.146        -276.353          36.000                                                    25788635.610   109119756.908          39.000  
C32  24943932.443   129889890.534        2263.081          39.000                                                    24943925.188   105545317.532          44.000  
C33  23690364.695   123361583.614       -1598.457          46.000                                                    23690371.503   100241103.503          46.000  
C38  35843239.422   186644382.368        -425.513          50.000                                                    35843228.861   151663850.450          52.000  
C39  36818449.230   191723379.898         179.179          48.000                                                    36818441.010   155790967.362          49.000  
C41  21999299.061   114556322.310         552.363          52.000                                                    21999299.400    93086411.109          52.000  
> 2022 08 25 07 14 26.0000000  0 41                     
G02  23884356.723   125512973.935       -3273.868          38.000    23884365.300    97802807.014          25.000                                                  
G05  21046451.387   110600580.216       -1703.419          49.000    21046459.822    86182280.293          45.000                                                  
G13  21214237.010   111481965.371       -1918.341          48.000    21214244.176    86869085.456          39.000                                                  
G14  24344829.293   127933032.272         -82.384          37.000    24344838.121    99688077.370          18.000    24344837.978    95534407.935          30.000  
G15  20256150.336   106446612.116          78.983          51.000    20256158.234    82945433.752          56.000                                                  
G18  21601341.624   113515532.898         482.138          47.000    21601349.576    88453384.682          39.000    21601350.237    84768639.960          39.000  
G20  23367107.350   122794817.841       -3177.652          38.000    23367117.518    95684274.091          25.000                                                  
G23  23622080.814   124134303.889        3175.209          39.000    23622089.159    96728174.013          27.000    23622090.964    92697766.666          33.000  
G24  21094825.942   110854445.922        2691.967          48.000    21094836.806    86380102.390          53.000    21094832.500    82780933.690          40.000  
R03  20541159.215   109957695.801        -807.075          51.000    20541164.468    85523341.860          49.000  
R04  20758864.669   111163001.682        1509.331          51.000    20758869.994    86460408.782          49.000  
R13  20620787.316   110113620.363        -743.320          40.000    20620793.356    85643905.563          45.000  
R14  20941256.610   111628171.337        3327.851          51.000    20941263.561    86822353.965          48.000  
R18  22987439.484   122708961.937       -3992.543          42.000    22987448.562    95439498.199          40.000  
R19  21483198.417   114920643.069       -2087.302          38.000    21483204.671    89383097.767          44.000  
R20  23075725.734   123395868.344        1942.766          34.000    23075734.079    95974564.500          41.000  
E03  25176100.834   132301701.864        1227.318          49.000    25176096.653   107387786.385          48.000    25176106.373   100085422.507          50.000  
E05  23853049.265   125348596.522        -546.891          52.000    23853043.368   101744009.955          52.000    23853054.626    94825426.102          54.000  
E09  26905110.891   141387669.483       -1808.614          41.000    26905108.854   114762725.515          44.000    26905118.289   106958862.715          45.000  
E15  25362165.324   133278483.543         705.932          46.000    25362161.589   108181587.098          47.000    25362171.864   100825005.221          49.000  
E24  26094648.203   137128171.473        1488.168          45.000    26094645.076   111305342.922          46.000    26094653.332   103736704.927          47.000  
E25  27294592.407   143434542.256        2837.021          40.000    27294590.942   116424146.165          39.000    27294603.647   108506879.354          43.000  
E31  27445487.264   144227507.730        -678.727          40.000    27445483.226   117067785.897          38.000    27445495.252   109107177.429          42.000  
E36  27459835.875   144302934.449       -3159.083          39.000    27459834.982   117128154.742          38.000    27459846.025   109163437.702          40.000  
J02  37343133.688   196240178.135         427.528          38.000    37343143.213   152914435.814          42.000    37343141.033   146543002.967          32.000  
J03  37218846.753   195586049.811        -406.392          40.000    37218856.296   152404703.794          42.000    37218853.812   146054505.484          31.000  
C06  37470167.700   195117533.529         425.209          42.000    37470163.804   150877269.365          44.000    37470154.763   158548991.336          43.000  
C09  39184067.193   204041305.483         475.804          37.000    39184066.443   157777693.703          41.000    39184055.632   165800285.545          40.000  
C13  36282560.162   188932743.575         272.582          49.000    36282562.556   146094784.228          47.000    36282552.228   153523331.584          47.000  
C14  25554028.025   133066911.044       -2195.255          38.000    25554028.490   102895776.186          40.000    25554020.395   108127765.039          38.000  
C16  37279029.391   194121546.793         281.107          45.000    37279030.302   150107112.565          45.000    37279022.350   157739673.098          42.000  
C23  24376076.979   126933039.576        3080.892          42.000                                                    24376061.826   103143225.091          46.000  
C24  25091385.851   130657554.026       -2171.051          41.000                                                    25091376.631   106169812.409          42.000  
C25  22490920.609   117115515.889         839.408          50.000                                                    22490913.997    95166617.711          50.000  
C27  25130404.096   130860723.536       -2138.283          40.000                                                    25130399.986   106334484.706          40.000  
C30  25788691.022   134287993.780        -277.130          35.000                                                    25788688.752   109119981.698          39.000  
C32  24943497.671   129887627.418        2262.963          39.000                                                    24943490.488   105543478.563          44.000  
C33  23690671.631   123363182.121       -1598.615          46.000                                                    23690678.439   100242402.418          46.000  
C38  35843320.976   186644807.911        -425.670          50.000                                                    35843310.612   151664196.235          51.000  
C39  36818414.815   191723200.681         179.139          48.000                                                    36818406.630   155790821.735          49.000  
C41  21999192.633   114555770.019         552.113          52.000                                                    21999193.312    93085962.323          52.000  
> 2022 08 25 07 14 27.0000000  0 41                     
G02  23884979.279   125516247.837       -3274.005          39.000    23884988.375    97805358.137          25.000                                                  
G05  21046775.674   110602283.892       -1703.990          49.000    21046784.001    86183607.832          44.000                                                  
G13  21214601.896   111483883.796       -1918.594          49.000    21214609.311    86870580.342          39.000                                                  
G14  24344844.822   127933114.909         -82.960          38.000    24344853.899    99688141.774          18.000    24344853.720    95534469.656          30.000  
G15  20256135.594   106446533.291          78.569          52.000    20256143.242    82945372.332          56.000                                                  
G18  21601249.885   113515051.064         481.415          46.000    21601257.836    88453009.225          39.000    21601258.587    84768280.143          39.000  
G20  23367712.342   122797995.690       -3178.067          38.000    23367722.188    95686750.348          23.000                                                  
G23  23621477.145   124131128.607        3175.253          40.000    23621484.990    96725699.772          27.000    23621486.419    92695395.519          32.000  
G24  21094314.102   110851754.088        2691.493          48.000    21094324.591    86378004.860          53.000    21094320.248    82778923.557          39.000  
R03  20541309.994   109958502.923        -807.302          51.000    20541315.319    85523969.621          49.000  
R04  20758583.196   111161492.401        1509.143          50.000    20758588.271    86459234.899          49.000  
R13  20620926.802   110114364.096        -744.206          40.000    20620932.645    85644484.020          45.000  
R14  20940631.820   111624843.677        3327.370          51.000    20940639.343    86819765.792          48.000  
R18  22988187.070   122712954.416       -3992.554          42.000    22988196.452    95442603.456          41.000  
R19  21483588.640   114922730.661       -2087.920          37.000    21483594.912    89384721.452          43.000  
R20  23075362.117   123393925.839        1941.993          34.000    23075370.855    95973053.658          41.000  
E03  25175867.125   132300474.534        1227.250          49.000    25175862.980   107386790.178          48.000    25175872.825   100084494.047          50.000  
E05  23853153.352   125349143.415        -547.008          53.000    23853147.295   101744453.862          52.000    23853158.695    94825839.830          54.000  
E09  26905455.084   141389478.015       -1808.570          41.000    26905452.887   114764193.465          44.000    26905462.429   106960230.854          45.000  
E15  25362031.002   133277777.855         705.419          45.000    25362027.178   108181014.306          47.000    25362037.578   100824471.372          49.000  
E24  26094364.943   137126683.487        1487.694          45.000    26094362.031   111304135.149          46.000    26094370.197   103735579.283          47.000  
E25  27294052.798   143431705.290        2836.889          40.000    27294050.958   116421843.437          38.000    27294063.788   108504733.208          43.000  
E31  27445616.690   144228186.714        -679.244          39.000    27445612.330   117068337.028          37.000    27445624.463   109107691.083          42.000  
E36  27460437.132   144306093.488       -3159.151          38.000    27460436.042   117130718.893          38.000    27460447.175   109165827.484          41.000  
J02  37343052.599   196239750.680         427.348          39.000    37343061.748   152914102.741          43.000    37343059.746   146542683.775          33.000  
J03  37218924.251   195586456.265        -406.529          40.000    37218933.651   152405020.504          43.000    37218931.238   146054809.000          32.000  
C06  37470086.038   195117108.395         424.980          42.000    37470082.536   150876940.627          44.000    37470073.208   158548645.871          43.000  
C09  39183976.061   204040829.769         475.650          37.000    39183975.078   157777325.852          42.000    39183964.285   165799898.993          39.000  
C13  36282508.110   188932471.029         272.383          48.000    36282510.129   146094573.484          48.000    36282499.800   153523110.121          47.000  
C14  25554449.966   133069106.415       -2195.483          37.000    25554449.913   102897473.781          40.000    25554442.015   108129548.962          38.000  
C16  37278975.194   194121265.702         281.026          45.000    37278976.266   150106895.209          45.000    37278968.368   157739444.692          42.000  
C23  24375485.568   126929958.780        3080.664          41.000                                                    24375470.147   103140721.697          45.000  
C24  25091802.610   130659725.312       -2171.592          41.000                                                    25091793.694   106171576.761          42.000  
C25  22490759.251   117114676.686         838.906          50.000                                                    22490752.908    95165935.789          50.000  
C27  25130814.958   130862861.891       -2138.560          40.000                                                    25130810.616   106336222.290          40.000  
C30  25788743.825   134288270.862        -277.407          35.000                                                    25788741.877   109120206.859          38.000  
C32  24943063.168   129885364.294        2263.052          39.000                                                    24943055.967   105541639.591          44.000  
C33  23690978.495   123364780.834       -1598.936          45.000                                                    23690985.482   100243701.504          45.000  
C38  35843402.727   186645233.641        -425.928          50.000                                                    35843392.398   151664542.175          51.000  
C39  36818380.381   191723021.568         178.975          48.000                                                    36818372.268   155790676.191          49.000  
C41  21999086.652   114555217.906         551.958          52.000                                                    21999087.331    93085513.696          52.000  
> 2022 08 25 07 14 28.0000000  0 41                     
G02  23885602.998   125519521.866       -3274.053          39.000    23885611.432    97807909.308          25.000                                                  
G05  21047099.908   110603988.043       -1704.375          49.000    21047108.199    86184935.747          44.000                                                  
G13  21214967.228   111485802.450       -1918.765          49.000    21214974.411    86872075.395          39.000                                                  
G14  24344861.047   127933198.157         -83.550          38.000    24344869.731    99688206.614          17.000    24344869.463    95534531.821          30.000  
G15  20256120.602   106446454.818          78.286          52.000    20256128.303    82945311.184          55.000                                                  
G18  21601158.359   113514569.967         480.693          47.000    21601166.347    88452634.339          39.000    21601167.097    84767920.882          39.000  
G20  23368317.333   122801173.792       -3178.184          38.000    23368327.108    95689226.782          23.000                                                  
G23  23620872.868   124127953.446        3175.083          40.000    23620880.856    96723225.611          29.000    23620882.089    92693024.450          33.000  
G24  21093801.564   110849062.805        2691.025          48.000    21093812.447    86375907.759          53.000    21093808.122    82776913.831          39.000  
R03  20541460.254   109959310.275        -807.494          51.000    20541466.098    85524597.566          49.000  
R04  20758301.527   111159983.273        1509.044          50.000    20758306.513    86458061.130          49.000  
R13  20621066.126   110115108.744        -745.033          40.000    20621072.166    85645063.189          45.000  
R14  20940007.798   111621516.589        3326.821          51.000    20940015.070    86817178.062          48.000  
R18  22988935.925   122716947.062       -3992.777          43.000    22988944.467    95445708.840          40.000  
R19  21483979.382   114924819.018       -2088.650          38.000    21483985.208    89386345.732          44.000  
R20  23074999.108   123391984.167        1941.322          34.000    23075007.811    95971543.467          41.000  
E03  25175633.648   132299247.344        1227.173          48.000    25175629.539   107385794.083          48.000    25175639.295   100083565.684          50.000  
E05  23853257.368   125349690.461        -547.110          52.000    23853251.542   101744897.890          52.000    23853262.800    94826253.660          54.000  
E09  26905799.349   141391286.601       -1808.502          41.000    26905797.205   114765661.480          44.000    26905806.604   106961599.041          45.000  
E15  25361896.788   133277072.698         704.922          46.000    25361893.018   108180441.941          47.000    25361903.382   100823937.926          48.000  
E24  26094081.880   137125195.919        1487.368          44.000    26094079.075   111302927.699          46.000    26094087.098   103734453.949          47.000  
E25  27293512.868   143428868.336        2837.012          39.000    27293511.045   116419540.731          38.000    27293523.965   108502587.092          43.000  
E31  27445745.954   144228866.209        -679.751          40.000    27445741.576   117068888.569          37.000    27445753.745   109108205.112          42.000  
E36  27461038.621   144309252.557       -3159.156          39.000    27461037.317   117133283.065          38.000    27461048.324   109168217.290          41.000  
J02  37342971.170   196239323.283         427.310          39.000    37342980.390   152913769.696          43.000    37342978.442   146542364.604          33.000  
J03  37219001.392   195586862.791        -406.543          40.000    37219010.988   152405337.283          43.000    37219008.629   146055112.569          32.000  
C06  37470004.270   195116683.387         424.902          41.000    37470000.678   150876611.983          44.000    37469991.565   158548300.519          43.000  
C09  39183884.857   204040354.188         475.531          37.000    39183883.732   157776958.099          41.000    39183872.975   165799512.545          39.000  
C13  36282455.628   188932198.716         272.207          48.000    36282457.844   146094362.912          48.000    36282447.516   153522888.845          47.000  
C14  25554871.693   133071301.989       -2195.675          37.000    25554871.532   102899171.533          40.000    25554863.634   108131333.029          38.000  
C16  37278921.372   194120984.744         280.917          46.000    37278922.427   150106677.955          45.000    37278914.314   157739216.391          42.000  
C23  24374893.889   126926878.252        3080.341          41.000                                                    24374878.647   103138218.518          45.000  
C24  25092219.834   130661897.042       -2172.017          41.000                                                    25092210.739   106173341.470          42.000  
C25  22490598.234   117113838.081         838.320          50.000                                                    22490591.801    95165254.355          50.000  
C27  25131225.570   130865000.542       -2138.824          40.000                                                    25131221.264   106337960.114          40.000  
C30  25788797.396   134288548.534        -277.813          35.000                                                    25788795.198   109120432.483          39.000  
C32  24942628.486   129883101.242        2263.017          39.000                                                    24942621.357   105539800.676          44.000  
C33  23691285.610   123366379.769       -1599.049          46.000                                                    23691292.526   100245000.771          46.000  
C38  35843484.531   186645659.583        -426.011          50.000                                                    35843474.113   151664888.290          51.000  
C39  36818346.126   191722842.565         178.979          48.000                                                    36818337.817   155790530.735          49.000  
C41  21998980.814   114554666.055         551.762          51.000                                                    21998981.314    93085065.271          52.000  
> 2022 08 25 07 14 29.0000000  0 41                     
G02  23886225.465   125522795.971       -3274.207          39.000    23886234.364    97810460.545          25.000                                                  
G05  21047424.374   110605692.626       -1704.895          49.000    21047432.647    86186263.987          44.000                                                  
G13  21215332.131   111487721.265       -1918.991          48.000    21215339.636    86873570.573          39.000                                                  
G14  24344876.110   127933281.906         -84.080          38.000    24344885.563    99688271.901          19.000    24344885.420    95534594.350          30.000  
G15  20256105.842   106446376.639          77.996          52.000    20256113.365    82945250.263          55.000                                                  
G18  21601067.031   113514089.516         480.091          47.000    21601074.965    88452259.962          39.000    21601075.644    84767562.105          39.000  
G20  23368922.897   122804352.154       -3178.528          38.000    23368931.992    95691703.414          23.000                                                  
G23  23620268.288   124124778.314        3174.993          40.000    23620276.865    96720751.485          29.000    23620277.883    92690653.408          33.000  
G24  21093289.581   110846371.963        2690.520          48.000    21093300.445    86373810.996          53.000    21093296.032    82774904.438          39.000  
R03  20541611.212   109960117.810        -807.706          51.000    20541616.930    85525225.646          49.000  
R04  20758019.214   111158474.237        1508.876          50.000    20758024.718    86456887.438          49.000  
R13  20621205.540   110115854.278        -746.095          40.000    20621211.795    85645643.046          45.000  
R14  20939383.400   111618190.010        3326.228          51.000    20939390.977    86814590.730          48.000  
R18  22989683.315   122720939.818       -3992.949          43.000    22989692.446    95448814.313          40.000  
R19  21484370.464   114926908.106       -2089.506          38.000    21484375.682    89387970.586          43.000  
R20  23074635.867   123390043.239        1940.480          34.000    23074644.819    95970033.865          41.000  
E03  25175400.065   132298020.246        1226.976          49.000    25175395.990   107384798.064          48.000    25175405.801   100082637.390          50.000  
E05  23853361.526   125350237.566        -547.204          52.000    23853355.612   101745341.973          52.000    23853366.887    94826667.545          54.000  
E09  26906143.685   141393095.178       -1808.606          41.000    26906141.273   114767129.481          44.000    26906150.761   106962967.211          45.000  
E15  25361762.788   133276368.002         704.407          46.000    25361759.036   108179869.947          47.000    25361769.257   100823404.823          48.000  
E24  26093798.781   137123708.661        1487.073          44.000    26093795.886   111301720.512          46.000    26093804.088   103733328.850          47.000  
E25  27292973.206   143426031.378        2836.877          39.000    27292971.222   116417238.009          38.000    27292984.070   108500440.959          43.000  
E31  27445875.397   144229546.127        -680.251          39.000    27445870.734   117069440.445          38.000    27445883.135   109108719.467          43.000  
E36  27461639.646   144312411.576       -3159.011          38.000    27461638.431   117135847.203          38.000    27461649.474   109170607.067          41.000  
J02  37342889.794   196238895.907         427.249          38.000    37342899.211   152913436.682          43.000    37342897.067   146542045.466          32.000  
J03  37219078.944   195587269.371        -406.726          40.000    37219088.521   152405654.094          43.000    37219085.984   146055416.179          32.000  
C06  37469922.966   195116258.451         424.837          41.000    37469918.999   150876283.393          44.000    37469909.921   158547955.229          43.000  
C09  39183793.440   204039878.700         475.413          37.000    39183792.350   157776590.424          41.000    39183781.717   165799126.170          39.000  
C13  36282403.361   188931926.532         272.058          48.000    36282405.470   146094152.439          47.000    36282395.231   153522667.672          47.000  
C14  25555293.366   133073497.612       -2195.867          37.000    25555293.134   102900869.331          40.000    25555285.254   108133117.158          38.000  
C16  37278867.301   194120703.857         280.784          46.000    37278868.498   150106460.759          44.000    37278860.332   157738988.149          42.000  
C23  24374302.067   126923797.904        3080.129          41.000                                                    24374287.093   103135715.486          45.000  
C24  25092637.272   130664069.109       -2172.400          41.000                                                    25092627.820   106175106.455          42.000  
C25  22490437.609   117112999.986         837.771          50.000                                                    22490430.890    95164573.336          50.000  
C27  25131636.719   130867139.406       -2139.070          40.000                                                    25131632.001   106339698.116          40.000  
C30  25788851.217   134288826.659        -278.562          34.000                                                    25788848.537   109120658.482          39.000  
C32  24942194.090   129880838.173        2262.966          39.000                                                    24942186.764   105537961.754          44.000  
C33  23691592.422   123367978.889       -1599.255          46.000                                                    23691599.516   100246300.185          46.000  
C38  35843566.371   186646085.679        -426.223          50.000                                                    35843556.025   151665234.528          51.000  
C39  36818311.710   191722663.618         178.836          48.000                                                    36818303.473   155790385.328          49.000  
C41  21998875.190   114554114.375         551.511          51.000                                                    21998875.351    93084616.981          52.000  
> 2022 08 25 07 14 30.0000000  0 41                     
G02  23886848.969   125526070.105       -3274.162          40.000    23886857.421    97813011.813          25.000                                                  
G05  21047748.821   110607397.567       -1705.315          49.000    21047757.077    86187592.512          44.000                                                  
G13  21215697.016   111489640.219       -1919.162          48.000    21215704.932    86875065.859          39.000                                                  
G14  24344892.800   127933366.207         -84.714          38.000    24344901.520    99688337.583          18.000    24344901.448    95534657.295          30.000  
G15  20256090.832   106446298.735          77.576          51.000    20256098.587    82945189.563          55.000                                                  
G18  21600975.506   113513609.699         479.295          47.000    21600983.565    88451886.082          39.000    21600984.279    84767203.800          39.000  
G20  23369526.941   122807530.720       -3178.781          38.000    23369536.608    95694180.221          22.000                                                  
G23  23619663.779   124121603.174        3174.949          40.000    23619672.785    96718277.351          29.000    23619673.714    92688282.364          32.000  
G24  21092777.919   110843681.555        2689.949          48.000    21092788.480    86371714.575          53.000    21092784.138    82772895.371          40.000  
R03  20541762.741   109960925.547        -808.035          51.000    20541767.941    85525853.886          49.000  
R04  20757737.527   111156965.309        1508.630          50.000    20757742.834    86455713.832          48.000  
R13  20621346.330   110116600.662        -746.980          40.000    20621351.495    85646223.572          45.000  
R14  20938760.254   111614863.919        3325.631          51.000    20938766.991    86812003.772          48.000  
R18  22990431.098   122724932.631       -3993.034          43.000    22990440.354    95451919.817          41.000  
R19  21484760.652   114928997.822       -2090.304          38.000    21484766.477    89389595.925          44.000  
R20  23074273.054   123388102.991        1939.731          34.000    23074281.899    95968524.781          41.000  
E03  25175166.516   132296793.168        1226.844          48.000    25175162.567   107383802.059          48.000    25175172.306   100081709.115          51.000  
E05  23853465.649   125350784.723        -547.366          52.000    23853459.734   101745786.094          52.000    23853471.045    94827081.471          54.000  
E09  26906487.521   141394903.678       -1808.493          40.000    26906485.377   114768597.420          44.000    26906494.919   106964335.335          45.000  
E15  25361628.896   133275663.744         703.831          46.000    25361625.018   108179298.306          47.000    25361635.239   100822872.061          48.000  
E24  26093515.843   137122221.761        1486.639          45.000    26093512.895   111300513.618          46.000    26093521.132   103732204.018          47.000  
E25  27292433.382   143423194.345        2836.834          39.000    27292431.202   116414935.229          38.000    27292444.211   108498294.762          42.000  
E31  27446004.876   144230226.438        -680.729          39.000    27446000.105   117069992.648          38.000    27446012.596   109109234.111          43.000  
E36  27462240.688   144315570.574       -3159.079          38.000    27462239.491   117138411.313          38.000    27462250.624   109172996.820          40.000  
J02  37342808.079   196238468.511         427.195          39.000    37342817.853   152913103.648          43.000    37342815.656   146541726.313          32.000  
J03  37219156.424   195587675.886        -406.716          40.000    37219165.626   152405970.858          43.000    37219163.714   146055719.750          32.000  
C06  37469841.376   195115833.570         424.642          42.000    37469837.373   150875954.846          45.000    37469828.313   158547609.971          43.000  
C09  39183702.111   204039403.265         475.213          37.000    39183701.110   157776222.792          41.000    39183690.407   165798739.840          39.000  
C13  36282351.166   188931654.443         271.800          48.000    36282353.400   146093942.043          47.000    36282343.053   153522446.582          47.000  
C14  25555714.789   133075693.334       -2195.963          37.000    25555714.700   102902567.196          40.000    25555706.927   108134901.358          38.000  
C16  37278813.390   194120423.018         280.599          46.000    37278814.641   150106243.591          45.000    37278806.439   157738759.943          42.000  
C23  24373711.299   126920717.702        3079.882          41.000                                                    24373695.592   103133212.569          45.000  
C24  25093054.425   130666241.546       -2172.697          41.000                                                    25093045.044   106176871.731          43.000  
C25  22490276.663   117112162.376         837.191          50.000                                                    22490270.051    95163892.705          50.000  
C27  25132047.313   130869278.456       -2139.347          40.000                                                    25132042.757   106341436.263          40.000  
C30  25788905.039   134289105.209        -279.000          34.000                                                    25788902.019   109120884.827          38.000  
C32  24941759.373   129878575.086        2262.874          39.000                                                    24941752.172   105536122.797          44.000  
C33  23691899.411   123369578.143       -1599.493          46.000                                                    23691906.666   100247599.703          45.000  
C38  35843648.140   186646511.895        -426.451          50.000                                                    35843637.847   151665580.861          51.000  
C39  36818277.259   191722484.694         178.749          48.000                                                    36818269.146   155790239.938          49.000  
C41  21998769.083   114553562.817         551.288          52.000                                                    21998769.441    93084168.796          52.000  
> 2022 08 25 07 14 31.0000000  0 41                     
G02  23887471.543   125529344.392       -3274.529          39.000    23887480.317    97815563.210          25.000                                                  
G05  21048073.377   110609102.975       -1705.745          49.000    21048081.561    86188921.397          44.000                                                  
G13  21216062.509   111491559.345       -1919.260          48.000    21216070.050    86876561.278          39.000                                                  
G14  24344908.650   127933451.050         -85.261          38.000    24344917.531    99688403.681          17.000    24344917.584    95534720.657          31.000  
G15  20256076.072   106446221.172          77.210          51.000    20256083.774    82945129.122          55.000                                                  
G18  21600884.499   113513130.574         478.601          47.000    21600892.468    88451512.734          39.000    21600893.022    84766846.010          39.000  
G20  23370131.861   122810709.540       -3179.016          38.000    23370141.421    95696657.214          24.000                                                  
G23  23619059.699   124118428.106        3174.871          39.000    23619068.562    96715803.287          28.000    23619069.544    92685911.374          32.000  
G24  21092265.740   110840991.634        2689.519          48.000    21092276.568    86369618.537          53.000    21092272.333    82770886.664          40.000  
R03  20541913.466   109961733.551        -808.243          52.000    20541918.827    85526482.329          49.000  
R04  20757455.572   111155456.525        1508.573          50.000    20757461.165    86454540.331          49.000  
R13  20621486.459   110117347.941        -747.759          41.000    20621491.373    85646804.788          45.000  
R14  20938136.071   111611538.367        3325.112          51.000    20938143.165    86809417.234          48.000  
R18  22991179.739   122728925.554       -3993.104          43.000    22991188.280    95455025.417          40.000  
R19  21485151.429   114931088.255       -2090.960          37.000    21485157.237    89391221.810          44.000  
R20  23073911.010   123386163.571        1938.913          34.000    23073919.373    95967016.340          41.000  
E03  25174933.076   132295566.211        1226.819          49.000    25174928.930   107382806.152          48.000    25174938.794   100080780.935          50.000  
E05  23853569.790   125351331.983        -547.444          52.000    23853563.804   101746230.297          52.000    23853575.150    94827495.465          55.000  
E09  26906832.322   141396712.214       -1808.645          41.000    26906829.605   114770065.380          44.000    26906839.040   106965703.478          45.000  
E15  25361494.699   133274959.987         703.381          46.000    25361491.107   108178727.080          46.000    25361501.329   100822339.680          49.000  
E24  26093232.941   137120735.228        1486.165          44.000    26093230.010   111299307.007          46.000    26093238.248   103731079.468          47.000  
E25  27291893.649   143420357.282        2837.043          39.000    27291891.183   116412632.423          38.000    27291904.352   108496148.555          42.000  
E31  27446134.588   144230907.218        -681.189          39.000    27446129.566   117070545.229          37.000    27446142.146   109109749.124          42.000  
E36  27462842.070   144318729.552       -3159.046          39.000    27462840.641   117140975.414          38.000    27462851.755   109175386.551          41.000  
J02  37342726.668   196238041.158         427.141          39.000    37342736.424   152912770.642          43.000    37342734.137   146541407.182          32.000  
J03  37219233.814   195588082.486        -406.790          40.000    37219243.053   152406287.687          43.000    37219241.123   146056023.371          32.000  
C06  37469759.410   195115408.803         424.555          41.000    37469755.837   150875626.389          44.000    37469746.759   158547264.806          43.000  
C09  39183610.461   204038927.909         475.219          37.000    39183609.817   157775855.216          41.000    39183599.096   165798353.576          39.000  
C13  36282299.131   188931382.514         271.684          48.000    36282301.061   146093731.765          47.000    36282290.876   153522225.613          47.000  
C14  25556136.284   133077889.167       -2196.007          37.000    25556136.338   102904265.149          40.000    25556128.690   108136685.649          38.000  
C16  37278759.550   194120142.270         280.521          46.000    37278760.676   150106026.496          45.000    37278752.653   157738531.802          42.000  
C23  24373119.727   126917637.677        3079.775          42.000                                                    24373104.181   103130709.806          45.000  
C24  25093471.934   130668414.382       -2173.141          41.000                                                    25093462.249   106178637.338          42.000  
C25  22490115.663   117111325.334         836.596          50.000                                                    22490109.284    95163212.534          50.000  
C27  25132458.140   130871417.732       -2139.415          40.000                                                    25132453.637   106343174.598          40.000  
C30  25788958.664   134289384.242        -279.405          35.000                                                    25788955.590   109121111.564          38.000  
C32  24941324.995   129876311.991        2262.870          40.000                                                    24941317.436   105534283.849          44.000  
C33  23692206.544   123371177.600       -1599.688          45.000                                                    23692213.799   100248899.395          45.000  
C38  35843730.212   186646938.296        -426.622          50.000                                                    35843719.741   151665927.347          51.000  
C39  36818243.147   191722305.861         178.627          48.000                                                    36818234.730   155790094.621          49.000  
C41  21998662.995   114553011.454         551.107          52.000                                                    21998663.638    93083720.768          52.000  
> 2022 08 25 07 14 32.0000000  0 41                     
G02  23888095.244   125532618.747       -3274.535          39.000    23888103.463    97818114.635          24.000                                                  
G05  21048398.003   110610808.840       -1706.166          48.000    21048406.044    86190250.654          44.000                                                  
G13  21216427.556   111493478.694       -1919.486          48.000    21216435.186    86878056.874          39.000                                                  
G14  24344924.714   127933536.496         -85.785          39.000    24344933.917    99688470.273          18.000    24344933.881    95534784.459          29.000  
G15  20256061.402   106446143.925          77.023          51.000    20256069.175    82945068.930          55.000                                                  
G18  21600793.206   113512652.150         478.024          47.000    21600801.283    88451139.945          39.000    21600801.944    84766488.745          39.000  
G20  23370736.317   122813888.657       -3179.277          38.000    23370746.377    95699134.441          23.000                                                  
G23  23618455.851   124115253.095        3174.898          39.000    23618464.249    96713329.252          28.000    23618465.393    92683540.430          33.000  
G24  21091753.935   110838302.224        2689.108          48.000    21091764.835    86367522.904          53.000    21091760.565    82768878.345          39.000  
R03  20542064.227   109962541.826        -808.481          52.000    20542069.802    85527110.988          49.000  
R04  20757174.492   111153947.875        1508.491          50.000    20757179.388    86453366.941          49.000  
R13  20621626.481   110118096.170        -748.775          40.000    20621631.431    85647386.738          45.000  
R14  20937512.031   111608213.375        3324.583          51.000    20937519.358    86806831.134          48.000  
R18  22991927.575   122732918.614       -3993.140          43.000    22991936.385    95458131.119          40.000  
R19  21485542.136   114933179.509       -2091.834          37.000    21485548.086    89392848.348          43.000  
R20  23073548.126   123384224.921        1938.108          34.000    23073556.649    95965508.501          41.000  
E03  25174699.670   132294339.377        1226.715          49.000    25174695.489   107381810.343          48.000    25174705.335   100079852.840          50.000  
E05  23853673.984   125351879.360        -547.514          52.000    23853667.962   101746674.599          52.000    23853679.345    94827909.550          54.000  
E09  26907176.372   141398520.782       -1808.544          41.000    26907173.620   114771533.381          44.000    26907183.216   106967071.650          45.000  
E15  25361361.092   133274256.728         702.931          46.000    25361357.215   108178156.256          46.000    25361367.507   100821807.667          49.000  
E24  26092950.021   137119249.077        1485.894          44.000    26092947.108   111298100.720          46.000    26092955.471   103729955.206          47.000  
E25  27291354.308   143417520.278        2836.739          39.000    27291351.288   116410329.669          38.000    27291364.511   108494002.387          43.000  
E31  27446264.049   144231588.477        -681.484          40.000    27446259.188   117071098.201          37.000    27446271.786   109110264.489          43.000  
E36  27463443.417   144321888.559       -3159.105          39.000    27463441.808   117143539.541          38.000    27463452.905   109177776.324          41.000  
J02  37342645.596   196237613.838         427.311          39.000    37342655.281   152912437.670          43.000    37342652.690   146541088.083          32.000  
J03  37219311.259   195588489.145        -406.796          40.000    37219320.568   152406604.560          43.000    37219318.531   146056327.049          32.000  
C06  37469678.214   195114984.137         424.482          42.000    37469674.390   150875298.020          44.000    37469665.205   158546919.737          43.000  
C09  39183519.436   204038452.691         475.039          37.000    39183518.417   157775487.755          41.000    39183507.803   165797967.432          39.000  
C13  36282246.793   188931110.742         271.635          49.000    36282248.919   146093521.616          48.000    36282238.645   153522004.774          47.000  
C14  25556557.921   133080085.172       -2196.055          36.000    25556558.100   102905963.234          39.000    25556550.488   108138470.085          38.000  
C16  37278705.800   194119861.632         280.488          46.000    37278706.676   150105809.489          45.000    37278698.706   157738303.768          42.000  
C23  24372528.137   126914557.887        3079.633          42.000                                                    24372512.752   103128207.229          45.000  
C24  25093889.176   130670587.641       -2173.560          40.000                                                    25093879.670   106180403.292          42.000  
C25  22489955.253   117110488.840         836.147          50.000                                                    22489948.623    95162532.824          50.000  
C27  25132869.074   130873557.335       -2139.791          40.000                                                    25132864.517   106344913.198          40.000  
C30  25789012.414   134289663.812        -279.868          34.000                                                    25789009.358   109121338.750          39.000  
C32  24940890.027   129874048.919        2262.983          40.000                                                    24940882.879   105532444.922          45.000  
C33  23692514.177   123372777.265       -1599.815          46.000                                                    23692520.950   100250199.254          45.000  
C38  35843812.142   186647364.892        -426.768          50.000                                                    35843801.706   151666273.989          51.000  
C39  36818208.660   191722127.120         178.623          48.000                                                    36818200.440   155789949.384          50.000  
C41  21998557.228   114552460.315         550.937          51.000                                                    21998557.639    93083272.925          52.000  
> 2022 08 25 07 14 33.0000000  0 41                     
G02  23888717.390   125535893.198       -3274.494          39.000    23888726.503    97820666.151          25.000                                                  
G05  21048722.683   110612515.110       -1706.408          48.000    21048730.939    86191580.204          44.000                                                  
G13  21216792.799   111495398.208       -1919.558          49.000    21216800.482    86879552.595          39.000                                                  
G14  24344941.207   127933622.469         -86.203          39.000    24344950.213    99688537.261          19.000    24344950.267    95534848.658          30.000  
G15  20256046.642   106446066.972          76.834          51.000    20256054.486    82945008.969          56.000                                                  
G18  21600702.413   113512174.381         477.445          48.000    21600710.240    88450767.648          39.000    21600711.008    84766131.967          39.000  
G20  23371341.862   122817067.991       -3179.411          38.000    23371351.368    95701611.867          25.000                                                  
G23  23617851.717   124112078.142        3174.930          40.000    23617860.223    96710855.256          29.000    23617861.170    92681169.526          33.000  
G24  21091242.524   110835613.269        2688.821          48.000    21091253.049    86365427.616          53.000    21091248.885    82766870.363          39.000  
R03  20542215.417   109963350.272        -808.450          52.000    20542220.957    85527739.775          49.000  
R04  20756892.876   111152439.282        1508.585          50.000    20756897.826    86452193.591          49.000  
R13  20621766.878   110118845.244        -749.525          40.000    20621771.774    85647969.348          45.000  
R14  20936888.224   111604888.885        3324.263          51.000    20936895.711    86804245.417          48.000  
R18  22992675.251   122736911.754       -3993.182          43.000    22992684.435    95461236.888          40.000  
R19  21485932.449   114935271.373       -2092.287          37.000    21485939.221    89394475.353          43.000  
R20  23073185.313   123382287.023        1937.445          33.000    23073194.265    95964001.238          41.000  
E03  25174466.229   132293112.598        1226.780          49.000    25174461.995   107380814.581          48.000    25174471.876   100078924.788          50.000  
E05  23853778.178   125352426.799        -547.419          52.000    23853772.103   101747118.946          52.000    23853783.503    94828323.682          54.000  
E09  26907520.368   141400329.303       -1808.532          41.000    26907517.777   114773001.327          44.000    26907527.337   106968439.776          45.000  
E15  25361227.271   133273553.951         702.586          46.000    25361223.483   108177585.813          46.000    25361233.740   100821276.017          48.000  
E24  26092667.547   137117763.257        1485.682          44.000    26092664.384   111296894.700          46.000    26092672.711   103728831.189          47.000  
E25  27290814.127   143414683.206        2837.112          39.000    27290811.304   116408026.854          38.000    27290824.616   108491856.163          42.000  
E31  27446393.903   144232270.164        -681.808          40.000    27446388.828   117071651.521          37.000    27446401.497   109110780.181          43.000  
E36  27464044.477   144325047.504       -3158.874          39.000    27464043.012   117146103.617          38.000    27464054.055   109180166.036          41.000  
J02  37342564.524   196237186.556         427.288          38.000    37342573.888   152912104.725          43.000    37342571.368   146540769.009          32.000  
J03  37219388.971   195588895.780        -406.569          40.000    37219398.156   152406921.419          43.000    37219395.761   146056630.701          32.000  
C06  37469596.445   195114559.518         424.660          42.000    37469592.692   150874969.678          45.000    37469583.597   158546574.707          43.000  
C09  39183428.268   204037977.495         475.197          37.000    39183427.303   157775120.296          40.000    39183416.564   165797581.294          39.000  
C13  36282194.580   188930839.121         271.594          49.000    36282196.903   146093311.586          48.000    36282186.485   153521784.060          47.000  
C14  25556979.970   133082281.257       -2196.160          36.000    25556979.809   102907661.382          40.000    25556972.286   108140254.577          38.000  
C16  37278651.675   194119581.056         280.534          46.000    37278652.997   150105592.527          45.000    37278644.760   157738075.774          43.000  
C23  24371937.084   126911478.269        3079.513          42.000                                                    24371921.323   103125704.787          45.000  
C24  25094306.471   130672761.268       -2173.714          41.000                                                    25094297.162   106182169.536          42.000  
C25  22489794.700   117109652.865         835.764          50.000                                                    22489788.088    95161853.526          50.000  
C27  25133279.883   130875697.106       -2139.828          40.000                                                    25133275.380   106346651.934          39.000  
C30  25789066.396   134289943.805        -280.160          34.000                                                    25789063.090   109121566.269          38.000  
C32  24940455.595   129871785.849        2263.122          40.000                                                    24940448.269   105530605.995          45.000  
C33  23692821.346   123374377.094       -1599.847          46.000                                                    23692828.243   100251499.242          46.000  
C38  35843894.035   186647791.622        -426.756          50.000                                                    35843883.528   151666620.742          51.000  
C39  36818174.476   191721948.429         178.649          48.000                                                    36818166.096   155789804.176          49.000  
C41  21998451.622   114551909.333         550.954          52.000                                                    21998451.908    93082825.207          52.000  
> 2022 08 25 07 14 34.0000000  0 41                     
G02  23889341.144   125539167.714       -3274.569          39.000    23889349.667    97823217.717          25.000                                                  
G05  21049047.667   110614221.806       -1706.889          48.000    21049055.601    86192910.094          44.000                                                  
G13  21217158.292   111497317.877       -1919.716          48.000    21217165.975    86881048.448          39.000                                                  
G14  24344957.396   127933709.009         -86.693          39.000    24344966.653    99688604.699          20.000    24344966.688    95534913.282          30.000  
G15  20256032.275   106445990.345          76.539          52.000    20256039.852    82944949.259          56.000                                                  
G18  21600611.621   113511697.283         476.803          47.000    21600619.519    88450395.891          39.000    21600620.180    84765775.700          40.000  
G20  23371947.014   122820247.574       -3179.637          38.000    23371956.360    95704089.458          23.000                                                  
G23  23617247.458   124108903.233        3174.913          39.000    23617256.053    96708381.310          29.000    23617257.072    92678798.650          32.000  
G24  21090730.630   110832924.786        2688.282          47.000    21090741.512    86363332.692          53.000    21090737.259    82764862.730          39.000  
R03  20542366.553   109964158.922        -808.709          52.000    20542371.950    85528368.722          49.000  
R04  20756610.796   111150930.800        1508.439          50.000    20756616.067    86451020.327          49.000  
R13  20621907.042   110119595.197        -750.375          40.000    20621912.260    85648552.652          45.000  
R14  20936264.738   111601564.949        3323.715          51.000    20936272.118    86801660.139          48.000  
R18  22993423.016   122740904.990       -3993.221          43.000    22993432.469    95464342.741          40.000  
R19  21486324.263   114937363.995       -2092.941          38.000    21486330.445    89396102.949          44.000  
R20  23072823.608   123380349.854        1936.722          34.000    23072831.900    95962494.558          42.000  
E03  25174232.681   132291885.914        1226.637          49.000    25174228.697   107379818.903          48.000    25174238.471   100077996.816          50.000  
E05  23853882.247   125352974.323        -547.533          52.000    23853876.476   101747563.365          51.000    23853887.715    94828737.887          54.000  
E09  26907864.365   141402137.827       -1808.461          41.000    26907861.917   114774469.277          44.000    26907871.512   106969807.908          45.000  
E15  25361093.772   133272851.635         702.096          46.000    25361089.823   108177015.758          46.000    25361100.080   100820744.726          48.000  
E24  26092385.020   137116277.816        1485.265          44.000    26092381.678   111295688.982          45.000    26092390.059   103727707.462          47.000  
E25  27290274.769   143411846.099        2837.144          39.000    27290271.445   116405724.012          38.000    27290284.740   108489709.916          43.000  
E31  27446523.453   144232952.294        -682.323          39.000    27446518.682   117072205.196          37.000    27446531.298   109111296.204          43.000  
E36  27464645.216   144328206.458       -3159.022          39.000    27464644.144   117148667.697          38.000    27464655.204   109182555.756          40.000  
J02  37342482.970   196236759.271         427.247          38.000    37342492.834   152911771.780          43.000    37342490.261   146540449.943          32.000  
J03  37219466.058   195589302.492        -406.635          40.000    37219475.582   152407238.337          43.000    37219472.973   146056934.417          31.000  
C06  37469514.766   195114135.007         424.457          42.000    37469511.245   150874641.416          44.000    37469502.079   158546229.747          43.000  
C09  39183337.190   204037502.423         475.082          37.000    39183336.028   157774752.949          41.000    39183325.289   165797195.259          39.000  
C13  36282142.331   188930567.640         271.439          49.000    36282144.636   146093101.649          48.000    36282134.343   153521563.459          47.000  
C14  25557402.233   133084477.465       -2196.232          36.000    25557401.429   102909359.634          40.000    25557394.067   108142039.181          38.000  
C16  37278597.675   194119300.563         280.409          46.000    37278599.104   150105375.644          45.000    37278590.974   157737847.856          43.000  
C23  24371346.066   126908398.831        3079.383          42.000                                                    24371329.984   103123202.496          45.000  
C24  25094724.035   130674935.280       -2174.113          41.000                                                    25094714.582   106183936.095          42.000  
C25  22489634.325   117108817.436         835.228          50.000                                                    22489627.660    95161174.669          50.000  
C27  25133691.174   130877837.127       -2140.128          40.000                                                    25133686.385   106348390.872          39.000  
C30  25789120.450   134290224.317        -280.778          34.000                                                    25789117.037   109121794.213          38.000  
C32  24940020.663   129869522.760        2263.138          40.000                                                    24940013.659   105528767.047          44.000  
C33  23693128.407   123375977.116       -1600.070          46.000                                                    23693135.519   100252799.395          46.000  
C38  35843976.019   186648218.530        -426.944          50.000                                                    35843965.583   151666967.639          51.000  
C39  36818140.203   191721769.807         178.656          48.000                                                    36818131.805   155789659.040          49.000  
C41  21998345.784   114551358.540         550.722          52.000                                                    21998346.177    93082377.645          52.000  
> 2022 08 25 07 14 35.0000000  0 41                     
G02  23889963.825   125542442.347       -3274.745          39.000    23889972.760    97825769.386          26.000                                                  
G05  21049372.383   110615928.945       -1707.426          48.000    21049380.639    86194240.330          44.000                                                  
G13  21217523.749   111499237.752       -1920.033          48.000    21217531.147    86882544.452          39.000                                                  
G14  24344974.729   127933796.112         -87.426          39.000    24344983.253    99688672.558          19.000    24344983.253    95534978.328          30.000  
G15  20256017.569   106445914.023          76.153          52.000    20256025.413    82944889.785          56.000                                                  
G18  21600521.186   113511220.867         476.080          47.000    21600528.816    88450024.653          39.000    21600529.495    84765419.934          39.000  
G20  23372552.328   122823427.440       -3179.990          39.000    23372561.548    95706567.254          23.000                                                  
G23  23616642.877   124105728.354        3174.840          39.000    23616651.991    96705907.378          28.000    23616652.831    92676427.803          33.000  
G24  21090219.361   110830236.799        2687.750          48.000    21090229.904    86361238.155          53.000    21090225.830    82762855.462          39.000  
R03  20542517.082   109964967.780        -808.946          52.000    20542522.979    85528997.839          50.000  
R04  20756329.555   111149422.464        1508.245          51.000    20756334.434    86449847.177          49.000  
R13  20622046.582   110120346.018        -751.222          40.000    20622052.818    85649136.622          44.000  
R14  20935641.698   111598241.543        3323.122          51.000    20935648.650    86799075.263          48.000  
R18  22994171.531   122744898.340       -3993.463          44.000    22994180.627    95467448.677          40.000  
R19  21486716.327   114939457.350       -2093.619          38.000    21486721.849    89397731.106          44.000  
R20  23072461.010   123378413.437        1936.026          33.000    23072469.748    95960988.450          42.000  
E03  25173999.455   132290659.317        1226.548          48.000    25173995.291   107378823.293          48.000    25174005.066   100077068.906          50.000  
E05  23853986.567   125353521.938        -547.641          52.000    23853980.670   101748007.855          51.000    23853991.910    94829152.150          54.000  
E09  26908208.683   141403946.360       -1808.559          42.000    26908206.128   114775937.245          43.000    26908215.670   106971176.049          45.000  
E15  25360960.183   133272149.809         701.602          46.000    25360956.127   108176446.092          46.000    25360966.527   100820213.794          48.000  
E24  26092102.421   137114792.724        1484.883          45.000    26092098.901   111294483.548          45.000    26092107.442   103726584.002          48.000  
E25  27289734.999   143409009.025        2837.134          39.000    27289731.658   116403421.199          38.000    27289744.845   108487563.695          42.000  
E31  27446653.433   144233634.879        -682.987          39.000    27446648.393   117072759.244          37.000    27446661.188   109111812.581          42.000  
E36  27465246.419   144331365.389       -3158.866          39.000    27465245.043   117151231.749          37.000    27465256.336   109184945.462          41.000  
J02  37342401.666   196236332.038         427.110          38.000    37342411.548   152911438.876          43.000    37342408.921   146540130.900          32.000  
J03  37219543.288   195589709.224        -406.757          40.000    37219552.866   152407555.266          43.000    37219550.275   146057238.141          32.000  
C06  37469433.372   195113710.571         424.404          42.000    37469429.673   150874313.216          45.000    37469420.578   158545884.863          43.000  
C09  39183245.897   204037027.444         474.897          37.000    39183244.753   157774385.661          41.000    39183234.103   165796809.302          39.000  
C13  36282090.189   188930296.298         271.255          49.000    36282092.494   146092891.839          48.000    36282082.255   153521342.974          47.000  
C14  25557823.602   133086673.763       -2196.207          37.000    25557823.316   102911057.940          40.000    25557815.829   108143823.839          38.000  
C16  37278543.996   194119020.141         280.386          45.000    37278545.265   150105158.806          45.000    37278537.081   157737619.992          43.000  
C23  24370754.369   126905319.606        3079.131          42.000                                                    24370738.608   103120700.378          45.000  
C24  25095141.580   130677109.686       -2174.571          41.000                                                    25095132.163   106185702.982          42.000  
C25  22489473.897   117107982.536         834.648          50.000                                                    22489467.303    95160496.244          50.000  
C27  25134101.893   130879977.372       -2140.425          39.000                                                    25134097.301   106350130.001          40.000  
C30  25789174.665   134290505.310        -281.255          35.000                                                    25789170.966   109122022.540          39.000  
C32  24939586.321   129867259.688        2263.071          40.000                                                    24939579.013   105526928.123          44.000  
C33  23693435.790   123377577.324       -1600.313          46.000                                                    23693442.795   100254099.690          46.000  
C38  35844057.984   186648645.597        -427.139          50.000                                                    35844047.602   151667314.662          51.000  
C39  36818105.734   191721591.258         178.515          48.000                                                    36818097.532   155789513.945          49.000  
C41  21998240.035   114550807.930         550.566          52.000                                                    21998240.375    93081930.231          52.000  
> 2022 08 25 07 14 36.0000000  0 41                     
G02  23890587.133   125545716.968       -3274.388          39.000    23890595.871    97828321.037          25.000                                                  
G05  21049697.421   110617636.410       -1707.430          49.000    21049705.479    86195570.822          44.000                                                  
G13  21217889.027   111501157.694       -1919.798          48.000    21217896.604    86884040.504          39.000                                                  
G14  24344991.151   127933883.670         -87.649          39.000    24345000.014    99688740.797          19.000    24344999.907    95535043.715          30.000  
G15  20256003.184   106445837.924          76.169          52.000    20256010.904    82944830.490          56.000                                                  
G18  21600430.554   113510745.043         475.744          47.000    21600438.220    88449653.879          39.000    21600438.953    84765064.607          40.000  
G20  23373157.480   122826607.434       -3179.837          39.000    23373166.700    95709045.172          22.000                                                  
G23  23616038.476   124102553.453        3175.031          39.000    23616047.857    96703433.427          28.000    23616048.697    92674056.932          33.000  
G24  21089707.718   110827549.167        2687.663          48.000    21089718.546    86359143.898          53.000    21089714.311    82760848.467          40.000  
R03  20542668.629   109965776.738        -808.806          52.000    20542674.240    85529627.030          50.000  
R04  20756047.153   111147914.179        1508.463          51.000    20756052.800    86448674.069          49.000  
R13  20622186.979   110121097.680        -751.780          40.000    20622193.465    85649721.247          44.000  
R14  20935018.320   111594918.572        3322.973          51.000    20935025.360    86796490.725          48.000  
R18  22994919.278   122748891.716       -3993.157          43.000    22994928.785    95470554.631          40.000  
R19  21487107.605   114941551.343       -2094.107          38.000    21487113.252    89399359.763          44.000  
R20  23072099.323   123376477.755        1935.537          33.000    23072107.775    95959482.929          41.000  
E03  25173765.853   132289432.712        1226.808          49.000    25173761.761   107377827.667          48.000    25173771.643   100076140.982          51.000  
E05  23854090.779   125354069.547        -547.410          53.000    23854084.775   101748452.348          51.000    23854096.140    94829566.415          54.000  
E09  26908552.572   141405754.764       -1808.128          42.000    26908550.214   114777405.109          43.000    26908559.791   106972544.099          45.000  
E15  25360826.523   133271448.382         701.384          46.000    25360822.502   108175876.752          46.000    25360833.063   100819683.167          48.000  
E24  26091819.894   137113307.913        1484.900          45.000    26091816.285   111293278.347          45.000    26091824.915   103725460.757          47.000  
E25  27289195.194   143406171.800        2837.355          39.000    27289191.674   116401118.267          38.000    27289204.950   108485417.364          43.000  
E31  27446783.430   144234317.816        -682.918          39.000    27446778.194   117073313.574          37.000    27446791.167   109112329.221          42.000  
E36  27465847.622   144334524.220       -3158.636          39.000    27465846.139   117153795.731          37.000    27465857.432   109187335.088          40.000  
J02  37342319.933   196235904.718         427.580          39.000    37342330.172   152911105.900          42.000    37342327.581   146539811.804          32.000  
J03  37219621.000   195590115.889        -406.448          40.000    37219630.042   152407872.143          43.000    37219627.594   146057541.814          32.000  
C06  37469351.800   195113286.124         424.649          42.000    37469347.976   150873985.008          44.000    37469339.060   158545539.974          43.000  
C09  39183154.729   204036552.431         475.337          37.000    39183153.657   157774018.355          41.000    39183142.971   165796423.315          39.000  
C13  36282038.422   188930025.018         271.421          49.000    36282040.477   146092682.063          48.000    36282030.167   153521122.539          47.000  
C14  25558245.436   133088870.120       -2196.104          37.000    25558245.186   102912756.304          40.000    25558237.485   108145608.563          38.000  
C16  37278490.211   194118739.738         280.566          45.000    37278491.408   150104941.974          44.000    37278483.242   157737392.147          42.000  
C23  24370162.958   126902240.479        3079.214          42.000                                                    24370147.269   103118198.340          45.000  
C24  25095559.662   130679284.376       -2174.619          41.000                                                    25095549.780   106187470.096          42.000  
C25  22489313.916   117107148.070         834.424          50.000                                                    22489307.143    95159818.172          50.000  
C27  25134512.952   130882117.771       -2140.200          39.000                                                    25134508.360   106351869.246          40.000  
C30  25789228.808   134290786.683        -281.445          35.000                                                    25789225.091   109122251.184          39.000  
C32  24939151.907   129864996.540        2263.364          40.000                                                    24939144.456   105525089.130          45.000  
C33  23693742.976   123379177.622       -1600.176          46.000                                                    23693750.052   100255400.066          46.000  
C38  35844140.092   186649072.737        -426.973          50.000                                                    35844129.639   151667661.755          51.000  
C39  36818071.229   191721412.675         178.833          48.000                                                    36818063.206   155789368.843          49.000  
C41  21998134.197   114550257.413         550.694          52.000                                                    21998134.715    93081482.884          52.000  
> 2022 08 25 07 14 37.0000000  0 41                     
G02  23891210.225   125548991.839       -3274.828          39.000    23891219.088    97830872.859          25.000                                                  
G05  21050022.440   110619344.461       -1708.173          49.000    21050030.517    86196901.766          44.000                                                  
G13  21218254.574   111503077.950       -1920.228          48.000    21218262.079    86885536.814          39.000                                                  
G14  24345008.287   127933971.927         -88.485          38.000    24345016.811    99688809.541          19.000    24345016.668    95535109.603          30.000  
G15  20255988.585   106445762.283          75.602          52.000    20255996.501    82944771.553          56.000                                                  
G18  21600340.530   113510270.017         474.796          47.000    21600347.874    88449283.736          40.000    21600348.500    84764709.885          39.000  
G20  23373762.471   122829787.836       -3180.419          38.000    23373771.906    95711523.405          24.000                                                  
G23  23615435.074   124099378.729        3174.722          39.000    23615443.777    96700959.623          29.000    23615444.545    92671686.203          33.000  
G24  21089196.342   110824862.177        2686.910          48.000    21089207.170    86357050.147          53.000    21089202.918    82758841.953          40.000  
R03  20542820.176   109966586.062        -809.342          52.000    20542825.341    85530256.498          50.000  
R04  20755765.555   111146406.193        1508.074          51.000    20755771.291    86447501.191          49.000  
R13  20622328.644   110121850.391        -752.966          40.000    20622334.470    85650306.687          44.000  
R14  20934394.923   111591596.268        3322.165          51.000    20934401.928    86793906.710          48.000  
R18  22995667.508   122752885.339       -3993.542          43.000    22995676.889    95473660.776          41.000  
R19  21487499.687   114943646.200       -2095.161          38.000    21487504.869    89400989.091          44.000  
R20  23071737.011   123374542.892        1934.620          33.000    23071745.981    95957978.037          42.000  
E03  25173532.412   132288206.347        1226.446          49.000    25173528.392   107376832.246          48.000    25173538.273   100075213.248          51.000  
E05  23854194.937   125354617.385        -547.772          53.000    23854189.148   101748897.024          52.000    23854200.370    94829980.851          54.000  
E09  26908896.765   141407563.323       -1808.475          42.000    26908894.317   114778873.096          43.000    26908903.967   106973912.267          45.000  
E15  25360693.345   133270747.568         700.665          47.000    25360689.056   108175307.916          46.000    25360699.688   100819153.010          49.000  
E24  26091537.349   137111823.602        1484.190          45.000    26091533.740   111292073.549          46.000    26091542.478   103724337.885          47.000  
E25  27288655.639   143403334.723        2837.149          39.000    27288651.833   116398815.439          38.000    27288665.056   108483271.140          43.000  
E31  27446913.463   144235001.357        -683.685          39.000    27446908.227   117073868.406          37.000    27446921.218   109112846.309          42.000  
E36  27466448.593   144337683.166       -3158.852          40.000    27466447.324   117156359.815          38.000    27466458.564   109189724.806          40.000  
J02  37342238.969   196235477.577         427.325          39.000    37342248.689   152910773.067          43.000    37342246.188   146539492.841          32.000  
J03  37219698.409   195590522.747        -406.825          40.000    37219707.754   152408189.183          43.000    37219704.985   146057845.635          30.000  
C06  37469270.728   195112861.915         424.287          41.000    37469266.565   150873656.985          44.000    37469257.684   158545195.272          42.000  
C09  39183063.133   204036077.685         474.990          37.000    39183062.471   157773651.255          41.000    39183051.857   165796037.552          39.000  
C13  36281986.084   188929754.034         271.026          49.000    36281988.389   146092472.526          48.000    36281978.096   153520902.340          47.000  
C14  25558667.038   133091066.723       -2196.411          37.000    25558667.002   102914454.846          39.000    25558659.265   108147393.471          38.000  
C16  37278436.318   194118459.537         280.269          45.000    37278437.533   150104725.307          45.000    37278429.456   157737164.460          43.000  
C23  24369572.190   126899161.681        3078.745          43.000                                                    24369556.019   103115696.574          45.000  
C24  25095977.243   130681459.608       -2175.293          41.000                                                    25095967.522   106189237.650          41.000  
C25  22489153.773   117106314.301         833.589          50.000                                                    22489147.001    95159140.669          50.000  
C27  25134924.422   130884258.545       -2140.825          40.000                                                    25134919.437   106353608.800          40.000  
C30  25789283.308   134291068.688        -282.270          36.000                                                    25789279.323   109122480.331          39.000  
C32  24938717.458   129862733.509        2263.106          40.000                                                    24938709.845   105523250.234          45.000  
C33  23694050.431   123380778.245       -1600.586          46.000                                                    23694057.435   100256700.701          46.000  
C38  35844222.057   186649500.185        -427.427          50.000                                                    35844211.747   151668009.092          51.000  
C39  36818037.099   191721234.323         178.428          48.000                                                    36818028.933   155789223.914          49.000  
C41  21998028.502   114549707.225         550.190          52.000                                                    21998028.984    93081035.816          52.000  
> 2022 08 25 07 14 38.0000000  0 41                     
G02  23891833.533   125552266.724       -3274.845          39.000    23891842.163    97833424.718          24.000                                                  
G05  21050347.406   110621052.885       -1708.575          49.000    21050355.715    86198233.004          44.000                                                  
G13  21218619.549   111504998.344       -1920.421          48.000    21218627.429    86887033.223          40.000                                                  
G14  24345024.870   127934060.679         -89.064          38.000    24345033.733    99688878.710          20.000    24345033.554    95535175.886          30.000  
G15  20255974.183   106445686.908          75.277          52.000    20255982.152    82944712.811          56.000                                                  
G18  21600249.809   113509795.632         474.154          48.000    21600257.689    88448914.078          40.000    21600258.243    84764355.633          39.000  
G20  23374367.767   122832968.444       -3180.724          38.000    23374377.219    95714001.805          25.000                                                  
G23  23614830.583   124096204.008        3174.769          40.000    23614839.804    96698485.824          28.000    23614840.626    92669315.481          33.000  
G24  21088685.181   110822175.625        2686.361          48.000    21088695.795    86354956.725          53.000    21088691.685    82756835.766          40.000  
R03  20542970.312   109967395.567        -809.545          52.000    20542976.620    85530886.117          50.000  
R04  20755484.225   111144898.222        1507.993          51.000    20755489.568    86446328.322          49.000  
R13  20622470.310   110122603.977        -754.057          40.000    20622475.653    85650892.814          45.000  
R14  20933771.777   111588274.442        3321.601          51.000    20933778.799    86791323.068          48.000  
R18  22996416.220   122756879.019       -3993.646          43.000    22996425.083    95476766.971          41.000  
R19  21487890.125   114945741.702       -2095.837          38.000    21487896.647    89402618.924          44.000  
R20  23071375.360   123372608.822        1933.831          32.000    23071384.348    95956473.758          42.000  
E03  25173299.204   132286980.021        1226.361          49.000    25173294.951   107375836.851          48.000    25173304.904   100074285.542          51.000  
E05  23854299.150   125355165.267        -547.819          53.000    23854293.521   101749341.734          51.000    23854304.635    94830395.324          54.000  
E09  26909241.030   141409371.833       -1808.405          42.000    26909238.403   114780341.042          43.000    26909248.106   106975280.386          45.000  
E15  25360559.988   133270047.195         700.209          47.000    25360555.843   108174739.419          46.000    25360566.368   100818623.178          49.000  
E24  26091254.983   137110339.613        1483.866          45.000    26091251.338   111290869.012          46.000    26091260.076   103723215.255          47.000  
E25  27288116.119   143400497.572        2837.333          39.000    27288111.938   116396512.564          37.000    27288125.161   108481124.858          43.000  
E31  27447043.620   144235685.278        -684.030          39.000    27447038.278   117074423.529          37.000    27447051.340   109113363.693          42.000  
E36  27467049.654   144340842.064       -3158.849          40.000    27467048.492   117158923.844          37.000    27467059.696   109192114.490          41.000  
J02  37342157.986   196235050.409         427.303          39.000    37342167.492   152910440.209          43.000    37342164.759   146539173.859          32.000  
J03  37219775.800   195590929.564        -406.774          40.000    37219785.252   152408506.181          43.000    37219782.376   146058149.434          30.000  
C06  37469188.942   195112437.738         424.173          41.000    37469185.207   150873328.982          44.000    37469176.219   158544850.589          43.000  
C09  39182972.304   204035602.968         474.857          37.000    39182971.375   157773284.170          41.000    39182960.707   165795651.794          39.000  
C13  36281934.157   188929483.128         270.902          49.000    36281936.319   146092263.047          48.000    36281926.080   153520682.212          47.000  
C14  25559089.301   133093263.405       -2196.730          37.000    25559088.818   102916153.460          40.000    25559081.153   108149178.455          38.000  
C16  37278382.157   194118179.379         280.184          45.000    37278383.604   150104508.673          45.000    37278375.617   157736936.811          42.000  
C23  24368981.047   126896083.008        3078.685          43.000                                                    24368964.786   103113194.898          45.000  
C24  25096394.806   130683635.182       -2175.720          40.000                                                    25096385.229   106191005.482          41.000  
C25  22488993.792   117105481.015         833.118          50.000                                                    22488987.002    95158463.554          49.000  
C27  25135335.017   130886399.491       -2140.969          40.000                                                    25135330.514   106355348.501          40.000  
C30  25789337.684   134291351.117        -282.639          36.000                                                    25789333.520   109122709.842          39.000  
C32  24938282.812   129860470.454        2263.035          40.000                                                    24938275.271   105521411.314          44.000  
C33  23694357.992   123382379.017       -1600.754          46.000                                                    23694364.800   100258001.457          46.000  
C38  35844304.451   186649927.764        -427.541          50.000                                                    35844293.837   151668356.530          51.000  
C39  36818002.916   191721055.975         178.397          48.000                                                    36817994.767   155789078.994          49.000  
C41  21997922.914   114549157.174         550.018          51.000                                                    21997923.378    93080588.857          52.000  
> 2022 08 25 07 14 39.0000000  0 41                     
G02  23892457.126   125555541.719       -3274.907          39.000    23892465.346    97835976.657          25.000                                                  
G05  21050672.765   110622761.723       -1708.926          49.000    21050680.681    86199564.568          44.000                                                  
G13  21218985.578   111506918.914       -1920.581          48.000    21218992.815    86888529.775          39.000                                                  
G14  24345042.024   127934149.986         -89.448          38.000    24345050.780    99688948.295          20.000    24345050.565    95535242.581          29.000  
G15  20255960.388   106445611.825          75.063          51.000    20255967.911    82944654.306          56.000                                                  
G18  21600159.856   113509321.912         473.491          47.000    21600167.254    88448544.943          39.000    21600168.058    84764001.879          39.000  
G20  23374973.044   122836149.292       -3180.899          39.000    23374982.461    95716480.379          23.000                                                  
G23  23614227.343   124093029.328        3174.756          40.000    23614235.831    96696012.052          28.000    23614236.510    92666944.778          33.000  
G24  21088174.234   110819489.522        2686.011          48.000    21088184.687    86352863.660          53.000    21088180.524    82754829.907          40.000  
R03  20543122.181   109968205.292        -809.752          52.000    20543127.881    85531515.906          49.000  
R04  20755202.324   111143390.316        1507.997          51.000    20755208.024    86445155.512          48.000  
R13  20622611.833   110123358.429        -754.757          40.000    20622616.943    85651479.617          45.000  
R14  20933149.023   111584953.111        3321.184          51.000    20933155.831    86788739.813          48.000  
R18  22997164.450   122760872.798       -3993.697          43.000    22997173.295    95479873.232          41.000  
R19  21488282.708   114947837.885       -2096.352          38.000    21488288.587    89404249.286          44.000  
R20  23071013.065   123370675.439        1933.092          32.000    23071022.822    95954970.016          41.000  
E03  25173065.727   132285753.773        1226.309          49.000    25173061.671   107374841.521          48.000    25173071.552   100073357.891          51.000  
E05  23854403.487   125355713.232        -547.905          53.000    23854397.662   101749786.503          51.000    23854408.901    94830809.851          54.000  
E09  26909585.402   141411180.339       -1808.423          42.000    26909582.614   114781808.976          43.000    26909592.246   106976648.507          46.000  
E15  25360426.739   133269347.291         699.678          47.000    25360422.540   108174171.315          47.000    25360433.208   100818093.703          49.000  
E24  26090972.902   137108855.953        1483.608          45.000    26090969.079   111289664.745          46.000    26090977.763   103722092.880          47.000  
E25  27287576.225   143397660.418        2837.266          39.000    27287572.150   116394209.679          37.000    27287585.266   108478978.576          42.000  
E31  27447173.814   144236369.661        -684.443          39.000    27447168.632   117074979.038          37.000    27447181.587   109113881.424          43.000  
E36  27467650.750   144344000.928       -3158.711          40.000    27467649.517   117161487.849          37.000    27467660.810   109194504.136          41.000  
J02  37342076.343   196234623.271         427.334          39.000    37342085.813   152910107.381          43.000    37342083.383   146538854.894          32.000  
J03  37219852.940   195591336.423        -406.802          40.000    37219862.625   152408823.209          44.000    37219859.766   146058453.250          31.000  
C06  37469107.584   195112013.622         424.286          41.000    37469103.796   150873001.029          44.000    37469094.772   158544505.955          42.000  
C09  39182881.172   204035128.315         474.662          38.000    39182880.207   157772917.145          41.000    39182869.486   165795266.106          39.000  
C13  36281882.104   188929212.362         270.765          49.000    36281884.445   146092053.673          48.000    36281874.099   153520462.194          47.000  
C14  25559511.278   133095460.194       -2196.760          37.000    25559510.652   102917852.159          40.000    25559503.058   108150963.524          38.000  
C16  37278328.871   194117899.314         280.155          45.000    37278329.943   150104292.111          45.000    37278321.849   157736709.233          43.000  
C23  24368389.922   126893004.542        3078.436          43.000                                                    24368373.697   103110693.396          45.000  
C24  25096812.709   130685811.111       -2175.959          41.000                                                    25096803.113   106192773.596          41.000  
C25  22488834.043   117104648.244         832.620          50.000                                                    22488827.038    95157786.859          50.000  
C27  25135746.594   130888540.689       -2141.222          40.000                                                    25135741.716   106357088.396          40.000  
C30  25789391.309   134291633.999        -282.887          36.000                                                    25789387.860   109122939.712          38.000  
C32  24937848.005   129858207.388        2263.026          40.000                                                    24937840.607   105519572.392          45.000  
C33  23694665.107   123383979.943       -1600.871          46.000                                                    23694672.291   100259302.341          46.000  
C38  35844386.524   186650355.486        -427.712          50.000                                                    35844376.017   151668704.087          51.000  
C39  36817968.661   191720877.694         178.377          48.000                                                    36817960.477   155788934.125          49.000  
C41  21997817.344   114548607.294         549.901          52.000                                                    21997817.808    93080142.032          52.000  
> 2022 08 25 07 14 40.0000000  0 41                     
G02  23893080.254   125558816.821       -3275.251          40.000    23893088.599    97838528.660          25.000                                                  
G05  21050997.731   110624471.025       -1709.636          49.000    21051006.076    86200896.491          44.000                                                  
G13  21219350.999   111508839.678       -1920.955          48.000    21219358.254    86890026.474          39.000                                                  
G14  24345058.732   127934239.880         -90.373          38.000    24345068.006    99689018.354          18.000    24345067.630    95535309.709          30.000  
G15  20255946.039   106445537.087          74.461          51.000    20255953.616    82944596.072          56.000                                                  
G18  21600069.993   113508848.893         472.542          47.000    21600077.212    88448176.360          39.000    21600078.052    84763648.651          39.000  
G20  23375578.697   122839330.395       -3181.330          38.000    23375587.846    95718959.152          24.000                                                  
G23  23613622.602   124089854.736        3174.461          40.000    23613631.751    96693538.341          28.000    23613632.430    92664574.141          33.000  
G24  21087662.983   110816803.930        2685.296          47.000    21087673.669    86350770.998          53.000    21087669.487    82752824.441          40.000  
R03  20543273.531   109969015.263        -810.198          52.000    20543279.106    85532145.883          50.000  
R04  20754920.851   111141882.567        1507.604          50.000    20754926.480    86443982.815          48.000  
R13  20622753.194   110124113.795        -755.803          40.000    20622758.501    85652067.121          45.000  
R14  20932525.948   111581632.360        3320.387          51.000    20932532.864    86786157.007          48.000  
R18  22997912.125   122764866.734       -3994.114          43.000    22997921.632    95482979.629          41.000  
R19  21488675.272   114949934.868       -2097.399          38.000    21488680.490    89405880.271          44.000  
R20  23070652.165   123368742.878        1932.025          32.000    23070661.314    95953466.920          42.000  
E03  25172832.608   132284527.652        1226.003          49.000    25172828.301   107373846.293          48.000    25172838.236   100072430.341          51.000  
E05  23854507.788   125356261.302        -548.239          52.000    23854501.927   101750231.369          52.000    23854513.203    94831224.460          54.000  
E09  26909929.291   141412988.819       -1808.571          42.000    26909926.879   114783276.900          43.000    26909936.421   106978016.604          46.000  
E15  25360293.722   133268647.888         698.997          46.000    25360289.291   108173603.623          46.000    25360300.119   100817564.612          49.000  
E24  26090690.411   137107372.701        1482.972          45.000    26090686.659   111288460.812          45.000    26090695.504   103720970.807          47.000  
E25  27287036.401   143394823.249        2836.897          39.000    27287032.202   116391906.790          37.000    27287045.390   108476832.288          42.000  
E31  27447304.026   144237054.509        -685.178          39.000    27447298.754   117075534.920          37.000    27447311.924   109114399.514          43.000  
E36  27468251.756   144347159.808       -3159.026          39.000    27468250.523   117164051.864          37.000    27468261.942   109196893.798          41.000  
J02  37341994.788   196234196.218         426.956          39.000    37342004.795   152909774.612          43.000    37342002.329   146538535.993          32.000  
J03  37219930.581   195591743.331        -407.038          40.000    37219940.034   152409140.280          44.000    37219937.157   146058757.112          31.000  
C06  37469026.191   195111589.666         423.778          41.000    37469022.438   150872673.202          45.000    37469013.307   158544161.458          42.000  
C09  39182790.005   204034653.798         474.388          37.000    39182789.022   157772550.218          41.000    39182778.354   165794880.528          40.000  
C13  36281830.248   188928941.759         270.375          49.000    36281832.553   146091844.428          47.000    36281822.100   153520242.303          47.000  
C14  25559933.201   133097657.115       -2197.106          37.000    25559932.522   102919550.950          40.000    25559924.892   108152748.702          38.000  
C16  37278274.960   194117619.351         279.837          45.000    37278276.015   150104075.628          45.000    37278268.099   157736481.743          43.000  
C23  24367798.386   126889926.282        3078.109          43.000                                                    24367782.500   103108192.065          45.000  
C24  25097230.487   130687987.497       -2176.701          40.000                                                    25097220.998   106194542.080          42.000  
C25  22488674.133   117103816.042         831.844          50.000                                                    22488667.200    95157110.632          50.000  
C27  25136157.760   130890682.129       -2141.745          40.000                                                    25136152.971   106358828.484          40.000  
C30  25789445.809   134291917.425        -283.795          36.000                                                    25789442.253   109123170.014          39.000  
C32  24937413.233   129855944.356        2262.923          41.000                                                    24937405.996   105517733.499          44.000  
C33  23694972.365   123385581.096       -1601.339          46.000                                                    23694979.781   100260603.411          46.000  
C38  35844468.632   186650783.408        -428.127          50.000                                                    35844458.178   151669051.811          51.000  
C39  36817934.406   191720699.520         178.001          48.000                                                    36817926.240   155788789.345          49.000  
C41  21997712.113   114548057.629         549.437          52.000                                                    21997712.184    93079695.386          52.000  
> 2022 08 25 07 14 41.0000000  0 41                     
G02  23893703.222   125562091.971       -3275.142          39.000    23893711.621    97841080.731          25.000                                                  
G05  21051323.323   110626180.734       -1710.030          49.000    21051331.435    86202228.732          44.000                                                  
G13  21219716.117   111510760.603       -1921.031          48.000    21219723.908    86891523.299          39.000                                                  
G14  24345075.689   127934330.270         -90.640          38.000    24345085.231    99689088.787          20.000    24345084.820    95535377.212          29.000  
G15  20255931.833   106445462.611          74.277          51.000    20255939.392    82944538.043          56.000                                                  
G18  21599979.790   113508376.509         471.992          47.000    21599987.367    88447808.265          40.000    21599988.153    84763295.894          39.000  
G20  23376183.653   122842511.733       -3181.573          39.000    23376193.320    95721438.112          25.000                                                  
G23  23613018.164   124086680.133        3174.590          40.000    23613027.563    96691064.617          29.000    23613028.278    92662203.500          33.000  
G24  21087151.733   110814118.786        2684.824          47.000    21087162.811    86348678.671          53.000    21087158.576    82750819.297          39.000  
R03  20543425.186   109969825.410        -810.287          52.000    20543430.439    85532775.999          50.000  
R04  20754639.807   111140374.924        1507.544          50.000    20754644.971    86442810.205          48.000  
R13  20622894.806   110124870.019        -756.728          40.000    20622900.060    85652655.303          45.000  
R14  20931902.713   111578312.083        3319.960          52.000    20931909.985    86783574.571          48.000  
R18  22998661.320   122768860.706       -3994.100          43.000    22998670.040    95486086.041          41.000  
R19  21489066.961   114952032.473       -2098.011          38.000    21489072.644    89407511.732          44.000  
R20  23070290.656   123366811.045        1931.380          32.000    23070300.091    95951964.385          42.000  
E03  25172599.202   132283301.572        1226.000          49.000    25172595.075   107372851.098          48.000    25172604.903   100071502.817          50.000  
E05  23854612.126   125356809.430        -548.267          52.000    23854606.247   101750676.274          52.000    23854617.486    94831639.118          55.000  
E09  26910273.681   141414797.311       -1808.614          42.000    26910270.947   114784744.830          43.000    26910280.596   106979384.716          46.000  
E15  25360160.723   133267948.938         698.701          46.000    25360156.291   108173036.289          47.000    25360167.102   100817035.858          49.000  
E24  26090408.170   137105889.763        1482.685          45.000    26090404.542   111287257.133          46.000    26090413.316   103719848.980          47.000  
E25  27286496.292   143391986.016        2837.143          39.000    27286492.325   116389603.839          37.000    27286505.459   108474685.939          42.000  
E31  27447434.487   144237739.761        -685.479          38.000    27447429.270   117076091.129          37.000    27447442.296   109114917.896          42.000  
E36  27468852.781   144350318.616       -3158.741          39.000    27468851.673   117166615.841          37.000    27468863.038   109199283.413          40.000  
J02  37341913.895   196233769.109         426.855          39.000    37341923.312   152909441.798          43.000    37341921.043   146538217.050          32.000  
J03  37220008.347   195592150.251        -407.027          40.000    37220017.407   152409457.354          44.000    37220014.566   146059060.972          31.000  
C06  37468944.619   195111165.736         423.827          41.000    37468941.063   150872345.390          44.000    37468931.950   158543816.985          42.000  
C09  39182699.087   204034179.328         474.208          38.000    39182697.747   157772183.333          41.000    39182687.222   165794494.982          40.000  
C13  36281778.357   188928671.296         270.380          49.000    36281780.590   146091635.284          47.000    36281770.190   153520022.527          47.000  
C14  25560354.696   133099854.128       -2197.291          36.000    25560354.195   102921249.809          40.000    25560346.744   108154533.946          38.000  
C16  37278221.067   194117339.431         279.834          45.000    37278222.372   150103859.172          46.000    37278214.402   157736254.280          42.000  
C23  24367207.386   126886848.173        3078.002          42.000                                                    24367191.464   103105690.847          45.000  
C24  25097648.479   130690164.196       -2176.915          41.000                                                    25097639.009   106196310.827          42.000  
C25  22488514.313   117102984.344         831.401          50.000                                                    22488507.522    95156434.811          50.000  
C27  25136569.195   130892823.770       -2141.744          40.000                                                    25136564.173   106360568.743          40.000  
C30  25789500.256   134292201.276        -284.117          37.000                                                    25789496.682   109123400.671          39.000  
C32  24936979.445   129853681.287        2263.008          40.000                                                    24936971.350   105515894.570          45.000  
C33  23695279.980   123387182.391       -1601.446          46.000                                                    23695287.450   100261904.597          46.000  
C38  35844550.954   186651211.453        -428.169          50.000                                                    35844540.429   151669399.632          51.000  
C39  36817900.151   191720521.370         178.066          47.000                                                    36817892.074   155788644.583          49.000  
C41  21997606.310   114547508.109         549.370          51.000                                                    21997606.686    93079248.857          52.000  
> 2022 08 25 07 14 42.0000000  0 41                     
G02  23894326.315   125565367.279       -3275.346          39.000    23894334.892    97843632.915          26.000                                                  
G05  21051648.754   110627890.913       -1710.419          48.000    21051656.866    86203561.342          44.000                                                  
G13  21220081.932   111512681.754       -1921.259          48.000    21220089.437    86893020.298          40.000                                                  
G14  24345093.201   127934421.308         -91.337          38.000    24345102.475    99689159.719          19.000    24345102.118    95535445.187          28.000  
G15  20255917.717   106445388.528          73.863          51.000    20255925.418    82944480.316          56.000                                                  
G18  21599889.963   113507904.867         471.295          47.000    21599897.736    88447440.757          40.000    21599898.433    84762943.703          39.000  
G20  23376788.698   122845693.365       -3181.723          39.000    23376798.651    95723917.297          23.000                                                  
G23  23612414.602   124083505.670        3174.385          40.000    23612423.394    96688591.015          28.000    23612424.198    92659832.955          33.000  
G24  21086641.304   110811434.182        2684.351          48.000    21086651.882    86346586.770          53.000    21086647.719    82748814.559          40.000  
R03  20543576.644   109970635.831        -810.568          52.000    20543581.969    85533406.318          50.000  
R04  20754357.923   111138867.516        1507.317          50.000    20754363.409    86441637.775          49.000  
R13  20623036.079   110125627.161        -757.653          39.000    20623041.976    85653244.196          45.000  
R14  20931280.728   111574992.400        3319.386          52.000    20931287.268    86780992.598          48.000  
R18  22999407.959   122772854.840       -3994.264          43.000    22999418.180    95489192.579          41.000  
R19  21489459.204   114954130.849       -2098.696          38.000    21489464.869    89409143.804          44.000  
R20  23069929.631   123364880.042        1930.376          33.000    23069939.012    95950462.496          42.000  
E03  25172366.047   132282075.648        1225.865          49.000    25172361.777   107371856.029          48.000    25172371.640   100070575.418          50.000  
E05  23854716.481   125357357.694        -548.339          52.000    23854710.637   101751121.291          52.000    23854721.823    94832053.872          55.000  
E09  26910617.677   141416605.841       -1808.535          42.000    26910615.229   114786212.790          43.000    26910624.736   106980752.855          46.000  
E15  25360027.777   133267250.530         698.140          46.000    25360023.417   108172469.395          46.000    25360034.210   100816507.515          48.000  
E24  26090126.000   137104407.244        1482.310          45.000    26090122.498   111286053.787          46.000    26090131.218   103718727.465          47.000  
E25  27285956.576   143389148.851        2837.090          39.000    27285952.216   116387300.949          37.000    27285965.582   108472539.653          42.000  
E31  27447565.003   144238425.533        -685.971          38.000    27447559.678   117076647.762          37.000    27447572.794   109115436.676          42.000  
E36  27469454.091   144353477.488       -3158.745          40.000    27469452.751   117169179.848          37.000    27469464.170   109201673.070          40.000  
J02  37341832.502   196233342.097         426.963          39.000    37341842.151   152909109.059          43.000    37341839.739   146537898.182          32.000  
J03  37220085.398   195592557.250        -407.055          40.000    37220094.869   152409774.494          44.000    37220092.028   146059364.900          31.000  
C06  37468863.869   195110741.951         423.710          42.000    37468859.687   150872017.700          45.000    37468850.556   158543472.631          42.000  
C09  39182607.687   204033705.013         474.228          37.000    39182606.954   157771816.557          41.000    39182596.161   165794109.566          39.000  
C13  36281726.411   188928401.013         270.200          49.000    36281728.645   146091426.282          48.000    36281718.334   153519802.899          48.000  
C14  25560777.066   133102051.301       -2197.286          36.000    25560776.333   102922948.799          40.000    25560768.614   108156319.332          38.000  
C16  37278167.460   194117059.642         279.707          45.000    37278168.568   150103642.824          46.000    37278160.616   157736026.929          43.000  
C23  24366616.082   126883770.323        3077.763          43.000                                                    24366600.321   103103189.846          45.000  
C24  25098066.882   130692341.367       -2177.427          41.000                                                    25098057.233   106198079.959          42.000  
C25  22488354.760   117102153.242         830.815          50.000                                                    22488347.916    95155759.468          50.000  
C27  25136980.700   130894965.716       -2142.125          40.000                                                    25136975.500   106362309.252          40.000  
C30  25789555.453   134292485.685        -284.663          36.000                                                    25789551.361   109123631.769          38.000  
C32  24936544.388   129851418.285        2262.973          41.000                                                    24936536.686   105514055.697          44.000  
C33  23695587.881   123388783.940       -1601.739          46.000                                                    23695594.922   100263205.981          46.000  
C38  35844633.205   186651639.732        -428.413          50.000                                                    35844622.591   151669747.644          51.000  
C39  36817866.110   191720343.353         177.963          47.000                                                    36817857.801   155788499.930          49.000  
C41  21997500.883   114546958.840         549.140          52.000                                                    21997501.276    93078802.526          52.000  
> 2022 08 25 07 14 43.0000000  0 41                     
G02  23894949.622   125568642.652       -3275.497          39.000    23894958.182    97846185.135          26.000                                                  
G05  21051974.417   110629601.494       -1710.809          48.000    21051982.475    86204894.260          44.000                                                  
G13  21220447.675   111514603.037       -1921.351          48.000    21220455.108    86894517.401          39.000                                                  
G14  24345110.659   127934512.840         -91.825          38.000    24345119.915    99689231.042          20.000    24345119.486    95535513.542          29.000  
G15  20255903.350   106445314.709          73.629          51.000    20255911.409    82944422.790          56.000                                                  
G18  21599800.528   113507433.855         470.612          47.000    21599808.158    88447073.739          40.000    21599808.766    84762591.978          39.000  
G20  23377393.886   122848875.199       -3181.923          39.000    23377404.196    95726396.657          23.000                                                  
G23  23611810.075   124080331.192        3174.420          40.000    23611819.349    96686117.398          30.000    23611820.296    92657462.404          34.000  
G24  21086130.107   110808750.001        2683.961          48.000    21086140.971    86344495.200          53.000    21086136.915    82746810.133          40.000  
R03  20543727.798   109971446.412        -810.732          52.000    20543733.301    85534036.772          49.000  
R04  20754076.593   111137360.187        1507.251          51.000    20754081.936    86440465.402          49.000  
R13  20623177.762   110126385.157        -758.505          40.000    20623183.891    85653833.736          45.000  
R14  20930656.938   111571673.221        3318.920          52.000    20930664.604    86778411.017          49.000  
R18  23000157.029   122776849.062       -3994.427          43.000    23000166.356    95492299.190          41.000  
R19  21489850.143   114956229.932       -2099.470          38.000    21489857.326    89410776.422          43.000  
R20  23069568.462   123362949.747        1929.837          32.000    23069577.933    95948961.158          42.000  
E03  25172132.732   132280849.767        1225.787          49.000    25172128.586   107370860.999          48.000    25172138.342   100069648.047          51.000  
E05  23854820.729   125357906.010        -548.373          52.000    23854814.957   101751566.355          52.000    23854826.161    94832468.672          55.000  
E09  26910961.817   141418414.321       -1808.509          42.000    26910959.315   114787680.712          44.000    26910968.875   106982120.963          45.000  
E15  25359895.028   133266552.578         697.657          46.000    25359890.436   108171902.877          46.000    25359901.372   100815979.518          49.000  
E24  26089844.116   137102925.075        1481.935          45.000    26089840.435   111284850.733          45.000    26089849.155   103717606.218          47.000  
E25  27285416.610   143386311.612        2837.120          39.000    27285412.286   116384997.998          37.000    27285425.652   108470393.300          42.000  
E31  27447695.911   144239111.710        -686.405          38.000    27447690.157   117077204.726          37.000    27447703.381   109115955.775          42.000  
E36  27470054.991   144356636.357       -3159.008          40.000    27470053.865   117171743.863          37.000    27470065.283   109204062.730          41.000  
J02  37341750.805   196232915.093         426.910          39.000    37341761.044   152908776.336          42.000    37341758.471   146537579.320          31.000  
J03  37220163.343   195592964.264        -407.035          40.000    37220172.242   152410091.647          44.000    37220169.454   146059668.844          31.000  
C06  37468782.189   195110318.228         423.654          42.000    37468778.347   150871690.043          45.000    37468769.181   158543128.313          42.000  
C09  39182516.376   204033230.732         474.211          37.000    39182515.947   157771449.813          41.000    39182505.065   165793724.174          40.000  
C13  36281674.573   188928130.837         269.967          50.000    36281676.825   146091217.367          48.000    36281666.496   153519583.350          47.000  
C14  25561198.632   133104248.536       -2197.327          36.000    25561198.417   102924647.837          41.000    25561190.537   108158104.769          38.000  
C16  37278113.835   194116779.926         279.645          45.000    37278114.854   150103426.530          45.000    37278106.902   157735799.637          42.000  
C23  24366025.028   126880692.630        3077.536          43.000                                                    24366009.214   103100688.978          45.000  
C24  25098485.160   130694518.875       -2177.777          41.000                                                    25098475.440   106199849.365          42.000  
C25  22488195.154   117101322.649         830.300          50.000                                                    22488188.417    95155084.545          50.000  
C27  25137391.706   130897107.863       -2142.313          40.000                                                    25137386.827   106364049.914          40.000  
C30  25789609.418   134292770.531        -285.145          36.000                                                    25789606.148   109123863.227          39.000  
C32  24936109.903   129849155.230        2263.004          41.000                                                    24936102.040   105512216.775          44.000  
C33  23695895.121   123390385.627       -1601.805          46.000                                                    23695902.537   100264507.481          46.000  
C38  35844715.367   186652068.134        -428.509          50.000                                                    35844704.932   151670095.749          51.000  
C39  36817831.927   191720165.368         177.887          48.000                                                    36817823.689   155788355.303          49.000  
C41  21997395.420   114546409.716         548.996          51.000                                                    21997395.778    93078356.315          52.000  
> 2022 08 25 07 14 44.0000000  0 41                     
G02  23895573.126   125571918.065       -3275.306          39.000    23895581.542    97848737.398          25.000                                                  
G05  21052299.615   110631312.483       -1711.053          49.000    21052307.906    86206227.491          45.000                                                  
G13  21220813.633   111516524.470       -1921.375          48.000    21220820.691    86896014.629          39.000                                                  
G14  24345127.831   127934604.914         -92.240          38.000    24345137.373    99689302.789          20.000    24345136.980    95535582.301          30.000  
G15  20255889.377   106445241.174          73.536          51.000    20255897.239    82944365.490          56.000                                                  
G18  21599710.879   113506963.502         470.143          47.000    21599718.581    88446707.230          40.000    21599719.224    84762240.733          39.000  
G20  23377999.860   122852057.298       -3182.196          38.000    23378009.759    95728876.226          23.000                                                  
G23  23611205.834   124077156.771        3174.469          39.000    23611215.233    96683643.830          29.000    23611216.288    92655091.899          33.000  
G24  21085619.928   110806066.287        2683.629          47.000    21085630.310    86342403.997          53.000    21085626.236    82744806.061          40.000  
R03  20543879.184   109972257.180        -810.719          52.000    20543884.723    85534667.379          49.000  
R04  20753795.263   111135852.919        1507.400          51.000    20753800.410    86439293.087          49.000  
R13  20623319.625   110127144.029        -759.191          40.000    20623326.165    85654423.972          45.000  
R14  20930035.024   111568354.527        3318.561          51.000    20930041.958    86775829.824          49.000  
R18  23000905.062   122780843.377       -3994.180          43.000    23000914.711    95495405.865          42.000  
R19  21490243.958   114958329.715       -2100.107          37.000    21490249.837    89412409.589          44.000  
R20  23069208.062   123361020.192        1929.420          33.000    23069217.139    95947460.393          42.000  
E03  25171899.434   132279623.969        1225.909          49.000    25171895.181   107369866.025          48.000    25171905.080   100068720.736          50.000  
E05  23854925.030   125358454.406        -548.290          52.000    23854919.258   101752011.482          52.000    23854930.516    94832883.525          54.000  
E09  26911305.939   141420222.774       -1808.348          42.000    26911303.455   114789148.610          44.000    26911313.033   106983489.037          45.000  
E15  25359762.208   133265855.048         697.423          47.000    25359757.616   108171336.705          46.000    25359768.641   100815451.846          49.000  
E24  26089561.964   137101443.246        1481.749          45.000    26089558.551   111283647.952          46.000    26089567.182   103716485.228          47.000  
E25  27284876.805   143383474.349        2837.399          39.000    27284872.356   116382695.032          37.000    27284885.757   108468246.936          43.000  
E31  27447826.427   144239798.330        -686.786          39.000    27447821.102   117077762.050          37.000    27447834.039   109116475.196          42.000  
E36  27470655.855   144359795.115       -3158.719          40.000    27470654.908   117174307.778          37.000    27470666.397   109206452.298          41.000  
J02  37341669.662   196232488.055         427.184          39.000    37341679.615   152908443.585          42.000    37341677.059   146537260.432          32.000  
J03  37220240.144   195593371.269        -406.952          40.000    37220250.061   152410408.792          44.000    37220247.238   146059972.774          32.000  
C06  37468701.100   195109894.551         423.746          42.000    37468696.954   150871362.436          45.000    37468687.859   158542784.044          43.000  
C09  39182425.566   204032756.524         474.297          37.000    39182424.958   157771083.121          41.000    39182413.951   165793338.837          40.000  
C13  36281622.717   188927860.813         270.074          49.000    36281624.826   146091008.572          48.000    36281614.551   153519363.938          47.000  
C14  25561620.805   133106445.883       -2197.309          36.000    25561620.448   102926346.961          41.000    25561612.532   108159890.287          38.000  
C16  37278059.996   194116500.245         279.781          45.000    37278061.193   150103210.258          46.000    37278053.134   157735572.373          43.000  
C23  24365434.117   126877615.091        3077.594          43.000                                                    24365418.196   103098188.228          46.000  
C24  25098903.438   130696696.752       -2177.890          41.000                                                    25098893.646   106201619.071          42.000  
C25  22488035.566   117100492.544         829.962          50.000                                                    22488028.918    95154410.019          50.000  
C27  25137803.068   130899250.193       -2142.353          39.000                                                    25137798.297   106365790.730          40.000  
C30  25789664.740   134293055.844        -285.390          36.000                                                    25789660.934   109124095.075          38.000  
C32  24935675.489   129846892.152        2263.228          40.000                                                    24935667.519   105510377.846          44.000  
C33  23696202.933   123391987.484       -1601.777          46.000                                                    23696210.170   100265809.126          46.000  
C38  35844797.511   186652496.673        -428.510          50.000                                                    35844787.236   151670443.974          51.000  
C39  36817797.833   191719987.422         178.091          47.000                                                    36817789.488   155788210.709          49.000  
C41  21997289.993   114545860.749         548.995          51.000                                                    21997290.350    93077910.239          52.000  
> 2022 08 25 07 14 45.0000000  0 41                     
G02  23896196.415   125575193.635       -3275.553          39.000    23896204.850    97851289.794          26.000                                                  
G05  21052625.296   110633023.932       -1711.520          49.000    21052633.694    86207561.090          44.000                                                  
G13  21221178.965   111518446.152       -1921.662          48.000    21221186.452    86897512.039          40.000                                                  
G14  24345146.415   127934697.616         -92.765          38.000    24345154.938    99689375.045          20.000    24345154.599    95535651.520          30.000  
G15  20255875.707   106445168.010          73.143          51.000    20255883.283    82944308.479          56.000                                                  
G18  21599621.892   113506493.872         469.427          47.000    21599629.164    88446341.278          39.000    21599629.843    84761890.036          39.000  
G20  23378605.709   122855239.666       -3182.370          39.000    23378615.430    95731355.977          23.000                                                  
G23  23610601.825   124073982.408        3174.476          39.000    23610611.207    96681170.300          29.000    23610612.172    92652721.441          33.000  
G24  21085109.410   110803383.095        2683.055          47.000    21085119.667    86340313.197          53.000    21085115.629    82742802.378          40.000  
R03  20544030.981   109973068.236        -811.035          52.000    20544036.288    85535298.191          49.000  
R04  20753513.129   111134345.782        1507.260          51.000    20753519.008    86438120.869          49.000  
R13  20623463.006   110127903.831        -760.132          39.000    20623468.402    85655014.927          45.000  
R14  20929412.486   111565036.462        3317.894          51.000    20929419.544    86773249.111          49.000  
R18  23001653.363   122784837.832       -3994.301          43.000    23001663.173    95498512.648          41.000  
R19  21490636.862   114960430.226       -2100.765          38.000    21490642.437    89414043.311          44.000  
R20  23068847.965   123359091.480        1928.440          33.000    23068856.489    95945960.284          42.000  
E03  25171666.261   132278398.297        1225.736          48.000    25171661.901   107368871.164          48.000    25171671.818   100067793.523          51.000  
E05  23855029.528   125359002.919        -548.434          52.000    23855023.649   101752456.703          51.000    23855034.889    94833298.474          54.000  
E09  26911650.221   141422031.275       -1808.347          42.000    26911647.559   114790616.549          44.000    26911657.172   106984857.152          46.000  
E15  25359629.495   133265158.084         696.854          46.000    25359625.045   108170770.983          46.000    25359636.017   100814924.590          49.000  
E24  26089280.224   137099961.795        1481.395          45.000    26089276.721   111282445.480          46.000    26089285.263   103715364.527          47.000  
E25  27284336.821   143380637.116        2837.332          40.000    27284332.300   116380392.084          37.000    27284345.845   108466100.590          43.000  
E31  27447956.924   144240485.428        -687.111          39.000    27447951.921   117078319.745          37.000    27447964.751   109116994.973          42.000  
E36  27471257.129   144362953.934       -3158.693          40.000    27471255.986   117176871.750          37.000    27471267.511   109208841.918          40.000  
J02  37341588.518   196232061.107         426.942          39.000    37341598.096   152908110.899          42.000    37341596.095   146536941.612          32.000  
J03  37220317.874   195593778.374        -406.974          40.000    37220327.577   152410726.016          43.000    37220324.611   146060276.776          32.000  
C06  37468619.617   195109470.999         423.626          42.000    37468615.632   150871034.917          45.000    37468606.519   158542439.875          43.000  
C09  39182334.863   204032282.441         474.236          37.000    39182333.791   157770716.539          41.000    39182322.944   165792953.608          40.000  
C13  36281570.879   188927590.957         269.939          50.000    36281572.899   146090799.891          48.000    36281562.803   153519144.658          47.000  
C14  25562042.639   133108643.400       -2197.497          36.000    25562042.228   102928046.223          40.000    25562034.402   108161675.949          38.000  
C16  37278006.478   194116220.730         279.549          45.000    37278007.586   150102994.126          45.000    37277999.509   157735345.249          43.000  
C23  24364842.831   126874537.811        3077.371          43.000                                                    24364827.178   103095687.681          45.000  
C24  25099321.127   130698875.083       -2178.400          41.000                                                    25099311.960   106203389.141          42.000  
C25  22487876.245   117099663.041         829.344          50.000                                                    22487869.723    95153735.980          50.000  
C27  25138214.646   130901392.848       -2142.702          40.000                                                    25138209.732   106367531.809          40.000  
C30  25789718.973   134293341.664        -285.969          37.000                                                    25789715.721   109124327.324          38.000  
C32  24935240.700   129844629.164        2263.118          40.000                                                    24935232.873   105508538.983          44.000  
C33  23696510.602   123393589.579       -1602.111          45.000                                                    23696517.875   100267110.961          46.000  
C38  35844880.084   186652925.433        -428.718          50.000                                                    35844869.595   151670792.372          51.000  
C39  36817763.649   191719809.608         177.864          47.000                                                    36817755.412   155788066.218          49.000  
C41  21997184.655   114545312.012         548.719          51.000                                                    21997184.941    93077464.348          52.000  
> 2022 08 25 07 14 46.0000000  0 41                     
G02  23896820.134   125578469.301       -3275.800          39.000    23896828.264    97853842.250          26.000                                                  
G05  21052951.548   110634735.842       -1712.162          48.000    21052959.196    86208895.048          44.000                                                  
G13  21221544.833   111520368.011       -1921.952          48.000    21221551.998    86899009.595          40.000                                                  
G14  24345164.070   127934790.858         -93.480          38.000    24345172.539    99689447.676          20.000    24345172.343    95535721.149          30.000  
G15  20255861.948   106445095.165          72.667          51.000    20255869.470    82944251.712          56.000                                                  
G18  21599532.332   113506024.921         468.634          47.000    21599539.908    88445975.862          39.000    21599540.641    84761539.845          39.000  
G20  23379211.576   122858422.298       -3182.802          39.000    23379221.243    95733835.932          23.000                                                  
G23  23609997.978   124070808.121        3174.273          39.000    23610007.091    96678696.843          29.000    23610008.109    92650351.030          33.000  
G24  21084598.303   110800700.384        2682.403          48.000    21084609.221    86338222.771          53.000    21084605.147    82740799.053          40.000  
R03  20544182.439   109973879.501        -811.413          52.000    20544187.854    85535929.172          49.000  
R04  20753232.264   111132838.753        1506.956          50.000    20753237.517    86436948.738          49.000  
R13  20623605.029   110128664.528        -761.105          40.000    20623610.729    85655606.583          45.000  
R14  20928789.607   111561718.917        3317.248          51.000    20928797.076    86770668.798          49.000  
R18  23002402.128   122788832.371       -3994.547          43.000    23002411.510    95501619.502          41.000  
R19  21491029.498   114962531.496       -2101.680          37.000    21491035.288    89415677.632          44.000  
R20  23068486.939   123357163.564        1927.544          33.000    23068495.856    95944460.787          42.000  
E03  25171433.124   132277172.733        1225.411          48.000    25171428.674   107367876.393          48.000    25171438.627   100066866.401          50.000  
E05  23855133.901   125359551.528        -548.690          52.000    23855128.040   101752902.006          51.000    23855139.297    94833713.498          54.000  
E09  26911994.075   141423839.773       -1808.373          43.000    26911991.895   114792084.478          43.000    26912001.312   106986225.266          45.000  
E15  25359497.050   133264461.592         696.231          46.000    25359492.529   108170205.649          46.000    25359503.482   100814397.704          49.000  
E24  26088998.072   137098480.732        1480.826          44.000    26088994.909   111281243.319          46.000    26089003.415   103714244.113          47.000  
E25  27283796.569   143377799.866        2837.188          40.000    27283792.477   116378089.118          38.000    27283805.932   108463954.237          43.000  
E31  27448087.779   144241172.987        -687.899          39.000    27448082.794   117078877.838          37.000    27448095.606   109117515.109          42.000  
E36  27471858.208   144366112.754       -3158.891          40.000    27471857.135   117179435.724          37.000    27471868.643   109211231.538          40.000  
J02  37341508.268   196231634.204         426.847          39.000    37341517.239   152907778.244          42.000    37341514.701   146536622.807          32.000  
J03  37220395.319   195594185.487        -407.133          40.000    37220405.111   152411043.248          43.000    37220401.984   146060580.781          32.000  
C06  37468538.116   195109047.549         423.374          42.000    37468534.221   150870707.480          45.000    37468525.233   158542095.790          43.000  
C09  39182243.695   204031808.459         473.931          37.000    39182242.676   157770350.038          41.000    39182231.937   165792568.466          40.000  
C13  36281519.006   188927321.244         269.610          50.000    36281521.329   146090591.336          48.000    36281511.000   153518925.496          47.000  
C14  25562464.831   133110841.012       -2197.710          36.000    25562464.205   102929745.552          40.000    25562456.468   108163461.692          38.000  
C16  37277952.585   194115941.270         279.365          45.000    37277953.908   150102778.025          45.000    37277945.902   157735118.162          43.000  
C23  24364251.903   126871460.734        3076.895          44.000                                                    24364236.250   103093187.309          45.000  
C24  25099739.852   130701053.792       -2179.038          41.000                                                    25099730.310   106205159.516          42.000  
C25  22487716.961   117098834.073         828.716          50.000                                                    22487710.492    95153062.376          51.000  
C27  25138626.580   130903535.681       -2143.052          39.000                                                    25138621.220   106369273.036          40.000  
C30  25789773.831   134293627.986        -286.631          36.000                                                    25789770.739   109124559.985          38.000  
C32  24934806.286   129842366.150        2263.013          40.000                                                    24934798.281   105506700.106          44.000  
C33  23696818.682   123395191.863       -1602.422          45.000                                                    23696825.651   100268412.939          46.000  
C38  35844962.442   186653354.361        -429.028          50.000                                                    35844951.882   151671140.911          51.000  
C39  36817729.287   191719631.853         177.651          48.000                                                    36817721.228   155787921.778          49.000  
C41  21997079.246   114544763.478         548.418          51.000                                                    21997079.639    93077018.617          52.000  
> 2022 08 25 07 14 47.0000000  0 41                     
G02  23897443.352   125581744.993       -3275.567          39.000    23897451.536    97856394.738          26.000                                                  
G05  21053276.997   110636448.161       -1712.373          49.000    21053285.234    86210229.325          44.000                                                  
G13  21221910.558   111522290.004       -1921.939          48.000    21221917.777    86900507.250          39.000                                                  
G14  24345181.760   127934884.617         -93.872          38.000    24345190.248    99689520.748          20.000    24345190.230    95535791.162          30.000  
G15  20255848.224   106445022.587          72.573          50.000    20255855.658    82944195.160          56.000                                                  
G18  21599443.344   113505556.621         468.066          47.000    21599450.724    88445610.953          39.000    21599451.546    84761190.139          39.000  
G20  23379816.639   122861605.109       -3182.886          39.000    23379827.039    95736316.052          25.000                                                  
G23  23609393.969   124067633.849        3174.424          39.000    23609403.118    96676223.385          29.000    23609404.083    92647980.637          33.000  
G24  21084088.285   110798018.113        2682.163          48.000    21084098.721    86336132.697          53.000    21084094.718    82738796.070          40.000  
R03  20544333.843   109974690.912        -811.364          52.000    20544339.472    85536560.272          50.000  
R04  20752950.416   111131331.835        1507.009          51.000    20752956.188    86435776.686          49.000  
R13  20623747.909   110129426.125        -761.951          40.000    20623753.395    85656198.927          45.000  
R14  20928168.051   111558401.866        3316.943          51.000    20928174.841    86768088.874          49.000  
R18  23003149.858   122792826.996       -3994.568          43.000    23003159.811    95504726.428          41.000  
R19  21491422.134   114964633.420       -2102.052          38.000    21491428.228    89417312.466          44.000  
R20  23068127.147   123355236.279        1926.967          33.000    23068135.402    95942961.790          42.000  
E03  25171199.915   132275947.193        1225.600          48.000    25171195.716   107366881.634          48.000    25171205.401   100065939.282          50.000  
E05  23855238.292   125360100.194        -548.545          52.000    23855232.395   101753347.346          51.000    23855243.706    94834128.557          54.000  
E09  26912338.393   141425648.244       -1808.297          42.000    26912335.927   114793552.395          43.000    26912345.487   106987593.361          45.000  
E15  25359364.479   133263765.550         696.005          47.000    25359360.012   108169640.677          46.000    25359371.037   100813871.148          49.000  
E24  26088716.331   137096999.995        1480.751          45.000    26088713.222   111280041.424          46.000    26088721.638   103713123.951          47.000  
E25  27283256.692   143374962.565        2837.392          40.000    27283252.529   116375786.109          38.000    27283266.020   108461807.842          42.000  
E31  27448218.955   144241860.962        -688.140          39.000    27448213.738   117079436.255          37.000    27448226.532   109118035.558          42.000  
E36  27472459.411   144369271.494       -3158.560          40.000    27472458.071   117181999.632          36.000    27472469.757   109213621.099          40.000  
J02  37341426.375   196231207.268         427.143          39.000    37341436.131   152907445.572          43.000    37341433.344   146536304.002          32.000  
J03  37220472.513   195594592.622        -406.944          40.000    37220482.269   152411360.491          43.000    37220479.392   146060884.807          32.000  
C06  37468456.812   195108624.140         423.531          41.000    37468452.917   150870380.076          45.000    37468443.893   158541751.728          43.000  
C09  39182152.599   204031334.560         473.917          36.000    39182151.795   157769983.577          41.000    39182140.966   165792183.377          40.000  
C13  36281467.328   188927051.655         269.674          50.000    36281469.616   146090382.871          48.000    36281459.216   153518706.434          47.000  
C14  25562886.468   133113038.750       -2197.772          36.000    25562886.343   102931444.979          40.000    25562878.517   108165247.529          38.000  
C16  37277898.817   194115661.862         279.483          45.000    37277900.229   150102561.972          46.000    37277892.242   157734891.118          43.000  
C23  24363660.992   126868383.785        3077.032          44.000                                                    24363645.321   103090687.039          45.000  
C24  25100158.576   130703232.824       -2179.076          41.000                                                    25100148.820   106206930.160          42.000  
C25  22487557.873   117098005.611         828.307          50.000                                                    22487551.422    95152389.185          50.000  
C27  25139037.979   130905678.755       -2143.115          40.000                                                    25139032.779   106371014.457          40.000  
C30  25789828.760   134293914.751        -286.840          36.000                                                    25789825.937   109124792.992          38.000  
C32  24934371.372   129840103.116        2263.170          40.000                                                    24934363.706   105504861.203          44.000  
C33  23697126.351   123396794.275       -1602.406          46.000                                                    23697133.355   100269715.032          46.000  
C38  35845044.890   186653783.411        -428.964          51.000                                                    35845034.311   151671489.557          51.000  
C39  36817695.426   191719454.139         177.848          48.000                                                    36817687.099   155787777.368          49.000  
C41  21996973.836   114544215.084         548.443          51.000                                                    21996974.283    93076573.004          52.000  
> 2022 08 25 07 14 48.0000000  0 41                     
G02  23898066.891   125585020.800       -3275.804          39.000    23898074.718    97858947.301          26.000                                                  
G05  21053602.999   110638160.893       -1712.958          49.000    21053611.130    86211563.916          44.000                                                  
G13  21222275.962   111524212.200       -1922.279          48.000    21222283.574    86902005.060          39.000                                                  
G14  24345199.057   127934978.950         -94.618          38.000    24345208.170    99689594.255          19.000    24345208.170    95535861.610          29.000  
G15  20255834.376   106444950.332          72.130          51.000    20255841.988    82944138.865          56.000                                                  
G18  21599354.625   113505088.979         467.272          47.000    21599361.844    88445246.556          39.000    21599362.523    84760840.927          39.000  
G20  23380423.150   122864788.223       -3183.285          38.000    23380432.763    95738796.398          22.000                                                  
G23  23608790.121   124064459.630        3174.167          39.000    23608799.109    96673749.974          29.000    23608800.056    92645610.285          33.000  
G24  21083577.696   110795336.321        2681.550          48.000    21083588.381    86334042.986          53.000    21083584.468    82736793.430          40.000  
R03  20544485.641   109975502.533        -811.702          52.000    20544491.055    85537191.530          50.000  
R04  20752669.157   111129825.078        1506.666          51.000    20752674.679    86434604.763          49.000  
R13  20623889.914   110130188.590        -762.981          40.000    20623896.329    85656791.962          45.000  
R14  20927545.441   111555085.327        3316.255          51.000    20927552.624    86765509.346          48.000  
R18  23003898.784   122796821.764       -3994.890          43.000    23003908.183    95507833.456          41.000  
R19  21491814.734   114966736.127       -2103.058          38.000    21491821.346    89418947.903          44.000  
R20  23067766.514   123353309.833        1926.039          32.000    23067775.073    95941463.443          41.000  
E03  25170966.617   132274721.767        1225.402          48.000    25170962.364   107365886.978          48.000    25170972.210   100065012.262          50.000  
E05  23855342.790   125360648.945        -548.798          52.000    23855336.840   101753792.761          52.000    23855348.115    94834543.682          54.000  
E09  26912682.139   141427456.715       -1808.519          42.000    26912680.192   114795020.306          44.000    26912689.626   106988961.460          45.000  
E15  25359232.266   133263070.004         695.290          47.000    25359227.603   108169076.108          46.000    25359238.664   100813344.976          48.000  
E24  26088434.358   137095519.627        1480.255          44.000    26088431.624   111278839.825          45.000    26088439.915   103712004.058          47.000  
E25  27282716.869   143372125.250        2837.418          41.000    27282712.759   116373483.096          37.000    27282726.071   108459661.434          43.000  
E31  27448349.882   144242549.381        -688.656          39.000    27448344.700   117079995.032          37.000    27448357.530   109118556.347          42.000  
E36  27473060.525   144372430.225       -3158.636          40.000    27473059.202   117184563.537          37.000    27473070.835   109216010.650          40.000  
J02  37341345.321   196230780.361         427.037          39.000    37341354.917   152907112.924          43.000    37341352.075   146535985.206          31.000  
J03  37220549.904   195594999.803        -407.230          39.000    37220559.624   152411677.772          43.000    37220556.801   146061188.876          32.000  
C06  37468375.741   195108200.832         423.205          42.000    37468371.738   150870052.747          45.000    37468362.589   158541407.761          43.000  
C09  39182061.324   204030860.727         473.810          37.000    39182060.537   157769617.179          41.000    39182049.941   165791798.344          40.000  
C13  36281415.740   188926782.207         269.372          49.000    36281417.867   146090174.516          48.000    36281407.467   153518487.480          47.000  
C14  25563308.374   133115236.580       -2197.953          36.000    25563308.320   102933144.481          40.000    25563300.529   108167033.446          37.000  
C16  37277845.300   194115382.559         279.225          46.000    37277846.711   150102345.997          46.000    37277838.527   157734664.157          42.000  
C23  24363070.153   126865307.061        3076.652          43.000                                                    24363054.517   103088186.948          46.000  
C24  25100577.015   130705412.301       -2179.686          41.000                                                    25100567.295   106208701.163          42.000  
C25  22487398.928   117097177.681         827.672          50.000                                                    22487392.388    95151716.424          50.000  
C27  25139449.449   130907822.056       -2143.319          40.000                                                    25139444.499   106372756.067          40.000  
C30  25789884.100   134294202.021        -287.557          36.000                                                    25789881.009   109125026.425          38.000  
C32  24933936.886   129837840.105        2263.014          40.000                                                    24933929.113   105503022.323          44.000  
C33  23697433.966   123398396.910       -1602.704          46.000                                                    23697441.185   100271017.300          46.000  
C38  35845127.302   186654212.648        -429.305          50.000                                                    35845116.795   151671838.339          51.000  
C39  36817661.528   191719276.498         177.619          48.000                                                    36817652.987   155787633.027          49.000  
C41  21996868.624   114543666.882         548.087          51.000                                                    21996869.070    93076127.540          52.000  
> 2022 08 25 07 14 49.0000000  0 41                     
G02  23898689.966   125588296.698       -3275.697          39.000    23898698.114    97861499.946          25.000                                                  
G05  21053929.055   110639874.070       -1713.246          49.000    21053937.132    86212898.860          44.000                                                  
G13  21222642.170   111526134.557       -1922.278          48.000    21222649.371    86903503.001          40.000                                                  
G14  24345217.891   127935073.833         -95.008          38.000    24345226.093    99689668.185          19.000    24345226.200    95535932.468          30.000  
G15  20255820.634   106444878.403          71.999          51.000    20255828.336    82944082.814          56.000                                                  
G18  21599265.619   113504622.038         466.784          47.000    21599272.820    88444882.708          39.000    21599273.714    84760492.242          39.000  
G20  23381028.338   122867971.563       -3183.387          38.000    23381038.559    95741276.908          23.000                                                  
G23  23608185.433   124061285.469        3174.235          39.000    23608195.154    96671276.602          29.000    23608196.137    92643239.968          33.000  
G24  21083067.535   110792655.012        2681.174          48.000    21083078.203    86331953.655          53.000    21083074.200    82734791.157          39.000  
R03  20544637.188   109976314.384        -811.785          52.000    20544642.817    85537822.970          49.000  
R04  20752388.417   111128318.473        1506.701          51.000    20752393.313    86433432.962          49.000  
R13  20624033.903   110130951.953        -763.714          40.000    20624039.335    85657385.684          45.000  
R14  20926923.634   111551769.294        3315.957          51.000    20926930.532    86762930.207          49.000  
R18  23004647.157   122800816.631       -3994.817          43.000    23004656.538    95510940.562          42.000  
R19  21492208.675   114968839.497       -2103.614          38.000    21492214.518    89420583.859          45.000  
R20  23067406.221   123351384.095        1925.556          33.000    23067414.887    95939965.648          42.000  
E03  25170733.462   132273496.430        1225.465          49.000    25170729.191   107364892.383          48.000    25170739.055   100064085.302          50.000  
E05  23855447.163   125361197.801        -548.748          53.000    23855441.320   101754238.256          52.000    23855452.577    94834958.886          54.000  
E09  26913026.636   141429265.177       -1808.299          42.000    26913024.331   114796488.216          44.000    26913033.784   106990329.543          45.000  
E15  25359099.964   133262374.935         694.997          47.000    25359095.300   108168511.927          46.000    25359106.415   100812819.155          48.000  
E24  26088152.992   137094039.638        1480.065          44.000    26088150.026   111277638.540          46.000    26088158.281   103710884.461          47.000  
E25  27282176.474   143369287.929        2837.468          40.000    27282172.757   116371180.081          37.000    27282186.159   108457515.021          43.000  
E31  27448481.058   144243238.260        -688.924          39.000    27448475.894   117080554.187          37.000    27448488.617   109119077.473          42.000  
E36  27473661.710   144375588.977       -3158.567          40.000    27473660.388   117187127.449          36.000    27473671.949   109218400.217          40.000  
J02  37341263.552   196230353.537         426.799          39.000    37341273.648   152906780.331          43.000    37341270.771   146535666.478          32.000  
J03  37220627.598   195595406.987        -407.049          39.000    37220637.355   152411995.065          44.000    37220634.245   146061492.937          32.000  
C06  37468294.061   195107777.629         423.310          42.000    37468290.452   150869725.498          45.000    37468281.321   158541063.871          43.000  
C09  39181970.531   204030387.010         473.784          37.000    39181969.673   157769250.880          41.000    39181958.952   165791413.413          40.000  
C13  36281363.867   188926512.918         269.374          49.000    36281366.100   146089966.283          48.000    36281355.808   153518268.663          47.000  
C14  25563730.154   133117434.530       -2197.764          36.000    25563730.440   102934844.071          40.000    25563722.631   108168819.451          37.000  
C16  37277791.764   194115103.340         279.287          46.000    37277793.051   150102130.087          46.000    37277784.920   157734437.269          42.000  
C23  24362478.617   126862230.522        3076.601          43.000                                                    24362463.732   103085687.006          45.000  
C24  25100995.204   130707592.152       -2179.971          40.000                                                    25100985.966   106210472.469          41.000  
C25  22487239.965   117096350.298         827.309          50.000                                                    22487233.443    95151044.100          50.000  
C27  25139861.562   130909965.607       -2143.555          40.000                                                    25139856.130   106374497.875          40.000  
C30  25789939.602   134294489.762        -287.964          36.000                                                    25789936.260   109125260.232          38.000  
C32  24933502.151   129835577.094        2263.125          40.000                                                    24933494.557   105501183.441          44.000  
C33  23697741.885   123399999.724       -1602.769          45.000                                                    23697749.015   100272319.720          46.000  
C38  35845209.624   186654642.050        -429.351          50.000                                                    35845199.225   151672187.269          51.000  
C39  36817627.291   191719098.934         177.626          48.000                                                    36817618.875   155787488.742          49.000  
C41  21996763.393   114543118.875         548.041          51.000                                                    21996763.750    93075682.239          52.000  
> 2022 08 25 07 14 50.0000000  0 41                     
G02  23899313.881   125591572.693       -3276.070          39.000    23899321.636    97864052.679          25.000                                                  
G05  21054255.165   110641587.668       -1713.781          49.000    21054263.224    86214234.129          44.000                                                  
G13  21223007.841   111528057.111       -1922.618          48.000    21223015.221    86905001.102          40.000                                                  
G14  24345235.992   127935169.287         -95.679          38.000    24345244.176    99689742.558          19.000    24345244.373    95536003.751          31.000  
G15  20255806.750   106444806.785          71.425          51.000    20255814.684    82944027.000          56.000                                                  
G18  21599176.613   113504155.771         465.956          47.000    21599184.386    88444519.377          39.000    21599184.976    84760144.054          39.000  
G20  23381634.544   122871155.163       -3183.683          38.000    23381644.301    95743757.634          22.000                                                  
G23  23607581.978   124058111.349        3174.086          39.000    23607591.127    96668803.276          30.000    23607592.057    92640869.695          32.000  
G24  21082557.607   110789974.191        2680.556          48.000    21082568.185    86329864.706          53.000    21082564.093    82732789.247          39.000  
R03  20544788.807   109977126.476        -812.201          52.000    20544794.400    85538454.602          49.000  
R04  20752106.730   111126811.985        1506.431          51.000    20752111.983    86432261.249          49.000  
R13  20624176.301   110131716.201        -764.667          40.000    20624182.395    85657980.104          45.000  
R14  20926300.935   111548453.764        3315.268          51.000    20926308.440    86760351.464          48.000  
R18  23005395.904   122804811.587       -3995.032          43.000    23005404.893    95514047.746          42.000  
R19  21492601.686   114970943.635       -2104.431          38.000    21492607.851    89422220.413          45.000  
R20  23067046.625   123349459.183        1924.676          33.000    23067054.952    95938468.493          42.000  
E03  25170500.307   132272271.201        1225.209          49.000    25170496.036   107363897.876          48.000    25170505.900   100063158.419          50.000  
E05  23855551.643   125361746.742        -548.961          52.000    23855545.711   101754683.835          52.000    23855557.039    94835374.161          54.000  
E09  26913370.543   141431073.654       -1808.517          42.000    26913368.310   114797956.124          44.000    26913377.941   106991697.642          45.000  
E15  25358967.930   133261680.354         694.413          46.000    25358963.087   108167948.141          46.000    25358974.238   100812293.709          48.000  
E24  26087871.162   137092559.999        1479.467          44.000    26087868.499   111276437.528          46.000    26087876.719   103709765.118          47.000  
E25  27281636.508   143366450.599        2837.343          40.000    27281632.702   116368877.058          37.000    27281646.228   108455368.608          43.000  
E31  27448612.181   144243927.592        -689.605          39.000    27448607.035   117081113.714          37.000    27448619.811   109119598.952          42.000  
E36  27474262.985   144378747.711       -3158.687          40.000    27474261.180   117189691.345          36.000    27474273.045   109220789.774          40.000  
J02  37341182.784   196229926.695         426.835          39.000    37341192.273   152906447.730          42.000    37341189.664   146535347.741          32.000  
J03  37220705.096   195595814.250        -407.301          39.000    37220714.745   152412312.407          44.000    37220711.726   146061797.062          32.000  
C06  37468213.222   195107354.511         423.080          42.000    37468209.237   150869398.318          45.000    37468200.142   158540720.053          43.000  
C09  39181879.489   204029913.369         473.504          37.000    39181878.541   157768884.631          42.000    39181867.999   165791028.550          40.000  
C13  36281312.011   188926243.810         269.036          49.000    36281314.369   146089758.195          48.000    36281304.095   153518049.995          47.000  
C14  25564152.042   133119632.605       -2198.112          35.000    25564152.578   102936543.755          40.000    25564144.680   108170605.573          38.000  
C16  37277738.157   194114824.206         279.051          45.000    37277739.336   150101914.245          46.000    37277731.260   157734210.449          42.000  
C23  24361888.242   126859154.195        3076.234          43.000                                                    24361872.910   103083187.238          45.000  
C24  25101414.233   130709772.382       -2180.460          40.000                                                    25101404.619   106212244.082          42.000  
C25  22487081.271   117095523.459         826.624          50.000                                                    22487074.730    95150372.228          50.000  
C27  25140273.139   130912109.388       -2143.903          40.000                                                    25140267.832   106376239.873          40.000  
C30  25789994.066   134294777.966        -288.405          36.000                                                    25789991.547   109125494.409          38.000  
C32  24933067.612   129833314.071        2263.050          40.000                                                    24933060.000   105499344.557          44.000  
C33  23698049.750   123401602.729       -1603.141          45.000                                                    23698056.844   100273622.283          46.000  
C38  35845292.161   186655071.627        -429.640          50.000                                                    35845281.690   151672536.337          51.000  
C39  36817592.982   191718921.453         177.416          48.000                                                    36817584.852   155787344.522          49.000  
C41  21996658.109   114542571.053         547.767          51.000                                                    21996658.573    93075237.092          52.000  
