     3.02           OBSERVATION DATA    M: Mixed            RINEX VERSION / TYPE
CONVBIN 2.4.3                           20220826 040419 UTC PGM / RUN BY / DATE 
format: RTCM 3                                              COMMENT             
log: C:\ProjectFlutter\C#\KDT-DataConverter\2022-08-25_14-16COMMENT             
Naruemarn                                                   MARKER NAME         
Naruemarn                                                   MARKER NUMBER       
RG-CORS                                                     MARKER TYPE         
KKFC                KKFC                                    OBSERVER / AGENCY   
5904C00382          TRIMBLE BD990       5.41,24/APR/2019    REC # / TYPE / VERS 
se1234              C220GR2                                 ANT # / TYPE        
 -3918545.7166  3445005.7638  3656561.1665                  APPROX POSITION XYZ 
        1.9210        0.0000        0.0000                  ANTENNA: DELTA H/E/N
G   10 C1C L1C D1C S1C C2W L2W S2W C5X L5X S5X              SYS / # / OBS TYPES 
R    7 C1C L1C D1C S1C C2P L2P S2P                          SYS / # / OBS TYPES 
E   10 C1X L1X D1X S1X C6X L6X S6X C8X L8X S8X              SYS / # / OBS TYPES 
J   10 C1C L1C D1C S1C C2X L2X S2X C5X L5X S5X              SYS / # / OBS TYPES 
C   10 C1I L1I D1I S1I C7I L7I S7I C6I L6I S6I              SYS / # / OBS TYPES 
     1.000                                                  INTERVAL            
  2022    08    25    07    16   40.0000000     GPS         TIME OF FIRST OBS   
  2022    08    25    07    21   43.0000000     GPS         TIME OF LAST OBS    
G L1C                                                       SYS / PHASE SHIFT   
G L2W  0.00000                                              SYS / PHASE SHIFT   
G L5X  0.00000                                              SYS / PHASE SHIFT   
R L1C                                                       SYS / PHASE SHIFT   
R L2P  0.00000                                              SYS / PHASE SHIFT   
E L1X  0.00000                                              SYS / PHASE SHIFT   
E L6X  0.00000                                              SYS / PHASE SHIFT   
E L8X  0.00000                                              SYS / PHASE SHIFT   
J L1C                                                       SYS / PHASE SHIFT   
J L2X  0.00000                                              SYS / PHASE SHIFT   
J L5X  0.00000                                              SYS / PHASE SHIFT   
C L1I                                                       SYS / PHASE SHIFT   
C L7I                                                       SYS / PHASE SHIFT   
C L6I                                                       SYS / PHASE SHIFT   
  7 R03  5 R04  6 R13 -2 R14 -7 R18 -3 R19  3 R20  2        GLONASS SLOT / FRQ #
 C1C    0.000 C1P    0.000 C2C    0.000 C2P    0.000        GLONASS COD/PHS/BIS 
                                                            END OF HEADER       
> 2022 08 25 07 16 40.0000000  0 41                     
G02  23967987.628   125952452.6241      -3285.079          39.000    23967996.383    98145257.1681         27.000                                                  
G05  21090626.328   110832717.8831      -1761.138          49.000    21090633.941    86363166.6821         44.000                                                  
G13  21263455.644   111740610.3311      -1941.812          49.000    21263462.952    87070626.9171         39.000                                                  
G14  24347881.323   127949070.7641       -157.033          38.000    24347889.989    99700574.8641         18.000    24347889.614    95546384.7031         31.000  
G15  20254670.155   106438832.8441         37.294          51.000    20254677.803    82939371.9841         56.000                                                  
G18  21590201.986   113456992.9111        391.649          47.000    21590209.830    88407769.0831         40.000    21590210.384    84724924.9931         38.000  
G20  23448561.326   123222857.8211      -3210.743          38.000    23448571.601    96017811.1891         23.000                                                  
G23  23541201.328   123709278.1681       3168.119          40.000    23541209.333    96396985.3961         28.000    23541210.244    92380377.6161         35.000  
G24  21026999.241   110498014.9991       2627.709          48.000    21027010.284    86102364.1621         53.000    21027005.977    82514767.9191         40.000  
R03  20561723.047   110067774.3031       -835.840          52.000    20561728.408    85608958.3861         49.000  
R04  20721297.139   110961827.3381       1493.344          51.000    20721301.982    86303939.8951         49.000  
R13  20640937.087   110221217.5751       -862.374          40.000    20640942.841    85727592.3191         44.000  
R14  20858497.928   111187024.2171       3256.047          51.000    20858505.183    86479239.7751         49.000  
R18  23087831.175   123244854.3541      -4005.313          43.000    23087839.949    95856302.3621         40.000  
R19  21536680.724   115206733.3771      -2182.167          37.000    21536686.424    89605612.3071         43.000  
R20  23028324.827   123142396.7751       1840.314          35.000    23028333.154    95777420.0971         41.000  
E03  25144955.878   132138034.9491       1215.565          49.000    25144951.589   107254939.9371         48.000    25144961.560    99961609.6461         50.000  
E05  23867142.885   125422659.1861       -558.424          53.000    23867137.167   101804125.7351         52.000    23867148.282    94881454.0111         54.000  
E09  26951220.815   141629975.0321      -1807.911          42.000    26951217.902   114959401.8801         44.000    26951227.623   107142165.0161         44.000  
E15  25344989.065   133188221.5821        641.312          46.000    25344985.223   108108322.5171         47.000    25344995.373   100756722.6271         48.000  
E24  26057322.780   136932027.6231       1439.335          45.000    26057320.207   111146135.3951         46.000    26057328.230   103588323.5721         47.000  
E25  27222227.975   143054260.1451       2838.754          39.000    27222225.687   116115476.1701         40.000    27222237.731   108219199.1591         42.000  
E31  27463562.353   144322488.6451       -738.571          39.000    27463557.421   117144880.8411         38.000    27463569.500   109179029.9051         43.000  
E36  27540362.163   144726095.7881      -3156.417          39.000    27540359.375   117471629.1381         34.000    27540371.883   109483555.5201         39.000  
J02  37332278.722   196183139.8381        423.949          41.000    37332289.014   152869990.6831         43.000    37332285.637   146500409.7781         32.000  
J03  37229266.842   195640807.9511       -410.709          39.000    37229277.081   152447372.3351         43.000    37229274.347   146095396.1341         31.000  
C06  37459374.703   195061333.0671        413.742          41.000    37459371.111   150833811.6651         45.000    37459362.123   158503323.9071         44.000  
C09  39171978.156   203978353.4371        463.952          38.000    39171977.066   157729015.3091         42.000    39171966.451   165749131.9691         40.000  
C13  36275798.291   188897531.7831        253.068          49.000    36275800.561   146067556.2331         48.000    36275790.268   153494719.1201         48.000  
C14  25610721.021   133362126.2211      -2210.663          34.000    25610721.056   103124054.9161         39.000    25610713.123   108367651.2381         37.000  
C16  37271938.891   194084625.2271        270.099          46.000    37271939.713   150078562.5171         45.000    37271931.886   157709671.3471         43.000  
C23  24297130.688   126521948.0281       3054.723          42.000                                                    24297115.375   102809179.8301         45.000  
C24  25147920.581   130951946.4291      -2222.508          40.000                                                    25147911.628   106409030.2471         42.000  
C25  22470244.648   117007850.1781        767.550          50.000                                                    22470237.894    95079130.5681         49.000  
C27  25185828.051   131149328.7991      -2168.851          40.000                                                    25185823.655   106568999.8931         39.000  
C30  25796645.346   134329409.1481       -341.063          38.000                                                    25796641.915   109153635.0201         38.000  
C32  24885267.029   129584406.9361       2262.634          39.000                                                    24885259.613   105297087.2371         44.000  
C33  23732129.515   123579066.2581      -1623.460          45.000                                                    23732136.949   100417825.8591         45.000  
C38  35854561.413   186703337.3151       -447.811          50.000                                                    35854550.567   151711756.1371         51.000  
C39  36813923.954   191699816.4981        170.060          48.000                                                    36813915.877   155771820.2161         49.000  
C41  21985303.685   114483445.1521        527.277          51.000                                                    21985303.935    93027192.4591         52.000  
> 2022 08 25 07 16 41.0000000  0 41                     
G02  23968612.543   125955737.891       -3285.476          39.000    23968621.585    98147817.110          27.000                                                  
G05  21090961.033   110834479.336       -1761.844          49.000    21090969.146    86364539.240          44.000                                                  
G13  21263825.264   111742552.282       -1942.195          48.000    21263832.430    87072140.125          40.000                                                  
G14  24347911.128   127949228.112        -157.791          38.000    24347920.027    99700697.473          19.000    24347919.526    95546502.194          30.000  
G15  20254663.240   106438795.802          36.716          51.000    20254670.709    82939343.125          56.000                                                  
G18  21590127.472   113456601.688         390.783          46.000    21590135.442    88407464.235          39.000    21590135.942    84724632.850          39.000  
G20  23449172.625   123226068.730       -3211.185          38.000    23449182.721    96020313.195          23.000                                                  
G23  23540597.998   123706109.979        3168.059          39.000    23540606.486    96394516.677          29.000    23540607.379    92378011.765          34.000  
G24  21026499.408   110495387.605        2627.014          48.000    21026510.326    86100316.849          53.000    21026505.930    82512805.915          40.000  
R03  20561878.704   110068610.396        -836.338          52.000    20561884.440    85609608.685          49.000  
R04  20721018.525   110960334.181        1492.924          51.000    20721023.118    86302778.548          49.000  
R13  20641099.034   110222080.559        -863.589          40.000    20641104.484    85728263.528          44.000  
R14  20857887.415   111183768.556        3255.291          51.000    20857894.455    86476707.601          49.000  
R18  23088581.656   123248859.835       -4005.645          43.000    23088590.394    95859417.727          40.000  
R19  21537088.334   115208916.037       -2183.163          37.000    21537094.410    89607309.929          43.000  
R20  23027980.741   123140557.095        1839.211          35.000    23027988.997    95775989.239          41.000  
E03  25144724.492   132136819.494        1215.261          49.000    25144720.292   107253953.374          48.000    25144730.263    99960690.172          50.000  
E05  23867249.259   125423217.726        -558.733          52.000    23867243.345   101804579.102          52.000    23867254.584    94881876.550          54.000  
E09  26951564.937   141631782.957       -1808.044          42.000    26951562.060   114960869.352          44.000    26951571.655   107143532.698          44.000  
E15  25344866.769   133187580.608         640.549          46.000    25344863.088   108107802.243          47.000    25344873.416   100756237.731          48.000  
E24  26057048.830   136930588.599        1438.713          44.000    26057046.454   111144967.360          46.000    26057054.406   103587234.964          47.000  
E25  27221687.723   143051421.418        2838.660          40.000    27221685.507   116113172.016          40.000    27221697.515   108217051.687          43.000  
E31  27463702.732   144323227.650        -739.363          39.000    27463698.157   117145480.690          38.000    27463710.148   109179588.967          43.000  
E36  27540963.169   144729252.362       -3156.736          39.000    27540960.114   117474191.293          35.000    27540972.569   109485943.446          39.000  
J02  37332198.615   196182716.007         423.718          42.000    37332208.228   152869660.425          43.000    37332204.940   146500093.274          31.000  
J03  37229344.947   195641218.756        -410.935          39.000    37229355.168   152447692.445          44.000    37229352.435   146095702.907          31.000  
C06  37459295.221   195060919.428         413.439          42.000    37459291.630   150833491.813          45.000    37459282.695   158502987.796          43.000  
C09  39171889.025   203977889.618         463.712          38.000    39171888.006   157728656.668          42.000    39171877.357   165748755.090          40.000  
C13  36275749.777   188897278.921         252.619          49.000    36275751.921   146067360.704          48.000    36275741.736   153494513.648          48.000  
C14  25611146.161   133364337.125       -2211.215          33.000    25611146.035   103125764.514          39.000    25611137.744   108369447.765          38.000  
C16  37271887.017   194084355.281         269.806          45.000    37271888.000   150078353.780          45.000    37271879.959   157709451.994          43.000  
C23  24296544.334   126518893.539        3054.250          42.000                                                    24296528.717   102806697.810          45.000  
C24  25148347.936   130954169.240       -2223.241          41.000                                                    25148338.448   106410836.461          43.000  
C25  22470097.050   117007083.018         766.715          50.000                                                    22470090.564    95078507.182          49.000  
C27  25186244.953   131151497.921       -2169.344          40.000                                                    25186240.236   106570762.478          39.000  
C30  25796711.425   134329750.532        -341.717          38.000                                                    25796707.405   109153912.413          38.000  
C32  24884832.525   129582144.382        2262.443          39.000                                                    24884825.146   105295248.724          44.000  
C33  23732441.884   123580689.888       -1623.881          45.000                                                    23732448.674   100419145.187          46.000  
C38  35854647.417   186703785.321        -448.231          50.000                                                    35854636.588   151712120.171          51.000  
C39  36813891.325   191699646.614         169.723          47.000                                                    36813883.284   155771682.167          49.000  
C41  21985202.492   114482918.023         526.916          51.000                                                    21985202.689    93026764.128          52.000  
> 2022 08 25 07 16 42.0000000  0 41                     
G02  23969237.637   125959023.174       -3285.422          39.000    23969246.875    98150377.054          27.000                                                  
G05  21091296.649   110836241.147       -1762.063          49.000    21091304.458    86365912.082          44.000                                                  
G13  21264194.778   111744494.391       -1942.204          49.000    21264202.086    87073653.455          39.000                                                  
G14  24347941.595   127949385.980        -158.210          38.000    24347950.190    99700820.475          19.000    24347949.600    95546620.082          30.000  
G15  20254656.146   106438759.037          36.585          51.000    20254663.722    82939314.476          56.000                                                  
G18  21590053.030   113456211.130         390.144          46.000    21590060.999    88407159.900          39.000    21590061.625    84724341.198          39.000  
G20  23449783.549   123229279.817       -3211.165          38.000    23449793.860    96022815.332          23.000                                                  
G23  23539995.723   123702941.832        3167.991          40.000    23540003.871    96392047.997          29.000    23540004.478    92375645.947          34.000  
G24  21025999.236   110492760.690        2626.619          48.000    21026010.369    86098269.900          54.000    21026006.044    82510844.251          39.000  
R03  20562035.523   110069446.693        -836.418          52.000    20562040.794    85610259.141          49.000  
R04  20720739.447   110958841.161        1492.942          51.000    20720744.290    86301617.315          49.000  
R13  20641260.552   110222944.374        -864.299          40.000    20641266.271    85728935.387          44.000  
R14  20857276.902   111180513.434        3254.839          51.000    20857283.763    86474175.837          49.000  
R18  23089331.709   123252865.369       -4005.544          43.000    23089340.804    95862533.140          40.000  
R19  21537496.642   115211099.356       -2183.663          37.000    21537502.663    89609008.057          43.000  
R20  23027636.548   123138718.164        1838.515          35.000    23027645.250    95774558.958          41.000  
E03  25144493.231   132135604.107        1215.315          49.000    25144488.996   107252966.854          48.000    25144498.984    99959770.737          50.000  
E05  23867355.580   125423776.322        -558.670          52.000    23867349.683   101805032.503          52.000    23867360.851    94882299.115          54.000  
E09  26951908.933   141633590.871       -1807.981          42.000    26951905.967   114962336.812          44.000    26951915.688   107144900.371          44.000  
E15  25344745.135   133186940.071         640.271          46.000    25344741.150   108107282.324          47.000    25344751.514   100755753.167          48.000  
E24  26056775.059   136929149.927        1438.523          44.000    26056772.665   111143799.598          47.000    26056780.616   103586146.611          47.000  
E25  27221147.649   143048582.677        2838.791          39.000    27221145.433   116110867.845          40.000    27221157.299   108214904.205          43.000  
E31  27463843.254   144323967.122        -739.695          39.000    27463838.858   117146080.911          38.000    27463850.848   109180148.364          43.000  
E36  27541563.604   144732408.849       -3156.589          39.000    27541560.656   117476753.378          34.000    27541573.236   109488331.305          39.000  
J02  37332117.918   196182292.199         423.767          42.000    37332128.032   152869330.192          43.000    37332124.297   146499776.803          32.000  
J03  37229423.178   195641629.561        -410.915          39.000    37229433.453   152448012.544          44.000    37229430.576   146096009.672          31.000  
C06  37459215.919   195060505.812         413.545          42.000    37459212.291   150833171.984          45.000    37459203.249   158502651.697          43.000  
C09  39171799.966   203977425.823         463.784          38.000    39171799.019   157728298.028          41.000    39171788.279   165748378.214          40.000  
C13  36275701.030   188897026.183         252.632          49.000    36275703.443   146067165.271          48.000    36275693.186   153494308.273          48.000  
C14  25611570.961   133366548.099       -2211.064          34.000    25611570.818   103127474.183          39.000    25611562.419   108371244.367          38.000  
C16  37271834.929   194084085.349         269.947          45.000    37271836.269   150078145.054          45.000    37271828.103   157709232.655          43.000  
C23  24295957.891   126515839.198        3054.263          42.000                                                    24295942.202   102804215.905          45.000  
C24  25148774.827   130956392.365       -2223.364          41.000                                                    25148765.357   106412642.928          41.000  
C25  22469949.756   117006316.372         766.348          50.000                                                    22469943.376    95077884.220          50.000  
C27  25186661.623   131153667.217       -2169.531          40.000                                                    25186656.673   106572525.207          39.000  
C30  25796776.201   134330092.361        -342.055          38.000                                                    25796773.073   109154190.167          37.000  
C32  24884397.844   129579881.830        2262.617          40.000                                                    24884390.607   105293410.215          44.000  
C33  23732753.305   123582313.677       -1623.896          45.000                                                    23732760.560   100420464.649          46.000  
C38  35854733.331   186704233.458        -448.281          50.000                                                    35854722.646   151712484.324          50.000  
C39  36813858.911   191699476.745         169.781          47.000                                                    36813850.673   155771544.137          49.000  
C41  21985101.372   114482391.047         526.866          51.000                                                    21985101.532    93026335.912          52.000  
> 2022 08 25 07 16 43.0000000  0 41                     
G02  23969863.107   125962308.521       -3285.334          39.000    23969872.023    98152937.076          26.000                                                  
G05  21091631.890   110838003.383       -1762.478          49.000    21091639.716    86367285.246          44.000                                                  
G13  21264564.399   111746436.617       -1942.273          49.000    21264571.600    87075166.880          40.000                                                  
G14  24347971.061   127949544.411        -158.708          38.000    24347980.263    99700943.923          19.000    24347979.763    95546738.393          30.000  
G15  20254649.159   106438722.547          36.404          51.000    20254656.825    82939286.038          56.000                                                  
G18  21589979.177   113455821.177         389.666          46.000    21589986.879    88406856.043          39.000    21589987.540    84724050.006          39.000  
G20  23450394.670   123232491.125       -3211.443          38.000    23450404.998    96025317.652          23.000                                                  
G23  23539392.732   123699773.701        3168.084          40.000    23539401.202    96389579.322          31.000    23539401.649    92373280.136          34.000  
G24  21025499.744   110490134.209        2626.243          48.000    21025510.644    86096223.292          54.000    21025506.248    82508882.918          40.000  
R03  20562191.502   110070283.201        -836.616          52.000    20562196.880    85610909.756          49.000  
R04  20720461.030   110957348.225        1492.910          51.000    20720465.515    86300456.147          49.000  
R13  20641422.928   110223809.069        -865.156          40.000    20641428.146    85729607.935          44.000  
R14  20856666.085   111177258.829        3254.305          51.000    20856673.215    86471644.471          49.000  
R18  23090081.797   123256870.922       -4005.610          43.000    23090091.231    95865648.561          40.000  
R19  21537904.288   115213283.345       -2184.383          37.000    21537910.792    89610706.708          43.000  
R20  23027292.444   123136879.935        1837.903          36.000    23027301.558    95773129.228          40.000  
E03  25144262.041   132134388.770        1215.256          49.000    25144257.681   107251980.386          48.000    25144267.724    99958851.345          50.000  
E05  23867461.740   125424334.965        -558.684          53.000    23867455.879   101805485.952          52.000    23867467.190    94882721.729          54.000  
E09  26952252.751   141635398.720       -1807.932          42.000    26952249.946   114963804.222          44.000    26952259.720   107146267.997          44.000  
E15  25344623.089   133186299.973         639.866          46.000    25344619.319   108106762.769          47.000    25344629.719   100755268.940          48.000  
E24  26056501.252   136927711.589        1438.103          43.000    26056499.018   111142632.118          46.000    26056506.917   103585058.520          47.000  
E25  27220607.290   143045743.903        2838.758          40.000    27220605.164   116108563.651          40.000    27220617.082   108212756.702          43.000  
E31  27463983.972   144324706.959        -740.110          39.000    27463979.648   117146681.423          38.000    27463991.620   109180708.049          43.000  
E36  27542164.415   144735565.268       -3156.428          39.000    27542161.305   117479315.404          34.000    27542173.885   109490719.109          39.000  
J02  37332037.061   196181868.365         423.782          42.000    37332047.228   152868999.931          43.000    37332043.637   146499460.310          32.000  
J03  37229501.784   195642040.367        -410.867          40.000    37229511.505   152448332.659          44.000    37229508.735   146096316.434          31.000  
C06  37459136.741   195060092.292         413.512          42.000    37459133.131   150832852.217          45.000    37459123.839   158502315.671          43.000  
C09  39171710.781   203976962.106         463.800          39.000    39171709.852   157727939.457          41.000    39171699.220   165748001.411          40.000  
C13  36275652.534   188896773.550         252.545          49.000    36275655.000   146066969.919          47.000    36275644.618   153494102.988          48.000  
C14  25611995.636   133368759.189       -2210.892          33.000    25611995.243   103129183.941          39.000    25611986.970   108373041.056          38.000  
C16  37271783.216   194083815.502         269.806          45.000    37271784.502   150077936.389          45.000    37271776.300   157709013.387          43.000  
C23  24295371.537   126512785.032        3054.069          42.000                                                    24295355.669   102801734.150          45.000  
C24  25149201.736   130958615.837       -2223.680          41.000                                                    25149192.355   106414449.683          42.000  
C25  22469802.837   117005550.221         765.832          50.000                                                    22469796.189    95077261.659          50.000  
C27  25187078.311   131155836.682       -2169.559          40.000                                                    25187073.308   106574288.080          39.000  
C30  25796842.155   134330434.612        -342.464          38.000                                                    25796838.796   109154468.288          38.000  
C32  24883963.430   129577619.226        2262.604          40.000                                                    24883956.032   105291571.674          44.000  
C33  23733065.441   123583937.610       -1623.958          45.000                                                    23733072.410   100421784.225          46.000  
C38  35854819.513   186704681.729        -448.372          50.000                                                    35854808.703   151712848.578          51.000  
C39  36813826.157   191699306.914         169.841          48.000                                                    36813818.026   155771406.133          49.000  
C41  21985000.215   114481864.232         526.686          51.000                                                    21985000.340    93025907.829          52.000  
> 2022 08 25 07 16 44.0000000  0 41                     
G02  23970488.379   125965593.970       -3285.581          39.000    23970497.439    98155497.160          26.000                                                  
G05  21091967.184   110839766.074       -1762.974          49.000    21091975.082    86368658.778          44.000                                                  
G13  21264933.930   111748379.063       -1942.578          48.000    21264941.381    87076680.472          40.000                                                  
G14  24348001.527   127949703.390        -159.346          39.000    24348010.605    99701067.806          19.000    24348010.033    95546857.112          31.000  
G15  20254642.405   106438686.415          35.888          50.000    20254649.838    82939257.885          56.000                                                  
G18  21589905.003   113455431.981         388.784          46.000    21589912.883    88406552.773          39.000    21589913.508    84723759.373          39.000  
G20  23451005.898   123235702.691       -3211.641          38.000    23451016.101    96027820.155          23.000                                                  
G23  23538789.492   123696605.647        3168.081          40.000    23538798.462    96387110.713          30.000    23538798.945    92370914.377          34.000  
G24  21025000.340   110487508.247        2625.630          48.000    21025010.919    86094177.090          53.000    21025006.541    82506921.977          40.000  
R03  20562347.516   110071119.961        -836.937          52.000    20562353.234    85611560.567          49.000  
R04  20720181.898   110955855.411        1492.726          50.000    20720186.722    86299295.065          49.000  
R13  20641584.625   110224674.641        -866.097          40.000    20641590.307    85730281.160          44.000  
R14  20856056.001   111174004.779        3253.740          52.000    20856062.845    86469113.543          49.000  
R18  23090833.010   123260876.609       -4005.853          44.000    23090841.623    95868764.091          40.000  
R19  21538313.309   115215468.075       -2185.300          37.000    21538319.296    89612405.936          44.000  
R20  23026949.895   123135042.548        1836.942          35.000    23026957.901    95771700.152          40.000  
E03  25144030.870   132133173.562        1215.166          49.000    25144026.420   107250994.014          48.000    25144036.463    99957932.046          50.000  
E05  23867568.096   125424893.736        -558.877          52.000    23867562.253   101805939.498          52.000    23867573.493    94883144.432          54.000  
E09  26952596.873   141637206.607       -1807.940          41.000    26952594.032   114965271.660          44.000    26952603.752   107147635.654          44.000  
E15  25344501.598   133185660.416         639.243          46.000    25344497.542   108106243.646          47.000    25344508.013   100754785.115          48.000  
E24  26056227.856   136926273.648        1437.651          43.000    26056225.372   111141464.958          46.000    26056233.270   103583970.729          47.000  
E25  27220067.235   143042905.133        2838.735          40.000    27220064.929   116106259.459          39.000    27220076.884   108210609.188          43.000  
E31  27464124.959   144325447.285        -740.591          39.000    27464120.420   117147282.346          38.000    27464132.536   109181268.108          43.000  
E36  27542764.921   144738721.719       -3156.504          39.000    27542761.901   117481877.454          34.000    27542774.552   109493106.930          39.000  
J02  37331956.168   196181444.610         423.686          41.000    37331966.246   152868669.735          43.000    37331963.190   146499143.872          32.000  
J03  37229580.014   195642451.233        -410.864          39.000    37229589.753   152448652.812          44.000    37229586.876   146096623.250          31.000  
C06  37459057.170   195059678.844         413.344          42.000    37459053.704   150832532.516          44.000    37459044.430   158501979.714          43.000  
C09  39171621.669   203976498.540         463.339          38.000    39171620.865   157727580.999          42.000    39171610.179   165747624.735          40.000  
C13  36275603.894   188896521.086         252.328          49.000    36275606.521   146066774.700          47.000    36275596.193   153493897.843          48.000  
C14  25612420.025   133370970.418       -2211.197          34.000    25612419.864   103130893.785          39.000    25612411.716   108374837.849          38.000  
C16  37271731.324   194083545.751         269.643          45.000    37271732.646   150077727.800          45.000    37271724.480   157708794.188          43.000  
C23  24294784.861   126509731.104        3053.769          43.000                                                    24294769.118   102799252.576          45.000  
C24  25149628.556   130960839.721       -2224.151          40.000                                                    25149619.425   106416256.768          41.000  
C25  22469655.810   117004784.643         765.238          50.000                                                    22469649.074    95076639.559          50.000  
C27  25187494.802   131158006.441       -2169.952          40.000                                                    25187490.067   106576051.179          39.000  
C30  25796907.717   134330777.383        -343.175          38.000                                                    25796904.661   109154746.813          38.000  
C32  24883529.070   129575356.660        2262.455          40.000                                                    24883521.636   105289733.153          44.000  
C33  23733377.595   123585561.778       -1624.239          44.000                                                    23733384.314   100423103.996          45.000  
C38  35854905.624   186705130.192        -448.590          50.000                                                    35854894.903   151713212.993          51.000  
C39  36813793.778   191699137.178         169.648          48.000                                                    36813785.469   155771268.211          49.000  
C41  21984899.112   114481337.640         526.454          51.000                                                    21984899.184    93025479.930          51.000  
> 2022 08 25 07 16 45.0000000  0 41                     
G02  23971112.920   125968879.569       -3285.774          39.000    23971122.640    98158057.351          27.000                                                  
G05  21092302.889   110841529.249       -1763.508          50.000    21092310.662    86370032.676          44.000                                                  
G13  21265303.408   111750321.745       -1942.903          48.000    21265310.931    87078194.248          40.000                                                  
G14  24348032.066   127949862.983        -159.954          39.000    24348040.964    99701192.164          20.000    24348040.464    95546976.284          31.000  
G15  20254635.579   106438650.650          35.456          51.000    20254643.155    82939230.019          56.000                                                  
G18  21589830.775   113455043.516         387.951          47.000    21589838.816    88406250.066          39.000    21589839.495    84723469.276          38.000  
G20  23451616.607   123238914.586       -3212.054          38.000    23451627.221    96030322.940          24.000                                                  
G23  23538186.806   123693437.740        3167.800          40.000    23538195.562    96384642.214          29.000    23538196.133    92368548.732          34.000  
G24  21024500.007   110484882.837        2625.017          48.000    21024511.265    86092131.321          53.000    21024506.959    82504961.450          39.000  
R03  20562503.781   110071956.987        -837.240          52.000    20562509.588    85612211.589          49.000  
R04  20719903.123   110954362.747        1492.515          51.000    20719908.001    86298134.102          49.000  
R13  20641746.983   110225541.185        -867.178          41.000    20641752.630    85730955.136          44.000  
R14  20855445.273   111170751.344        3253.046          52.000    20855452.457    86466583.098          49.000  
R18  23091582.705   123264882.460       -4006.014          44.000    23091592.104    95871879.741          40.000  
R19  21538721.331   115217653.566       -2185.974          37.000    21538727.871    89614105.758          44.000  
R20  23026606.274   123133206.006        1835.979          35.000    23026614.422    95770271.730          41.000  
E03  25143799.573   132131958.489        1214.929          49.000    25143795.195   107250007.758          48.000    25143805.238    99957012.856          50.000  
E05  23867674.542   125425452.652        -559.099          53.000    23867668.502   101806393.168          52.000    23867679.867    94883567.254          54.000  
E09  26952940.780   141639014.547       -1807.981          42.000    26952937.957   114966739.142          44.000    26952947.785   107149003.344          44.000  
E15  25344379.946   133185021.390         638.659          46.000    25344375.996   108105724.958          47.000    25344386.396   100754301.698          49.000  
E24  26055954.067   136924836.138        1437.160          43.000    26055951.940   111140298.155          47.000    26055959.713   103582883.260          47.000  
E25  27219526.857   143040066.444        2838.508          40.000    27219524.928   116103955.328          40.000    27219536.685   108208461.747          43.000  
E31  27464265.874   144326188.121        -741.238          40.000    27464261.514   117147883.665          38.000    27464273.504   109181828.542          43.000  
E36  27543365.338   144741878.205       -3156.565          39.000    27543362.658   117484439.537          34.000    27543375.237   109495494.789          39.000  
J02  37331875.918   196181020.922         423.464          41.000    37331885.907   152868339.596          43.000    37331882.690   146498827.480          32.000  
J03  37229658.138   195642862.197        -411.111          40.000    37229668.001   152448973.044          45.000    37229665.071   146096930.142          30.000  
C06  37458977.850   195059265.569         413.111          42.000    37458974.097   150832212.949          44.000    37458965.055   158501643.898          43.000  
C09  39171532.663   203976035.065         463.194          38.000    39171531.895   157727222.605          42.000    39171521.298   165747248.109          39.000  
C13  36275555.666   188896268.834         252.047          49.000    36275558.132   146066579.643          48.000    36275547.786   153493692.867          47.000  
C14  25612844.397   133373181.854       -2211.547          34.000    25612844.736   103132603.817          39.000    25612836.427   108376634.829          38.000  
C16  37271679.415   194083276.143         269.469          45.000    37271680.808   150077519.322          45.000    37271672.750   157708575.113          43.000  
C23  24294198.918   126506677.438        3053.414          43.000                                                    24294182.711   102796771.222          45.000  
C24  25150055.875   130963064.073       -2224.736          41.000                                                    25150046.566   106418064.244          41.000  
C25  22469508.963   117004019.675         764.581          50.000                                                    22469502.208    95076017.960          49.000  
C27  25187911.847   131160176.462       -2170.302          40.000                                                    25187906.772   106577814.506          39.000  
C30  25796973.600   134331120.677        -343.705          38.000                                                    25796970.580   109155025.763          38.000  
C32  24883094.423   129573094.175        2262.296          40.000                                                    24883087.133   105287894.702          44.000  
C33  23733689.231   123587186.190       -1624.609          45.000                                                    23733696.218   100424423.967          46.000  
C38  35854991.842   186705578.902        -448.935          50.000                                                    35854981.014   151713577.607          50.000  
C39  36813761.149   191698967.585         169.449          48.000                                                    36813752.911   155771130.401          49.000  
C41  21984797.884   114480811.296         526.104          51.000                                                    21984798.116    93025052.235          52.000  
> 2022 08 25 07 16 46.0000000  0 41                     
G02  23971737.853   125972165.174       -3285.652          39.000    23971747.824    98160617.544          27.000                                                  
G05  21092638.523   110843292.785       -1763.835          50.000    21092646.243    86371406.862          44.000                                                  
G13  21265673.618   111752264.520       -1942.883          48.000    21265680.659    87079708.096          40.000                                                  
G14  24348062.514   127950023.098        -160.383          38.000    24348071.449    99701316.908          20.000    24348070.931    95547095.850          30.000  
G15  20254628.574   106438615.119          35.344          51.000    20254636.383    82939202.326          55.000                                                  
G18  21589757.154   113454655.647         387.513          46.000    21589764.981    88405947.835          39.000    21589765.696    84723179.640          39.000  
G20  23452227.728   123242126.651       -3212.233          37.000    23452238.288    96032825.831          22.000                                                  
G23  23537584.066   123690269.818        3167.811          40.000    23537592.857    96382173.701          30.000    23537593.179    92366183.084          33.000  
G24  21024000.801   110482257.841        2624.651          48.000    21024011.719    86090085.862          54.000    21024007.394    82503001.221          39.000  
R03  20562660.510   110072794.144        -837.322          52.000    20562665.978    85612862.705          50.000  
R04  20719624.438   110952870.104        1492.531          51.000    20719629.316    86296973.155          49.000  
R13  20641908.858   110226408.508        -867.738          40.000    20641914.916    85731629.725          45.000  
R14  20854835.225   111167498.371        3252.642          52.000    20854842.212    86464053.013          49.000  
R18  23092333.955   123268888.320       -4005.862          45.000    23092342.442    95874995.402          40.000  
R19  21539130.103   115219839.661       -2186.540          37.000    21539136.392    89615806.049          43.000  
R20  23026262.420   123131370.153        1835.405          34.000    23026271.140    95768843.843          41.000  
E03  25143568.366   132130743.443        1214.983          49.000    25143564.095   107249021.519          48.000    25143574.012    99956093.685          50.000  
E05  23867780.774   125426011.582        -559.055          52.000    23867774.895   101806846.840          52.000    23867786.224    94883990.079          54.000  
E09  26953284.759   141640822.435       -1807.922          41.000    26953281.918   114968206.578          44.000    26953291.799   107150371.002          44.000  
E15  25344258.454   133184382.787         638.352          46.000    25344254.469   108105206.599          47.000    25344264.869   100753818.596          49.000  
E24  26055680.599   136923398.921        1436.990          43.000    26055678.312   111139131.578          46.000    26055686.210   103581796.022          47.000  
E25  27218986.856   143037227.653        2838.811          40.000    27218984.586   116101651.124          39.000    27218996.469   108206314.222          43.000  
E31  27464406.843   144326929.331        -741.525          39.000    27464402.608   117148485.299          38.000    27464414.544   109182389.257          44.000  
E36  27543966.184   144745034.604       -3156.369          39.000    27543963.218   117487001.535          34.000    27543975.887   109497882.573          39.000  
J02  37331794.971   196180597.200         423.689          41.000    37331805.300   152868009.425          43.000    37331802.048   146498511.063          32.000  
J03  37229736.065   195643273.108        -410.993          39.000    37229746.089   152449293.234          44.000    37229743.230   146097236.996          31.000  
C06  37458898.868   195058852.319         413.131          42.000    37458894.705   150831893.396          44.000    37458885.699   158501308.099          43.000  
C09  39171443.729   203975571.653         463.282          38.000    39171442.782   157726864.260          42.000    39171432.329   165746871.549          40.000  
C13  36275507.348   188896016.666         252.115          49.000    36275509.474   146066384.646          47.000    36275499.414   153493487.953          47.000  
C14  25613268.393   133375393.284       -2211.581          34.000    25613269.358   103134313.837          39.000    25613261.067   108378431.799          37.000  
C16  37271627.934   194083006.557         269.517          45.000    37271629.113   150077310.859          44.000    37271620.929   157708356.046          43.000  
C23  24293612.599   126503623.900        3053.331          43.000                                                    24293596.321   102794289.963          45.000  
C24  25150483.106   130965288.710       -2224.936          41.000                                                    25150473.814   106419871.944          41.000  
C25  22469362.115   117003255.163         764.181          50.000                                                    22469355.378    95075396.730          50.000  
C27  25188328.446   131162346.639       -2170.316          40.000                                                    25188323.585   106579577.946          39.000  
C30  25797040.180   134331464.428        -344.081          38.000                                                    25797036.659   109155305.082          38.000  
C32  24882659.670   129570831.612        2262.570          40.000                                                    24882652.612   105286056.181          44.000  
C33  23734001.403   123588810.727       -1624.667          45.000                                                    23734008.157   100425744.027          45.000  
C38  35855077.882   186706027.696        -448.915          50.000                                                    35855067.267   151713942.284          51.000  
C39  36813728.681   191698797.987         169.552          48.000                                                    36813720.318   155770992.588          49.000  
C41  21984696.799   114480285.059         526.109          51.000                                                    21984697.067    93024624.624          52.000  
> 2022 08 25 07 16 47.0000000  0 41                     
G02  23972363.912   125975450.782       -3285.623          39.000    23972372.936    98163177.745          26.000                                                  
G05  21092974.282   110845056.699       -1764.138          50.000    21092981.984    86372781.336          44.000                                                  
G13  21266043.167   111754207.418       -1942.985          48.000    21266050.333    87081222.045          40.000                                                  
G14  24348093.213   127950183.721        -160.959          39.000    24348101.862    99701442.085          19.000    24348101.540    95547215.787          31.000  
G15  20254622.141   106438579.859          35.096          51.000    20254629.664    82939174.855          55.000                                                  
G18  21589683.087   113454268.402         386.854          46.000    21589691.361    88405646.077          39.000    21589692.093    84722890.455          39.000  
G20  23452839.349   123245338.912       -3212.390          38.000    23452849.480    96035328.892          23.000                                                  
G23  23536981.415   123687101.884        3167.942          40.000    23536990.242    96379705.181          30.000    23536990.385    92363817.413          33.000  
G24  21023501.379   110479633.279        2624.280          48.000    21023512.369    86088040.751          53.000    21023507.973    82501041.328          39.000  
R03  20562816.953   110073631.460        -837.423          52.000    20562822.350    85613513.952          50.000  
R04  20719345.377   110951377.572        1492.420          51.000    20719350.559    86295812.296          49.000  
R13  20642071.735   110227276.707        -868.673          40.000    20642077.524    85732304.990          44.000  
R14  20854224.765   111164245.892        3252.214          52.000    20854231.967    86461523.307          49.000  
R18  23093084.203   123272894.203       -4005.924          44.000    23093092.870    95878111.078          40.000  
R19  21539539.339   115222026.419       -2187.187          37.000    21539545.200    89617506.865          43.000  
R20  23025918.853   123129535.033        1834.718          34.000    23025928.109    95767416.536          41.000  
E03  25143337.194   132129528.435        1214.983          48.000    25143332.781   107248035.304          48.000    25143342.841    99955174.533          50.000  
E05  23867887.184   125426570.557        -559.040          52.000    23867881.305   101807300.546          51.000    23867892.598    94884412.935          54.000  
E09  26953629.023   141642630.240       -1807.815          42.000    26953625.789   114969673.955          43.000    26953635.814   107151738.590          44.000  
E15  25344137.141   133183744.600         637.947          46.000    25344132.960   108104688.593          47.000    25344143.431   100753335.819          49.000  
E24  26055407.293   136921962.031        1436.751          43.000    26055404.934   111137965.273          46.000    26055412.778   103580709.023          47.000  
E25  27218446.639   143034388.800        2838.860          40.000    27218444.298   116099346.860          40.000    27218456.253   108204166.655          43.000  
E31  27464548.294   144327670.936        -741.740          40.000    27464543.684   117149087.246          38.000    27464555.674   109182950.284          43.000  
E36  27544566.619   144748190.926       -3156.491          39.000    27544563.778   117489563.477          34.000    27544576.536   109500270.310          39.000  
J02  37331714.954   196180173.471         423.646          41.000    37331724.693   152867679.249          43.000    37331721.333   146498194.654          32.000  
J03  37229814.617   195643684.007        -410.920          39.000    37229824.338   152449613.415          44.000    37229821.425   146097543.834          32.000  
C06  37458819.369   195058439.069         413.177          42.000    37458815.367   150831573.845          44.000    37458806.253   158500972.297          44.000  
C09  39171355.027   203975108.239         463.411          39.000    39171353.830   157726505.925          42.000    39171343.305   165746494.985          40.000  
C13  36275458.905   188895764.582         251.966          49.000    36275461.121   146066189.717          48.000    36275450.971   153493283.117          47.000  
C14  25613693.211   133377604.804       -2211.477          33.000    25613694.051   103136023.923          39.000    25613685.831   108380228.834          38.000  
C16  37271576.257   194082736.995         269.495          45.000    37271577.436   150077102.414          44.000    37271569.145   157708137.007          43.000  
C23  24293026.138   126500570.507        3053.279          42.000                                                    24293009.967   102791808.833          45.000  
C24  25150910.712   130967513.676       -2225.221          40.000                                                    25150901.116   106421679.906          42.000  
C25  22469215.303   117002491.141         763.748          50.000                                                    22469208.656    95074775.896          50.000  
C27  25188745.366   131164516.982       -2170.510          40.000                                                    25188740.309   106581341.523          39.000  
C30  25797106.134   134331808.528        -344.314          38.000                                                    25797102.685   109155584.682          38.000  
C32  24882225.095   129568569.005        2262.615          40.000                                                    24882218.127   105284217.640          44.000  
C33  23734313.699   123590435.380       -1624.734          45.000                                                    23734320.043   100427064.198          45.000  
C38  35855164.118   186706476.609        -449.050          50.000                                                    35855153.378   151714307.066          51.000  
C39  36813695.999   191698628.394         169.534          48.000                                                    36813687.815   155770854.777          49.000  
C41  21984595.875   114479758.979         525.994          51.000                                                    21984596.125    93024197.136          52.000  
> 2022 08 25 07 16 48.0000000  0 41                     
G02  23972989.417   125978736.607       -3285.886          39.000    23972998.262    98165738.130          24.000                                                  
G05  21093309.916   110846821.154       -1764.788          49.000    21093317.725    86374156.238          44.000                                                  
G13  21266412.735   111756150.610       -1943.323          48.000    21266420.007    87082736.218          39.000                                                  
G14  24348123.805   127950344.999        -161.746          38.000    24348132.561    99701567.790          19.000    24348132.311    95547336.239          31.000  
G15  20254615.440   106438545.021          34.626          51.000    20254622.874    82939147.709          55.000                                                  
G18  21589609.378   113453881.927         386.086          47.000    21589617.722    88405344.932          39.000    21589618.598    84722601.855          38.000  
G20  23453450.684   123248551.514       -3212.713          38.000    23453460.815    96037832.218          25.000                                                  
G23  23536378.657   123683934.138        3167.653          40.000    23536387.377    96377236.810          31.000    23536387.556    92361451.886          34.000  
G24  21023002.351   110477009.290        2623.732          48.000    21023013.001    86085996.091          53.000    21023008.695    82499081.862          39.000  
R03  20562973.236   110074469.131        -837.830          52.000    20562978.847    85614165.472          50.000  
R04  20719066.585   110949885.315        1492.116          51.000    20719071.910    86294651.649          49.000  
R13  20642234.682   110228145.925        -869.798          40.000    20642240.418    85732981.047          45.000  
R14  20853615.110   111160994.059        3251.470          52.000    20853621.972    86458994.110          49.000  
R18  23093834.542   123276900.283       -4006.140          44.000    23093843.208    95881226.918          40.000  
R19  21539948.254   115224213.992       -2188.024          37.000    21539954.133    89619208.306          43.000  
R20  23025577.286   123127700.814        1833.871          35.000    23025585.184    95765989.926          41.000  
E03  25143105.790   132128313.632        1214.670          49.000    25143101.716   107247049.269          48.000    25143111.651    99954255.546          50.000  
E05  23867993.433   125427129.710        -559.280          52.000    23867987.840   101807754.411          52.000    23867998.990    94884835.938          54.000  
E09  26953972.913   141644438.153       -1807.884          41.000    26953969.982   114971141.417          44.000    26953979.864   107153106.267          44.000  
E15  25344015.775   133183107.024         637.253          46.000    25344011.808   108104171.082          47.000    25344022.118   100752853.492          49.000  
E24  26055133.843   136920525.630        1436.115          44.000    26055131.538   111136799.368          46.000    26055139.454   103579622.402          47.000  
E25  27217906.334   143031550.070        2838.615          40.000    27217904.207   116097042.699          39.000    27217916.036   108202019.175          43.000  
E31  27464689.173   144328413.096        -742.400          40.000    27464685.046   117149689.652          38.000    27464696.911   109183511.725          43.000  
E36  27545167.322   144751347.321       -3156.468          39.000    27545164.570   117492125.491          35.000    27545177.203   109502658.099          39.000  
J02  37331634.132   196179749.872         423.483          41.000    37331644.193   152867349.174          43.000    37331640.744   146497878.332          31.000  
J03  37229892.436   195644095.061        -411.048          40.000    37229902.604   152449933.711          44.000    37229899.655   146097850.781          31.000  
C06  37458739.888   195058026.041         412.981          42.000    37458736.117   150831254.465          44.000    37458726.986   158500636.678          44.000  
C09  39171265.896   203974645.057         463.147          38.000    39171264.896   157726147.770          42.000    39171254.299   165746118.616          40.000  
C13  36275410.498   188895512.769         251.682          49.000    36275412.749   146065994.999          48.000    36275402.564   153493078.501          48.000  
C14  25614117.618   133379816.563       -2211.936          33.000    25614118.815   103137734.206          39.000    25614110.596   108382026.083          38.000  
C16  37271524.133   194082467.634         269.280          45.000    37271525.598   150076894.129          45.000    37271517.486   157707918.129          42.000  
C23  24292440.177   126497517.431        3052.859          43.000                                                    24292423.613   102789327.964          45.000  
C24  25151337.817   130969739.136       -2225.705          40.000                                                    25151328.489   106423488.265          42.000  
C25  22469068.902   117001727.778         763.030          50.000                                                    22469062.005    95074155.609          50.000  
C27  25189162.250   131166687.663       -2170.872          40.000                                                    25189157.104   106583105.381          39.000  
C30  25797172.053   134332153.276        -345.002          37.000                                                    25797168.908   109155864.825          38.000  
C32  24881790.860   129566306.526        2262.356          40.000                                                    24881783.695   105282379.181          44.000  
C33  23734625.603   123592060.345       -1625.154          44.000                                                    23734632.143   100428384.610          45.000  
C38  35855250.425   186706925.799        -449.334          50.000                                                    35855239.704   151714672.064          51.000  
C39  36813663.227   191698458.987         169.329          48.000                                                    36813655.239   155770717.120          49.000  
C41  21984495.022   114479233.187         525.593          51.000                                                    21984495.058    93023769.887          52.000  
> 2022 08 25 07 16 49.0000000  0 41                     
G02  23973614.404   125982022.424       -3285.818          39.000    23973623.500    98168298.491          27.000                                                  
G05  21093645.353   110848585.951       -1764.901          50.000    21093653.466    86375531.403          44.000                                                  
G13  21266782.462   111758093.875       -1943.245          48.000    21266789.878    87084250.451          40.000                                                  
G14  24348154.701   127950506.754        -161.985          39.000    24348163.260    99701693.808          19.000    24348163.117    95547457.022          30.000  
G15  20254608.864   106438510.410          34.558          51.000    20254616.369    82939120.734          55.000                                                  
G18  21589536.829   113453496.102         385.564          46.000    21589544.352    88405044.289          39.000    21589545.138    84722313.744          39.000  
G20  23454062.144   123251764.301       -3212.957          38.000    23454072.222    96040335.682          24.000                                                  
G23  23535775.470   123680766.352        3167.810          40.000    23535784.566    96374768.405          30.000    23535784.691    92359086.342          34.000  
G24  21022502.858   110474385.737        2623.396          48.000    21022513.883    86083951.767          54.000    21022509.434    82497122.718          40.000  
R03  20563130.304   110075306.955        -837.851          52.000    20563135.397    85614817.113          50.000  
R04  20718788.025   110948393.123        1492.192          51.000    20718793.296    86293491.051          48.000  
R13  20642397.844   110229015.928        -870.400          40.000    20642403.205    85733657.714          45.000  
R14  20853005.133   111157742.720        3251.131          51.000    20853012.084    86456465.298          49.000  
R18  23094584.469   123280906.373       -4006.068          44.000    23094593.814    95884342.754          40.000  
R19  21540356.954   115226402.205       -2188.485          37.000    21540363.315    89620910.247          43.000  
R20  23025235.094   123125867.315        1833.167          34.000    23025242.260    95764563.864          41.000  
E03  25142874.762   132127098.814        1214.860          49.000    25142870.491   107246063.218          48.000    25142880.498    99953336.549          50.000  
E05  23868099.986   125427688.875        -559.134          52.000    23868094.035   101808208.279          52.000    23868105.418    94885258.938          54.000  
E09  26954316.802   141646245.997       -1807.742          41.000    26954313.961   114972608.818          44.000    26954323.878   107154473.889          44.000  
E15  25343894.212   133182469.846         636.980          46.000    25343890.424   108103653.897          47.000    25343900.877   100752371.480          49.000  
E24  26054860.715   136919089.505        1436.057          43.000    26054858.321   111135633.683          46.000    26054866.147   103578535.980          47.000  
E25  27217365.992   143028711.223        2838.971          40.000    27217363.866   116094738.452          40.000    27217375.838   108199871.612          42.000  
E31  27464829.910   144329155.632        -742.561          40.000    27464826.533   117150292.369          38.000    27464838.219   109184073.449          43.000  
E36  27545767.864   144754503.608       -3156.224          39.000    27545765.291   117494687.412          35.000    27545777.835   109505045.796          39.000  
J02  37331553.597   196179326.211         423.659          41.000    37331563.514   152867019.051          43.000    37331560.047   146497561.966          32.000  
J03  37229970.470   195644506.060        -410.950          40.000    37229980.781   152450253.979          44.000    37229977.922   146098157.709          30.000  
C06  37458660.228   195057613.018         413.082          42.000    37458656.922   150830935.088          44.000    37458647.755   158500301.067          43.000  
C09  39171176.998   203974181.887         463.209          38.000    39171175.890   157725789.615          41.000    39171165.330   165745742.260          39.000  
C13  36275362.216   188895261.017         251.734          49.000    36275364.575   146065800.326          48.000    36275354.300   153492873.922          48.000  
C14  25614542.436   133382028.296       -2211.728          34.000    25614543.705   103139444.462          39.000    25614535.378   108383823.297          38.000  
C16  37271472.616   194082198.270         269.400          45.000    37271473.778   150076685.835          45.000    37271465.737   157707699.251          42.000  
C23  24291853.805   126494464.477        3052.921          43.000                                                    24291837.276   102786847.189          45.000  
C24  25151765.458   130971964.887       -2225.834          41.000                                                    25151755.952   106425296.879          42.000  
C25  22468922.269   117000964.866         762.711          50.000                                                    22468915.568    95073535.680          49.000  
C27  25189579.420   131168858.486       -2170.795          41.000                                                    25189574.060   106584869.345          39.000  
C30  25797237.739   134332498.402        -345.365          37.000                                                    25797235.184   109156145.271          38.000  
C32  24881356.000   129564043.978        2262.574          40.000                                                    24881349.156   105280540.686          44.000  
C33  23734937.704   123593685.417       -1625.053          45.000                                                    23734944.101   100429705.112          46.000  
C38  35855336.643   186707375.073        -449.311          50.000                                                    35855325.922   151715037.141          51.000  
C39  36813631.009   191698289.586         169.405          48.000                                                    36813622.736   155770579.468          49.000  
C41  21984393.776   114478707.500         525.650          51.000                                                    21984394.169    93023342.730          52.000  
> 2022 08 25 07 16 50.0000000  0 41                     
G02  23974238.998   125985308.381       -3286.005          38.000    23974248.790    98170858.977          25.000                                                  
G05  21093981.809   110850351.269       -1765.482          50.000    21093989.457    86376906.975          44.000                                                  
G13  21267152.423   111760037.404       -1943.597          49.000    21267159.660    87085764.887          40.000                                                  
G14  24348185.007   127950669.135        -162.572          39.000    24348194.138    99701820.322          19.000    24348194.048    95547578.291          30.000  
G15  20254602.271   106438476.191          34.132          51.000    20254609.883    82939094.072          56.000                                                  
G18  21589463.245   113453110.977         384.796          46.000    21589470.946    88404744.196          39.000    21589471.929    84722026.148          39.000  
G20  23454673.675   123254977.404       -3213.197          38.000    23454683.539    96042839.399          23.000                                                  
G23  23535172.319   123677598.708        3167.657          40.000    23535181.933    96372300.111          29.000    23535182.040    92356720.892          34.000  
G24  21022003.830   110471762.728        2622.833          48.000    21022014.641    86081907.868          53.000    21022010.263    82495163.975          40.000  
R03  20563286.247   110076145.084        -838.241          52.000    20563291.930    85615468.989          50.000  
R04  20718509.929   110946901.108        1492.017          51.000    20718514.557    86292330.597          48.000  
R13  20642561.096   110229886.924        -871.469          40.000    20642566.385    85734335.157          45.000  
R14  20852394.799   111154492.021        3250.448          52.000    20852402.214    86453936.975          49.000  
R18  23095335.593   123284912.620       -4006.264          43.000    23095344.242    95887458.719          39.000  
R19  21540766.458   115228591.194       -2189.270          37.000    21540772.623    89622612.797          43.000  
R20  23024892.134   123124034.637        1832.220          34.000    23024899.586    95763138.448          41.000  
E03  25142643.608   132125884.170        1214.679          49.000    25142639.445   107245077.303          49.000    25142649.344    99952417.676          50.000  
E05  23868206.449   125428248.210        -559.354          53.000    23868200.481   101808662.290          52.000    23868211.828    94885682.076          54.000  
E09  26954660.977   141648053.910       -1807.860          42.000    26954658.011   114974076.282          44.000    26954667.910   107155841.559          44.000  
E15  25343773.292   133181833.235         636.427          46.000    25343769.254   108103137.163          47.000    25343779.725   100751889.882          49.000  
E24  26054587.498   136917653.838        1435.519          44.000    26054585.175   111134468.366          46.000    26054592.930   103577449.910          47.000  
E25  27216825.883   143025872.494        2838.790          40.000    27216823.560   116092434.291          40.000    27216835.640   108197724.145          42.000  
E31  27464971.754   144329898.708        -743.300          40.000    27464967.948   117150895.519          38.000    27464979.617   109184635.585          44.000  
E36  27546368.334   144757659.954       -3156.283          38.000    27546365.958   117497249.372          34.000    27546378.502   109507433.546          39.000  
J02  37331472.489   196178902.656         423.546          42.000    37331482.764   152866689.010          43.000    37331479.512   146497245.674          32.000  
J03  37230048.290   195644917.156        -411.054          40.000    37230058.940   152450574.311          44.000    37230056.099   146098464.696          31.000  
C06  37458581.104   195057200.141         412.885          42.000    37458577.405   150830615.831          44.000    37458568.417   158499965.573          43.000  
C09  39171087.814   203973718.888         462.767          38.000    39171087.296   157725431.602          41.000    39171076.413   165745366.040          40.000  
C13  36275313.737   188895009.495         251.454          49.000    36275316.149   146065605.836          48.000    36275305.928   153492669.542          48.000  
C14  25614967.183   133384240.301       -2211.959          34.000    25614968.434   103141154.926          39.000    25614960.303   108385620.723          38.000  
C16  37271421.189   194081929.057         269.286          45.000    37271422.208   150076477.669          45.000    37271414.060   157707480.491          42.000  
C23  24291267.487   126491411.791        3052.597          43.000                                                    24291251.137   102784366.634          45.000  
C24  25152192.921   130974191.135       -2226.437          40.000                                                    25152183.415   106427105.891          42.000  
C25  22468775.832   117000202.579         762.049          50.000                                                    22468769.149    95072916.257          49.000  
C27  25189996.269   131171029.623       -2171.193          41.000                                                    25189991.033   106586633.572          39.000  
C30  25797304.069   134332844.093        -345.914          37.000                                                    25797301.568   109156426.180          38.000  
C32  24880922.086   129561781.499        2262.519          41.000                                                    24880914.617   105278702.237          44.000  
C33  23735249.697   123595310.756       -1625.431          45.000                                                    23735256.237   100431025.833          45.000  
C38  35855422.790   186707824.597        -449.596          50.000                                                    35855412.318   151715402.414          51.000  
C39  36813598.416   191698120.299         169.218          48.000                                                    36813590.214   155770441.911          49.000  
C41  21984292.977   114478182.086         525.341          51.000                                                    21984293.227    93022915.786          52.000  
> 2022 08 25 07 16 51.0000000  0 41                     
G02  23974864.235   125988594.362       -3286.019          39.000    23974873.992    98173419.472          26.000                                                  
G05  21094317.693   110852116.926       -1765.800          49.000    21094325.413    86378282.805          44.000                                                  
G13  21267522.169   111761981.048       -1943.739          49.000    21267529.441    87087279.412          40.000                                                  
G14  24348216.242   127950832.029        -163.119          39.000    24348225.033    99701947.253          19.000    24348225.015    95547699.926          31.000  
G15  20254595.820   106438442.213          33.878          51.000    20254603.450    82939067.598          56.000                                                  
G18  21589390.018   113452726.476         384.239          46.000    21589397.844    88404444.583          39.000    21589398.773    84721739.023          39.000  
G20  23455285.439   123258190.643       -3213.300          38.000    23455294.928    96045343.214          24.000                                                  
G23  23534569.651   123674431.051        3167.755          40.000    23534579.211    96369831.809          29.000    23534579.264    92354355.431          34.000  
G24  21021504.695   110469140.150        2622.365          48.000    21021515.559    86079864.305          53.000    21021511.235    82493205.560          40.000  
R03  20563442.816   110076983.353        -838.344          52.000    20563448.605    85616120.974          50.000  
R04  20718231.262   110945409.120        1491.988          51.000    20718236.051    86291170.162          49.000  
R13  20642723.078   110230758.693        -872.197          40.000    20642729.797    85735013.199          45.000  
R14  20851785.179   111151241.831        3249.955          51.000    20851792.523    86451409.047          50.000  
R18  23096085.520   123288918.885       -4006.245          43.000    23096094.598    95890574.699          39.000  
R19  21541175.909   115230780.820       -2190.003          37.000    21541181.949    89624315.837          44.000  
R20  23024549.478   123122202.654        1831.599          35.000    23024556.876    95761713.566          40.000  
E03  25142412.544   132124669.560        1214.581          49.000    25142408.345   107244091.422          49.000    25142418.226    99951498.832          50.000  
E05  23868312.806   125428807.560        -559.374          53.000    23868307.070   101809116.303          52.000    23868318.274    94886105.216          54.000  
E09  26955004.974   141649861.759       -1807.748          42.000    26955002.079   114975543.692          44.000    26955011.925   107157209.188          44.000  
E15  25343652.122   133181197.038         636.002          46.000    25343648.245   108102620.767          47.000    25343658.662   100751408.602          49.000  
E24  26054314.423   136916218.446        1435.284          43.000    26054312.029   111133303.273          46.000    26054319.784   103576364.046          47.000  
E25  27216285.470   143023033.641        2838.858          40.000    27216283.380   116090130.025          40.000    27216295.388   108195576.571          42.000  
E31  27465113.205   144330642.139        -743.622          39.000    27465109.560   117151498.953          38.000    27465121.086   109185197.988          43.000  
E36  27546968.644   144760816.196       -3156.185          39.000    27546966.607   117499811.252          34.000    27546979.133   109509821.219          39.000  
J02  37331392.257   196178479.065         423.693          42.000    37331402.085   152866358.942          43.000    37331399.012   146496929.357          32.000  
J03  37230126.914   195645328.240        -411.117          40.000    37230137.260   152450894.633          44.000    37230134.365   146098771.668          31.000  
C06  37458501.801   195056787.304         412.817          42.000    37458498.156   150830296.600          44.000    37458489.221   158499630.105          43.000  
C09  39170998.486   203973255.907         462.915          38.000    39170998.218   157725073.598          42.000    39170987.551   165744989.823          40.000  
C13  36275265.384   188894758.066         251.347          49.000    36275267.796   146065411.417          48.000    36275257.611   153492465.230          48.000  
C14  25615392.859   133386452.319       -2211.924          33.000    25615393.306   103142865.396          39.000    25615385.104   108387418.171          38.000  
C16  37271369.048   194081659.870         269.218          45.000    37271370.692   150076269.510          45.000    37271362.311   157707261.754          42.000  
C23  24290681.133   126488359.253        3052.534          42.000                                                    24290664.908   102781886.194          45.000  
C24  25152620.062   130976417.630       -2226.651          40.000                                                    25152610.949   106428915.093          41.000  
C25  22468629.628   116999440.766         761.601          50.000                                                    22468622.856    95072297.222          50.000  
C27  25190413.439   131173200.903       -2171.338          41.000                                                    25190407.953   106588397.917          39.000  
C30  25797370.488   134333190.173        -346.177          37.000                                                    25797368.058   109156707.396          38.000  
C32  24880487.869   129559518.953        2262.583          41.000                                                    24880480.185   105276863.731          44.000  
C33  23735561.940   123596936.204       -1625.425          45.000                                                    23735568.391   100432346.638          46.000  
C38  35855509.311   186708274.223        -449.693          50.000                                                    35855498.644   151715767.771          51.000  
C39  36813565.912   191697951.028         169.287          48.000                                                    36813557.675   155770304.365          49.000  
C41  21984192.178   114477656.788         525.263          51.000                                                    21984192.357    93022488.941          52.000  
> 2022 08 25 07 16 52.0000000  0 41                     
G02  23975490.044   125991880.424       -3286.098          39.000    23975499.372    98175980.020          26.000                                                  
G05  21094653.399   110853883.039       -1766.303          49.000    21094661.493    86379659.006          44.000                                                  
G13  21267892.147   111763924.862       -1943.955          49.000    21267899.419    87088794.077          40.000                                                  
G14  24348247.280   127950995.481        -163.750          39.000    24348256.268    99702074.629          19.000    24348256.143    95547821.986          30.000  
G15  20254589.280   106438408.555          33.462          51.000    20254597.017    82939041.369          56.000                                                  
G18  21589317.166   113452342.676         383.472          46.000    21589325.046    88404145.518          39.000    21589325.725    84721452.417          39.000  
G20  23455896.596   123261404.196       -3213.691          38.000    23455906.584    96047847.279          23.000                                                  
G23  23533967.786   123671263.469        3167.573          40.000    23533976.453    96367363.572          30.000    23533976.417    92351990.036          34.000  
G24  21021005.631   110466518.064        2621.880          48.000    21021016.620    86077821.119          53.000    21021012.278    82491247.512          40.000  
R03  20563599.795   110077821.808        -838.553          52.000    20563605.281    85616773.105          49.000  
R04  20717952.684   110943917.251        1491.769          51.000    20717957.347    86290009.822          49.000  
R13  20642886.491   110231631.400        -873.202          40.000    20642893.174    85735691.970          45.000  
R14  20851176.024   111147992.189        3249.360          51.000    20851182.922    86448881.550          50.000  
R18  23096836.698   123292925.228       -4006.336          43.000    23096845.240    95893690.741          40.000  
R19  21541585.128   115232971.153       -2190.520          36.000    21541591.292    89626019.425          44.000  
R20  23024206.464   123120371.493        1830.844          35.000    23024214.309    95760289.332          40.000  
E03  25142181.211   132123455.042        1214.483          49.000    25142177.191   107243105.611          48.000    25142187.108    99950580.053          50.000  
E05  23868419.252   125429367.010        -559.492          53.000    23868413.373   101809570.404          52.000    23868424.737    94886528.438          54.000  
E09  26955348.917   141651669.608       -1807.832          42.000    26955346.093   114977011.095          44.000    26955355.939   107158576.807          44.000  
E15  25343531.203   133180561.351         635.396          46.000    25343527.379   108102104.790          47.000    25343537.689   100750927.710          49.000  
E24  26054041.277   136914783.451        1434.839          43.000    26054039.044   111132138.507          46.000    26054046.709   103575278.483          47.000  
E25  27215745.486   143020194.823        2838.809          40.000    27215743.145   116087825.804          41.000    27215755.171   108193429.033          42.000  
E31  27465254.728   144331386.024        -744.077          39.000    27465251.190   117152102.752          38.000    27465262.644   109185760.730          43.000  
E36  27547569.401   144763972.510       -3156.396          38.000    27547567.096   117502373.197          34.000    27547579.765   109512208.941          39.000  
J02  37331311.525   196178055.521         423.575          42.000    37331321.514   152866028.914          43.000    37331318.387   146496613.074          32.000  
J03  37230205.591   195645739.339        -411.059          40.000    37230215.258   152451214.968          44.000    37230212.596   146099078.659          30.000  
C06  37458422.498   195056374.549         412.773          42.000    37458418.531   150829977.425          44.000    37458410.008   158499294.705          43.000  
C09  39170909.874   203972793.010         462.911          38.000    39170909.249   157724715.648          42.000    39170898.617   165744613.679          40.000  
C13  36275217.370   188894506.800         251.192          49.000    36275219.603   146065217.117          48.000    36275209.382   153492261.063          48.000  
C14  25615817.802   133388664.450       -2212.163          34.000    25615817.927   103144575.951          39.000    25615809.868   108389215.704          37.000  
C16  37271317.460   194081390.781         269.087          45.000    37271318.782   150076061.436          45.000    37271310.705   157707043.093          42.000  
C23  24290094.868   126485306.919        3052.246          42.000                                                    24290078.750   102779405.927          45.000  
C24  25153047.489   130978644.556       -2227.163          40.000                                                    25153038.734   106430724.650          42.000  
C25  22468483.442   116998679.494         760.967          50.000                                                    22468476.633    95071678.626          49.000  
C27  25190830.484   131175372.421       -2171.572          41.000                                                    25190825.016   106590162.451          39.000  
C30  25797437.587   134333536.771        -346.962          37.000                                                    25797434.567   109156989.035          38.000  
C32  24880052.723   129557256.433        2262.569          41.000                                                    24880045.682   105275025.260          44.000  
C33  23735873.701   123598561.863       -1625.761          45.000                                                    23735880.634   100433667.619          46.000  
C38  35855595.869   186708724.011        -449.858          50.000                                                    35855584.987   151716133.264          51.000  
C39  36813533.426   191697781.837         169.185          48.000                                                    36813525.207   155770166.883          49.000  
C41  21984091.200   114477131.697         525.005          51.000                                                    21984091.504    93022062.259          52.000  
> 2022 08 25 07 16 53.0000000  0 41                     
G02  23976115.478   125995166.613       -3286.281          39.000    23976124.627    98178540.684          26.000                                                  
G05  21094989.658   110855649.627       -1766.813          49.000    21094997.627    86381035.566          44.000                                                  
G13  21268262.089   111765868.901       -1944.152          48.000    21268269.237    87090308.906          39.000                                                  
G14  24348278.194   127951159.560        -164.377          39.000    24348287.593    99702202.493          19.000    24348287.396    95547944.511          30.000  
G15  20254583.026   106438375.255          33.177          51.000    20254590.656    82939015.425          56.000                                                  
G18  21589243.760   113451959.593         382.733          46.000    21589252.140    88403847.009          39.000    21589252.855    84721166.346          39.000  
G20  23456507.948   123264618.021       -3214.040          38.000    23456518.241    96050351.563          23.000                                                  
G23  23533363.939   123668095.990        3167.420          40.000    23533373.838    96364895.407          30.000    23533373.838    92349624.711          34.000  
G24  21020506.888   110463896.522        2621.316          48.000    21020517.771    86075778.364          53.000    21020513.500    82489289.875          40.000  
R03  20563756.471   110078660.519        -838.816          52.000    20563762.028    85617425.432          49.000  
R04  20717673.587   110942425.571        1491.599          51.000    20717678.894    86288849.626          49.000  
R13  20643051.154   110232505.002        -874.027          40.000    20643056.836    85736371.431          45.000  
R14  20850566.190   111144743.151        3248.779          51.000    20850573.445    86446354.525          50.000  
R18  23097586.643   123296931.734       -4006.634          42.000    23097595.882    95896806.912          40.000  
R19  21541995.382   115235162.260       -2191.500          37.000    21542000.904    89627723.621          44.000  
R20  23023864.022   123118541.117        1829.907          35.000    23023871.920    95758865.699          39.000  
E03  25141950.344   132122240.670        1214.281          49.000    25141946.037   107242119.922          48.000    25141956.026    99949661.393          50.000  
E05  23868525.858   125429926.591        -559.626          52.000    23868519.979   101810024.605          52.000    23868531.219    94886951.752          54.000  
E09  26955693.021   141653477.510       -1807.917          42.000    26955690.179   114978478.555          43.000    26955699.972   107159944.482          44.000  
E15  25343410.354   133179926.175         634.906          46.000    25343406.566   108101589.222          47.000    25343416.823   100750447.203          48.000  
E24  26053768.399   136913348.905        1434.373          43.000    26053765.934   111130974.102          46.000    26053773.707   103574193.256          47.000  
E25  27215205.055   143017356.061        2838.695          40.000    27215202.929   116085521.614          41.000    27215214.937   108191281.532          42.000  
E31  27465396.269   144332130.415        -744.606          39.000    27465392.873   117152706.972          38.000    27465404.274   109186323.864          43.000  
E36  27548170.282   144767128.738       -3156.232          39.000    27548167.888   117504935.071          34.000    27548180.414   109514596.602          39.000  
J02  37331231.114   196177632.054         423.416          41.000    37331241.067   152865698.942          44.000    37331237.726   146496296.851          32.000  
J03  37230283.857   195646150.531        -411.222          40.000    37230293.667   152451535.384          43.000    37230290.826   146099385.714          30.000  
C06  37458343.303   195055961.933         412.482          42.000    37458339.532   150829658.368          44.000    37458330.705   158498959.423          43.000  
C09  39170821.601   203972330.238         462.702          38.000    39170820.529   157724357.803          42.000    39170809.700   165744237.634          40.000  
C13  36275168.909   188894255.731         250.963          49.000    36275171.482   146065022.970          48.000    36275161.154   153492057.044          48.000  
C14  25616242.370   133390876.790       -2212.347          34.000    25616242.906   103146286.671          38.000    25616234.722   108391013.409          38.000  
C16  37271265.854   194081121.824         268.874          45.000    37271267.194   150075853.468          44.000    37271258.992   157706824.548          42.000  
C23  24289508.621   126482254.863        3052.008          42.000                                                    24289492.610   102776925.882          45.000  
C24  25153475.649   130980871.900       -2227.562          40.000                                                    25153466.375   106432534.555          41.000  
C25  22468337.219   116997918.815         760.353          50.000                                                    22468330.590    95071060.519          49.000  
C27  25191247.529   131177544.209       -2171.898          41.000                                                    25191241.990   106591927.202          39.000  
C30  25797504.274   134333883.851        -347.406          37.000                                                    25797501.236   109157271.071          38.000  
C32  24879618.398   129554993.960        2262.433          41.000                                                    24879611.286   105273186.815          44.000  
C33  23736186.123   123600187.758       -1626.009          45.000                                                    23736192.895   100434988.787          46.000  
C38  35855682.033   186709174.027        -450.160          51.000                                                    35855671.473   151716498.936          51.000  
C39  36813500.923   191697612.767         169.001          48.000                                                    36813492.739   155770029.505          49.000  
C41  21983990.454   114476606.844         524.748          52.000                                                    21983990.669    93021635.773          52.000  
> 2022 08 25 07 16 54.0000000  0 41                     
G02  23976740.715   125998452.835       -3286.281          38.000    23976750.060    98181101.365          25.000                                                  
G05  21095325.989   110857416.599       -1767.214          49.000    21095334.065    86382412.429          44.000                                                  
G13  21268632.264   111767813.050       -1944.225          48.000    21268639.090    87091823.831          39.000                                                  
G14  24348309.714   127951324.118        -164.831          39.000    24348318.899    99702330.715          19.000    24348318.756    95548067.393          30.000  
G15  20254577.040   106438342.222          32.884          51.000    20254584.366    82938989.681          56.000                                                  
G18  21589170.961   113451577.146         382.068          46.000    21589179.306    88403549.003          39.000    21589180.128    84720880.755          39.000  
G20  23457119.623   123267832.032       -3214.153          38.000    23457129.844    96052855.975          24.000                                                  
G23  23532761.985   123664928.532        3167.381          40.000    23532771.134    96362427.260          30.000    23532771.080    92347259.395          34.000  
G24  21020008.021   110461275.402        2620.896          48.000    21020019.100    86073735.933          53.000    21020014.776    82487332.539          40.000  
R03  20563912.896   110079499.389        -838.968          52.000    20563918.721    85618077.893          49.000  
R04  20717395.367   110940933.998        1491.530          51.000    20717400.298    86287689.510          49.000  
R13  20643215.084   110233379.451        -874.910          40.000    20643220.570    85737051.560          44.000  
R14  20849956.588   111141494.592        3248.296          51.000    20849964.040    86443827.872          49.000  
R18  23098336.696   123300938.276       -4006.570          42.000    23098346.398    95899923.107          39.000  
R19  21542404.494   115237353.997       -2192.052          36.000    21542410.426    89629428.301          44.000  
R20  23023520.955   123116711.482        1829.282          34.000    23023529.675    95757442.649          39.000  
E03  25141719.136   132121026.319        1214.315          49.000    25141714.955   107241134.243          48.000    25141724.944    99948742.744          50.000  
E05  23868632.250   125430486.211        -559.670          53.000    23868626.461   101810478.849          52.000    23868637.736    94887375.105          54.000  
E09  26956037.124   141655285.336       -1807.854          42.000    26956034.426   114979945.946          44.000    26956043.986   107161312.084          44.000  
E15  25343289.667   133179291.442         634.480          46.000    25343285.790   108101074.024          47.000    25343296.046   100749967.034          48.000  
E24  26053495.271   136911914.655        1434.041          43.000    26053493.020   111129809.941          46.000    26053500.793   103573108.262          47.000  
E25  27214665.197   143014517.199        2838.851          41.000    27214662.713   116083217.350          40.000    27214674.721   108189133.956          42.000  
E31  27465538.041   144332875.228        -745.134          39.000    27465534.753   117153311.533          38.000    27465546.029   109186887.307          43.000  
E36  27548770.467   144770284.954       -3156.125          38.000    27548768.448   117507496.923          34.000    27548781.046   109516984.255          40.000  
J02  37331150.257   196177208.534         423.553          42.000    37331160.299   152865368.931          44.000    37331157.119   146495980.588          32.000  
J03  37230361.695   195646561.700        -411.159          40.000    37230371.862   152451855.771          44.000    37230369.057   146099692.750          30.000  
C06  37458264.625   195055549.329         412.608          42.000    37458260.319   150829339.315          44.000    37458251.492   158498624.149          43.000  
C09  39170732.578   203971867.513         462.662          38.000    39170731.631   157724000.006          42.000    39170720.855   165743861.648          40.000  
C13  36275121.109   188894004.735         250.914          49.000    36275123.200   146064828.887          48.000    36275113.014   153491853.094          48.000  
C14  25616667.045   133393089.180       -2212.621          34.000    25616667.832   103147997.428          38.000    25616659.612   108392811.159          38.000  
C16  37271214.230   194080852.893         268.873          45.000    37271215.714   150075645.509          44.000    37271207.297   157706606.015          42.000  
C23  24288922.499   126479202.916        3051.896          42.000                                                    24288906.542   102774445.934          45.000  
C24  25153903.487   130983099.570       -2227.812          40.000                                                    25153894.142   106434344.717          41.000  
C25  22468191.301   116997158.619         759.947          50.000                                                    22468184.564    95070442.795          49.000  
C27  25191664.539   131179716.190       -2172.113          41.000                                                    25191659.035   106593692.114          39.000  
C30  25797570.961   134334231.379        -347.680          37.000                                                    25797568.084   109157553.463          38.000  
C32  24879184.145   129552731.443        2262.511          41.000                                                    24879176.819   105271348.335          44.000  
C33  23736498.116   123601813.778       -1626.122          45.000                                                    23736505.103   100436310.066          46.000  
C38  35855768.466   186709624.156        -450.238          51.000                                                    35855757.780   151716864.707          52.000  
C39  36813468.383   191697443.707         169.015          48.000                                                    36813460.271   155769892.131          49.000  
C41  21983889.602   114476082.119         524.640          51.000                                                    21983889.941    93021209.391          52.000  
> 2022 08 25 07 16 55.0000000  0 41                     
G02  23977365.880   126001739.082       -3286.184          38.000    23977375.315    98183662.070          27.000                                                  
G05  21095662.230   110859183.958       -1767.419          49.000    21095670.253    86383789.593          44.000                                                  
G13  21269002.081   111769757.339       -1944.221          48.000    21269009.175    87093338.860          39.000                                                  
G14  24348341.200   127951489.216        -165.290          40.000    24348350.527    99702459.361          19.000    24348350.170    95548190.685          30.000  
G15  20254570.660   106438309.461          32.713          51.000    20254578.076    82938964.153          56.000                                                  
G18  21589098.592   113451195.319         381.614          46.000    21589106.740    88403251.469          39.000    21589107.490    84720595.622          39.000  
G20  23457731.941   123271046.230       -3214.181          38.000    23457741.697    96055360.543          23.000                                                  
G23  23532158.816   123661761.071        3167.562          41.000    23532168.447    96359959.124          30.000    23532168.394    92344894.104          34.000  
G24  21019509.475   110458654.737        2620.540          48.000    21019520.340    86071693.863          54.000    21019516.087    82485375.551          40.000  
R03  20564070.429   110080338.460        -839.043          52.000    20564075.469    85618730.503          49.000  
R04  20717117.360   110939442.495        1491.552          51.000    20717121.774    86286529.456          49.000  
R13  20643379.175   110234254.762        -875.747          40.000    20643384.554    85737732.353          44.000  
R14  20849347.612   111138246.522        3247.923          51.000    20849354.635    86441301.591          50.000  
R18  23099088.285   123304944.852       -4006.430          42.000    23099097.076    95903039.325          40.000  
R19  21542814.731   115239546.425       -2192.811          37.000    21542820.449    89631133.525          43.000  
R20  23023179.013   123114882.575        1828.621          34.000    23023187.680    95756020.159          40.000  
E03  25141488.143   132119812.024        1214.348          49.000    25141483.819   107240148.619          48.000    25141493.879    99947824.138          50.000  
E05  23868738.768   125431045.875        -559.621          52.000    23868732.960   101810933.122          51.000    23868744.235    94887798.487          54.000  
E09  26956381.139   141657093.138       -1807.658          42.000    26956378.333   114981413.309          44.000    26956387.983   107162679.670          44.000  
E15  25343168.694   133178657.147         634.163          45.000    25343165.031   108100559.174          47.000    25343175.359   100749487.196          48.000  
E24  26053222.608   136910480.734        1433.909          43.000    26053220.088   111128646.049          46.000    26053227.915   103572023.512          47.000  
E25  27214124.676   143011678.305        2838.919          40.000    27214122.550   116080913.065          39.000    27214134.504   108186986.367          42.000  
E31  27465679.689   144333620.398        -745.305          39.000    27465676.419   117153916.372          38.000    27465687.837   109187451.027          43.000  
E36  27549371.045   144773441.089       -3156.086          38.000    27549369.133   117510058.722          34.000    27549381.641   109519371.839          40.000  
J02  37331070.061   196176785.031         423.572          42.000    37331079.907   152865038.929          44.000    37331076.744   146495664.345          32.000  
J03  37230440.211   195646972.869        -411.100          40.000    37230450.182   152452176.170          44.000    37230447.341   146099999.794          31.000  
C06  37458184.804   195055136.809         412.527          42.000    37458181.123   150829020.330          45.000    37458172.225   158498288.940          43.000  
C09  39170643.483   203971404.860         462.590          38.000    39170642.804   157723642.258          42.000    39170631.939   165743485.707          40.000  
C13  36275072.863   188893753.867         250.881          49.000    36275075.114   146064634.902          48.000    36275064.786   153491649.244          48.000  
C14  25617092.417   133395301.636       -2212.532          34.000    25617092.614   103149708.240          38.000    25617084.412   108394608.957          38.000  
C16  37271162.500   194080583.994         268.923          45.000    37271163.983   150075437.579          44.000    37271155.638   157706387.513          42.000  
C23  24288336.395   126476151.157        3051.721          42.000                                                    24288320.527   102771966.133          45.000  
C24  25154331.468   130985327.595       -2228.060          40.000                                                    25154321.962   106436155.170          41.000  
C25  22468045.651   116996398.932         759.538          49.000                                                    22468038.717    95069825.492          49.000  
C27  25192081.637   131181888.318       -2172.195          41.000                                                    25192076.259   106595457.142          39.000  
C30  25797637.720   134334579.338        -348.118          37.000                                                    25797634.879   109157836.208          38.000  
C32  24878749.821   129550468.912        2262.536          41.000                                                    24878742.316   105269509.853          44.000  
C33  23736810.556   123603439.953       -1626.179          45.000                                                    23736817.346   100437631.464          46.000  
C38  35855855.005   186710074.410        -450.276          50.000                                                    35855844.391   151717230.575          51.000  
C39  36813436.219   191697274.669         169.099          48.000                                                    36813427.785   155769754.775          50.000  
C41  21983788.963   114475557.554         524.568          51.000                                                    21983789.124    93020783.139          52.000  
> 2022 08 25 07 16 56.0000000  0 41                     
G02  23977991.529   126005025.553       -3286.685          38.000    23978000.749    98186222.964          25.000                                                  
G05  21095999.097   110860951.890       -1768.267          49.000    21096006.780    86385167.197          44.000                                                  
G13  21269372.452   111771701.954       -1944.815          48.000    21269379.225    87094854.144          39.000                                                  
G14  24348373.060   127951655.013        -166.250          39.000    24348382.084    99702588.566          19.000    24348381.727    95548314.501          30.000  
G15  20254564.460   106438277.150          32.016          51.000    20254571.876    82938938.980          56.000                                                  
G18  21589026.258   113450814.330         380.512          46.000    21589034.299    88402954.599          39.000    21589034.996    84720311.122          39.000  
G20  23458343.455   123274260.845       -3214.800          38.000    23458353.461    96057865.440          23.000                                                  
G23  23531556.219   123658593.835        3167.090          40.000    23531565.743    96357491.147          31.000    23531565.582    92342528.959          35.000  
G24  21019010.751   110456034.715        2619.634          48.000    21019021.776    86069652.285          53.000    21019017.487    82483419.045          40.000  
R03  20564226.515   110081177.913        -839.687          52.000    20564232.287    85619383.416          50.000  
R04  20716838.782   110937951.233        1491.089          51.000    20716843.285    86285369.586          49.000  
R13  20643543.445   110235131.110        -876.977          40.000    20643548.717    85738413.962          45.000  
R14  20848738.332   111134999.157        3246.962          51.000    20848745.426    86438775.867          49.000  
R18  23099838.569   123308951.656       -4007.015          42.000    23099847.700    95906155.724          40.000  
R19  21543225.147   115241739.623       -2193.635          37.000    21543230.418    89632839.348          43.000  
R20  23022837.929   123113054.573        1827.464          35.000    23022845.684    95754598.380          40.000  
E03  25141257.133   132118597.958        1213.906          49.000    25141252.951   107239163.175          48.000    25141262.833    99946905.704          50.000  
E05  23868845.321   125431605.774        -560.073          52.000    23868839.531   101811387.585          51.000    23868850.771    94888222.049          54.000  
E09  26956725.189   141658901.081       -1808.003          41.000    26956722.419   114982880.795          44.000    26956731.997   107164047.369          44.000  
E15  25343048.310   133178023.497         633.252          46.000    25343044.504   108100044.840          47.000    25343054.761   100749007.839          48.000  
E24  26052949.766   136909047.327        1433.218          44.000    26052947.336   111127482.568          46.000    26052955.144   103570939.147          47.000  
E25  27213584.675   143008839.552        2838.716          41.000    27213582.405   116078608.882          40.000    27213594.288   108184838.866          42.000  
E31  27465821.623   144334366.200        -746.138          39.000    27465818.353   117154521.728          38.000    27465829.735   109188015.225          43.000  
E36  27549971.516   144776597.355       -3156.328          39.000    27549969.675   117512620.610          35.000    27549982.291   109521759.521          40.000  
J02  37330988.971   196176361.702         423.174          41.000    37330999.300   152864709.069          44.000    37330996.119   146495348.227          32.000  
J03  37230518.692   195647384.208        -411.504          41.000    37230528.431   152452496.691          44.000    37230525.607   146100306.976          30.000  
C06  37458105.734   195054724.502         412.095          42.000    37458101.964   150828701.515          44.000    37458093.047   158497953.909          43.000  
C09  39170554.709   203970942.379         462.226          38.000    39170554.048   157723284.640          42.000    39170543.077   165743109.908          40.000  
C13  36275024.581   188893503.293         250.381          49.000    36275026.939   146064441.147          48.000    36275016.665   153491445.634          47.000  
C14  25617517.682   133397514.328       -2212.783          35.000    25617517.307   103151419.218          38.000    25617509.248   108396406.934          38.000  
C16  37271111.269   194080315.325         268.540          45.000    37271112.448   150075229.823          44.000    37271104.068   157706169.197          42.000  
C23  24287750.470   126473099.750        3051.147          42.000                                                    24287734.531   102769486.622          45.000  
C24  25154759.038   130987556.140       -2228.858          39.000                                                    25154749.925   106437966.043          41.000  
C25  22467899.714   116995639.931         758.603          49.000                                                    22467892.924    95069208.736          49.000  
C27  25192498.200   131184060.825       -2172.710          41.000                                                    25192493.465   106597222.484          39.000  
C30  25797704.889   134334927.933        -348.970          38.000                                                    25797701.887   109158119.480          38.000  
C32  24878315.407   129548206.520        2262.304          41.000                                                    24878307.955   105267671.472          44.000  
C33  23737122.710   123605066.458       -1626.729          45.000                                                    23737129.607   100438953.131          46.000  
C38  35855941.438   186710524.989        -450.777          51.000                                                    35855930.931   151717596.706          52.000  
C39  36813403.697   191697105.861         168.657          48.000                                                    36813395.352   155769617.602          49.000  
C41  21983688.271   114475033.318         524.028          51.000                                                    21983688.504    93020357.150          52.000  
> 2022 08 25 07 16 57.0000000  0 41                     
G02  23978617.463   126008311.965       -3286.374          38.000    23978626.075    98188783.784          26.000                                                  
G05  21096335.588   110862720.124       -1768.498          49.000    21096343.218    86386545.035          44.000                                                  
G13  21269742.216   111773646.595       -1944.723          48.000    21269749.381    87096369.444          39.000                                                  
G14  24348404.635   127951821.246        -166.452          39.000    24348413.766    99702718.097          20.000    24348413.337    95548438.630          31.000  
G15  20254558.492   106438245.021          31.956          51.000    20254565.836    82938913.942          56.000                                                  
G18  21588953.674   113450433.885         380.067          46.000    21588961.894    88402658.151          39.000    21588962.483    84720027.028          39.000  
G20  23458954.575   123277475.565       -3214.894          38.000    23458965.314    96060370.399          23.000                                                  
G23  23530954.176   123655426.512        3167.274          41.000    23530963.164    96355023.105          31.000    23530962.842    92340163.757          35.000  
G24  21018512.348   110453415.042        2619.452          48.000    21018523.212    86067610.977          54.000    21018518.995    82481462.796          40.000  
R03  20564383.513   110082017.461        -839.641          52.000    20564389.141    85620036.396          49.000  
R04  20716559.829   110936459.959        1491.193          51.000    20716564.868    86284209.706          49.000  
R13  20643706.982   110236008.228        -877.635          40.000    20643712.986    85739096.160          45.000  
R14  20848129.409   111131752.211        3246.675          52.000    20848136.396    86436250.465          49.000  
R18  23100589.157   123312958.404       -4006.804          42.000    23100598.199    95909272.084          39.000  
R19  21543634.830   115243933.409       -2194.132          38.000    21543640.458    89634545.626          44.000  
R20  23022496.327   123111227.213        1826.943          34.000    23022504.029    95753177.095          40.000  
E03  25141026.265   132117383.850        1214.047          49.000    25141021.816   107238177.701          48.000    25141031.822    99945987.242          50.000  
E05  23868951.784   125432165.622        -559.909          53.000    23868946.013   101811842.005          51.000    23868957.288    94888645.568          55.000  
E09  26957069.257   141660708.886       -1807.780          41.000    26957066.434   114984348.167          44.000    26957076.029   107165414.962          44.000  
E15  25342927.837   133177390.196         633.060          45.000    25342924.049   108099530.802          47.000    25342934.252   100748528.749          49.000  
E24  26052677.031   136907614.180        1432.894          44.000    26052674.690   111126319.305          46.000    26052682.410   103569854.983          47.000  
E25  27213044.512   143006000.682        2838.895          41.000    27213041.921   116076304.616          39.000    27213054.036   108182691.290          42.000  
E31  27465963.288   144335112.313        -746.403          39.000    27465960.179   117155127.344          38.000    27465971.723   109188579.653          43.000  
E36  27550571.951   144779753.445       -3155.997          38.000    27550570.414   117515182.377          35.000    27550582.922   109524147.082          40.000  
J02  37330908.918   196175938.261         423.412          41.000    37330918.960   152864379.115          44.000    37330915.708   146495032.021          32.000  
J03  37230596.726   195647795.463        -411.334          40.000    37230606.661   152452817.147          44.000    37230603.838   146100614.070          30.000  
C06  37458026.717   195054312.165         412.209          42.000    37458022.822   150828382.668          44.000    37458013.816   158497618.854          43.000  
C09  39170465.900   203970479.930         462.228          38.000    39170465.150   157722927.048          42.000    39170454.321   165742734.133          40.000  
C13  36274976.584   188893252.730         250.446          49.000    36274978.818   146064247.393          47.000    36274968.597   153491242.033          47.000  
C14  25617942.215   133399727.067       -2212.845          34.000    25617942.072   103153130.241          38.000    25617934.156   108398204.963          38.000  
C16  37271059.574   194080046.615         268.693          46.000    37271060.896   150075022.041          45.000    37271052.480   157705950.848          42.000  
C23  24287164.366   126470048.404        3051.213          43.000                                                    24287148.641   102767007.154          45.000  
C24  25155187.287   130989784.927       -2228.958          40.000                                                    25155178.013   106439777.112          41.000  
C25  22467753.921   116994881.331         758.342          49.000                                                    22467747.345    95068592.317          50.000  
C27  25192915.620   131186233.431       -2172.747          41.000                                                    25192910.706   106598987.899          39.000  
C30  25797771.970   134335276.886        -349.393          37.000                                                    25797768.878   109158403.040          38.000  
C32  24877880.975   129545943.998        2262.477          41.000                                                    24877873.434   105265832.994          44.000  
C33  23737435.185   123606693.019       -1626.644          45.000                                                    23737442.083   100440274.845          46.000  
C38  35856027.817   186710975.595        -450.711          50.000                                                    35856017.435   151717962.858          52.000  
C39  36813371.301   191696936.972         168.830          48.000                                                    36813362.974   155769480.366          49.000  
C41  21983587.651   114474509.149         524.069          51.000                                                    21983587.865    93019931.224          52.000  
> 2022 08 25 07 16 58.0000000  0 41                     
G02  23979242.664   126011598.501       -3286.632          37.000    23979251.259    98191344.709          26.000                                                  
G05  21096672.169   110864488.825       -1769.009          49.000    21096679.692    86387923.253          44.000                                                  
G13  21270112.176   111775591.457       -1945.020          48.000    21270119.342    87097884.923          39.000                                                  
G14  24348436.567   127951988.078        -167.213          39.000    24348445.537    99702848.084          20.000    24348445.126    95548563.214          30.000  
G15  20254552.238   106438213.244          31.518          51.000    20254559.850    82938889.178          55.000                                                  
G18  21588881.447   113450054.156         379.301          46.000    21588889.667    88402362.251          40.000    21588890.292    84719743.455          38.000  
G20  23459567.429   123280690.544       -3215.108          38.000    23459577.060    96062875.556          22.000                                                  
G23  23530350.632   123652259.309        3167.118          41.000    23530360.406    96352555.145          31.000    23530360.317    92337798.638          34.000  
G24  21018013.892   110450795.897        2618.774          48.000    21018024.881    86065570.085          54.000    21018020.575    82479506.943          39.000  
R03  20564540.260   110082857.276        -839.965          52.000    20564545.996    85620689.583          50.000  
R04  20716281.215   110934968.856        1490.972          51.000    20716286.344    86283049.960          49.000  
R13  20643871.056   110236886.258        -878.603          40.000    20643877.310    85739779.072          45.000  
R14  20847520.504   111128505.861        3246.073          52.000    20847527.330    86433725.528          49.000  
R18  23101339.764   123316965.286       -4006.996          42.000    23101348.913    95912388.532          40.000  
R19  21544045.299   115246127.949       -2194.954          38.000    21544050.713    89636252.490          43.000  
R20  23022154.457   123109400.645        1826.189          34.000    23022162.373    95751756.440          40.000  
E03  25140795.254   132116169.875        1213.881          49.000    25140790.858   107237192.333          48.000    25140800.794    99945068.882          50.000  
E05  23869058.319   125432725.606        -560.108          53.000    23869052.512   101812296.535          51.000    23869063.859    94889069.190          54.000  
E09  26957413.271   141662516.732       -1807.950          41.000    26957410.448   114985815.577          43.000    26957420.062   107166782.579          44.000  
E15  25342807.454   133176757.405         632.490          46.000    25342803.612   108099017.171          47.000    25342813.851   100748050.049          49.000  
E24  26052404.153   136906181.415        1432.480          43.000    26052401.884   111125156.342          46.000    26052409.764   103568771.110          47.000  
E25  27212504.296   143003161.820        2838.764          40.000    27212501.776   116074000.348          39.000    27212513.820   108180543.717          42.000  
E31  27466105.401   144335858.890        -746.959          39.000    27466102.399   117155733.339          38.000    27466113.817   109189144.442          43.000  
E36  27551172.832   144782909.571       -3156.119          38.000    27551171.135   117517744.157          35.000    27551183.518   109526534.658          40.000  
J02  37330827.864   196175514.914         423.173          41.000    37330838.210   152864049.234          44.000    37330835.280   146494715.885          32.000  
J03  37230674.814   195648206.778        -411.417          41.000    37230685.053   152453137.655          44.000    37230682.104   146100921.226          30.000  
C06  37457947.665   195053899.922         412.084          42.000    37457943.537   150828063.890          44.000    37457934.602   158497283.865          43.000  
C09  39170377.038   203970017.554         462.187          38.000    39170376.162   157722569.504          42.000    39170365.655   165742358.412          40.000  
C13  36274928.427   188893002.348         250.277          49.000    36274930.840   146064053.782          48.000    36274920.529   153491038.580          47.000  
C14  25618367.283   133401939.928       -2212.955          34.000    25618367.158   103154841.361          38.000    25618359.135   108400003.089          38.000  
C16  37271007.879   194079778.021         268.534          46.000    37271009.273   150074814.352          45.000    37271000.856   157705732.596          42.000  
C23  24286578.512   126466997.318        3050.927          43.000                                                    24286562.787   102764527.900          45.000  
C24  25155616.090   130992014.132       -2229.464          39.000                                                    25155606.101   106441588.524          41.000  
C25  22467608.324   116994123.321         757.670          49.000                                                    22467601.748    95067976.369          50.000  
C27  25193332.809   131188406.295       -2173.038          41.000                                                    25193327.930   106600753.525          39.000  
C30  25797838.889   134335626.319        -349.816          37.000                                                    25797835.959   109158686.973          38.000  
C32  24877446.526   129543681.516        2262.397          41.000                                                    24877438.949   105263994.540          44.000  
C33  23737747.197   123608319.801       -1626.998          45.000                                                    23737754.559   100441596.733          46.000  
C38  35856114.392   186711426.407        -450.973          50.000                                                    35856104.082   151718329.179          52.000  
C39  36813338.654   191696768.205         168.700          48.000                                                    36813330.524   155769343.229          49.000  
C41  21983486.995   114473985.194         523.803          51.000                                                    21983487.191    93019505.466          52.000  
> 2022 08 25 07 16 59.0000000  0 41                     
G02  23979867.383   126014885.118       -3286.721          37.000    23979876.550    98193905.709          25.000                                                  
G05  21097008.518   110866257.969       -1769.412          49.000    21097016.487    86389301.802          44.000                                                  
G13  21270482.726   111777536.488       -1945.130          48.000    21270489.534    87099400.535          39.000                                                  
G14  24348467.873   127952155.456        -167.664          39.000    24348477.594    99702978.509          19.000    24348476.986    95548688.204          32.000  
G15  20254546.019   106438181.754          31.276          51.000    20254553.846    82938864.650          56.000                                                  
G18  21588809.364   113449675.101         378.635          46.000    21588817.565    88402066.884          39.000    21588818.084    84719460.395          39.000  
G20  23460178.442   123283905.781       -3215.349          39.000    23460188.931    96065380.938          23.000                                                  
G23  23529748.392   123649092.127        3167.063          41.000    23529757.684    96350087.222          31.000    23529757.684    92335433.536          35.000  
G24  21017515.632   110448177.237        2618.376          48.000    21017526.514    86063529.579          54.000    21017522.261    82477551.452          40.000  
R03  20564697.221   110083697.291        -840.167          52.000    20564703.046    85621342.923          49.000  
R04  20716002.726   110933477.870        1490.858          52.000    20716007.944    86281890.301          48.000  
R13  20644036.255   110237765.174        -879.493          40.000    20644041.848    85740462.673          45.000  
R14  20846911.707   111125260.056        3245.466          52.000    20846918.426    86431201.015          49.000  
R18  23102090.030   123320972.261       -4007.051          42.000    23102099.537    95915505.060          40.000  
R19  21544455.089   115248323.166       -2195.615          38.000    21544461.147    89637959.884          43.000  
R20  23021812.766   123107574.861        1825.260          33.000    23021820.950    95750336.382          39.000  
E03  25140564.226   132114955.987        1213.815          49.000    25140559.830   107236207.033          48.000    25140569.801    99944150.577          50.000  
E05  23869165.015   125433285.669        -560.168          52.000    23869159.244   101812751.134          52.000    23869170.447    94889492.874          54.000  
E09  26957757.179   141664324.567       -1807.903          41.000    26957754.588   114987282.963          43.000    26957764.058   107168150.194          44.000  
E15  25342687.016   133176125.105         632.038          46.000    25342683.318   108098503.943          47.000    25342693.521   100747571.720          49.000  
E24  26052131.758   136904749.032        1432.190          44.000    26052129.167   111123993.695          46.000    26052137.190   103567687.523          47.000  
E25  27211964.276   143000322.967        2838.791          40.000    27211961.578   116071696.079          39.000    27211973.568   108178396.134          42.000  
E31  27466247.692   144336605.927        -747.371          39.000    27466244.422   117156339.690          38.000    27466255.965   109189709.562          43.000  
E36  27551773.053   144786065.708       -3156.277          38.000    27551771.909   117520305.950          35.000    27551784.149   109528922.242          40.000  
J02  37330747.364   196175091.561         423.269          41.000    37330757.710   152863719.351          44.000    37330754.673   146494399.752          33.000  
J03  37230753.509   195648618.115        -411.394          41.000    37230763.319   152453458.170          43.000    37230760.353   146101228.382          30.000  
C06  37457868.380   195053487.792         411.921          42.000    37457864.502   150827745.210          44.000    37457855.514   158496948.981          43.000  
C09  39170287.961   203969555.294         462.233          38.000    39170287.496   157722212.051          42.000    39170276.900   165741982.785          40.000  
C13  36274880.413   188892752.119         250.090          49.000    36274883.004   146063860.285          48.000    36274872.497   153490835.242          47.000  
C14  25618792.405   133404152.902       -2212.952          34.000    25618792.244   103156552.562          38.000    25618784.078   108401801.307          38.000  
C16  37270956.398   194079509.517         268.434          45.000    37270957.560   150074606.728          45.000    37270949.340   157705514.421          42.000  
C23  24285992.533   126463946.408        3050.759          42.000                                                    24285976.844   102762048.791          45.000  
C24  25156044.267   130994243.739       -2229.910          39.000                                                    25156034.243   106443400.257          41.000  
C25  22467462.870   116993365.844         757.180          50.000                                                    22467456.259    95067360.862          50.000  
C27  25193749.729   131190579.374       -2173.231          41.000                                                    25193745.226   106602519.332          40.000  
C30  25797905.916   134335976.240        -350.159          37.000                                                    25797903.146   109158971.313          38.000  
C32  24877011.719   129541419.046        2262.477          41.000                                                    24877004.482   105262156.095          45.000  
C33  23738060.012   123609946.772       -1627.137          45.000                                                    23738066.873   100442918.785          46.000  
C38  35856201.164   186711877.388        -451.117          50.000                                                    35856190.675   151718695.638          51.000  
C39  36813306.525   191696599.487         168.664          48.000                                                    36813298.091   155769206.132          49.000  
C41  21983386.535   114473461.444         523.581          51.000                                                    21983386.678    93019079.873          51.000  
> 2022 08 25 07 17 00.0000000  0 41                     
G02  23980493.496   126018171.818       -3286.746          37.000    23980502.001    98196466.781          25.000                                                  
G05  21097344.795   110868027.547       -1769.964          49.000    21097353.158    86390680.696          44.000                                                  
G13  21270852.829   111779481.699       -1945.452          48.000    21270859.727    87100916.281          39.000                                                  
G14  24348499.734   127952323.421        -168.450          39.000    24348509.669    99703109.377          20.000    24348509.008    95548813.637          32.000  
G15  20254540.515   106438150.620          30.769          51.000    20254547.967    82938840.383          55.000                                                  
G18  21588737.208   113449296.734         377.839          46.000    21588745.500    88401772.056          39.000    21588746.054    84719177.847          39.000  
G20  23460790.599   123287121.267       -3215.715          38.000    23460800.963    96067886.507          23.000                                                  
G23  23529145.348   123645925.047        3166.853          41.000    23529155.158    96347619.363          31.000    23529154.926    92333068.502          34.000  
G24  21017017.140   110445559.072        2617.702          48.000    21017028.272    86061489.446          54.000    21017024.055    82475596.325          40.000  
R03  20564854.290   110084537.500        -840.514          52.000    20564859.954    85621996.424          50.000  
R04  20715724.273   110931987.012        1490.604          52.000    20715729.527    86280730.747          49.000  
R13  20644201.168   110238644.954        -880.412          40.000    20644206.725    85741146.949          45.000  
R14  20846302.445   111122014.786        3244.821          51.000    20846309.646    86428676.921          49.000  
R18  23102841.351   123324979.319       -4007.218          42.000    23102850.286    95918621.649          40.000  
R19  21544865.398   115250519.115       -2196.489          38.000    21544871.741    89639667.837          43.000  
R20  23021472.486   123105749.840        1824.386          34.000    23021479.562    95748916.920          40.000  
E03  25140333.304   132113742.182        1213.557          49.000    25140328.980   107235221.806          48.000    25140338.826    99943232.346          50.000  
E05  23869271.515   125433845.832        -560.383          52.000    23869265.779   101813205.814          52.000    23869277.054    94889916.636          54.000  
E09  26958101.211   141666132.404       -1808.030          41.000    26958098.495   114988750.366          44.000    26958108.090   107169517.809          44.000  
E15  25342566.776   133175493.313         631.345          46.000    25342563.148   108097991.119          47.000    25342573.316   100747093.769          49.000  
E24  26051859.255   136903317.032        1431.624          44.000    26051856.718   111122831.365          46.000    26051864.705   103566604.227          47.000  
E25  27211424.149   142997484.100        2838.582          40.000    27211421.218   116069391.811          39.000    27211433.369   108176248.567          42.000  
E31  27466390.108   144337353.436        -748.011          39.000    27466386.570   117156946.440          38.000    27466398.220   109190275.048          43.000  
E36  27552373.273   144789221.757       -3156.267          38.000    27552372.362   117522867.671          36.000    27552384.763   109531309.761          40.000  
J02  37330667.257   196174668.261         423.147          42.000    37330677.282   152863389.507          43.000    37330673.869   146494083.649          32.000  
J03  37230832.472   195649029.513        -411.575          40.000    37230841.585   152453778.737          43.000    37230838.637   146101535.599          30.000  
C06  37457789.220   195053075.723         411.799          42.000    37457785.325   150827426.572          44.000    37457776.336   158496614.141          43.000  
C09  39170199.437   203969093.115         461.999          38.000    39170198.812   157721854.670          42.000    39170188.180   165741607.230          40.000  
C13  36274832.399   188892502.057         249.806          49.000    36274834.776   146063666.927          48.000    36274824.483   153490632.055          47.000  
C14  25619217.616   133406365.998       -2213.377          34.000    25619217.098   103158263.864          38.000    25619209.093   108403599.619          38.000  
C16  37270904.775   194079241.101         268.215          45.000    37270906.222   150074399.185          44.000    37270897.734   157705296.318          42.000  
C23  24285406.572   126460895.728        3050.466          42.000                                                    24285391.044   102759569.871          46.000  
C24  25156471.712   130996473.723       -2230.403          39.000                                                    25156462.474   106445212.305          41.000  
C25  22467317.649   116992608.916         756.491          49.000                                                    22467310.912    95066745.796          50.000  
C27  25194167.560   131192752.684       -2173.597          41.000                                                    25194162.521   106604285.326          39.000  
C30  25797973.604   134336326.632        -350.838          36.000                                                    25797970.387   109159256.042          38.000  
C32  24876577.090   129539156.602        2262.312          41.000                                                    24876570.086   105260317.678          44.000  
C33  23738372.398   123611573.935       -1627.449          45.000                                                    23738379.331   100444240.993          45.000  
C38  35856287.811   186712328.543        -451.409          50.000                                                    35856277.322   151719062.241          51.000  
C39  36813274.111   191696430.863         168.410          48.000                                                    36813265.695   155769069.113          49.000  
C41  21983285.807   114472937.879         523.298          51.000                                                    21983286.075    93018654.436          52.000  
> 2022 08 25 07 17 01.0000000  0 41                     
G02  23981118.840   126021458.547       -3286.757          37.000    23981127.256    98199027.859          24.000                                                  
G05  21097682.001   110869797.483       -1770.166          49.000    21097689.917    86392059.858          44.000                                                  
G13  21271222.915   111781427.015       -1945.332          48.000    21271229.866    87102432.112          39.000                                                  
G14  24348531.844   127952491.868        -168.789          39.000    24348541.494    99703240.636          20.000    24348541.100    95548939.425          31.000  
G15  20254534.529   106438119.714          30.723          51.000    20254542.124    82938816.298          55.000                                                  
G18  21588665.357   113448918.997         377.349          46.000    21588673.773    88401477.714          39.000    21588674.095    84718895.769          39.000  
G20  23461402.506   123290336.956       -3215.791          39.000    23461412.834    96070392.223          23.000                                                  
G23  23528542.626   123642757.938        3167.037          41.000    23528552.275    96345151.479          31.000    23528552.382    92330703.458          35.000  
G24  21016519.166   110442941.324        2617.461          48.000    21016530.066    86059449.644          54.000    21016525.920    82473641.517          39.000  
R03  20565011.359   110085377.883        -840.513          52.000    20565016.934    85622650.052          50.000  
R04  20715445.624   110930496.265        1490.669          52.000    20715451.110    86279571.273          49.000  
R13  20644364.795   110239525.564        -881.078          40.000    20644371.567    85741831.865          44.000  
R14  20845693.343   111118770.005        3244.496          52.000    20845700.866    86426153.207          49.000  
R18  23103592.172   123328986.386       -4007.133          43.000    23103600.874    95921738.248          39.000  
R19  21545276.135   115252715.707       -2197.044          38.000    21545282.318    89641376.293          43.000  
R20  23021130.616   123103925.549        1823.948          33.000    23021138.460    95747498.026          40.000  
E03  25140102.329   132112528.424        1213.662          49.000    25140098.130   107234236.605          48.000    25140107.851    99942314.139          50.000  
E05  23869378.228   125434406.015        -560.215          52.000    23869372.421   101813660.499          52.000    23869383.625    94890340.404          54.000  
E09  26958445.136   141667940.192       -1807.832          41.000    26958442.545   114990217.719          44.000    26958452.105   107170885.387          44.000  
E15  25342446.642   133174861.940         631.133          46.000    25342442.961   108097478.644          47.000    25342453.165   100746616.142          49.000  
E24  26051586.896   136901885.330        1431.455          44.000    26051584.376   111121669.269          46.000    26051592.238   103565521.151          47.000  
E25  27210883.968   142994645.168        2838.912          41.000    27210880.895   116067087.495          40.000    27210893.099   108174100.935          43.000  
E31  27466532.381   144338101.307        -747.998          38.000    27466528.879   117157553.473          38.000    27466540.511   109190840.814          43.000  
E36  27552974.262   144792377.739       -3156.039          38.000    27552972.904   117525429.342          36.000    27552985.359   109533697.245          40.000  
J02  37330586.400   196174244.926         423.321          41.000    37330596.657   152863059.635          43.000    37330593.351   146493767.524          32.000  
J03  37230910.256   195649440.872        -411.396          41.000    37230919.798   152454099.282          44.000    37230916.885   146101842.774          30.000  
C06  37457710.257   195052663.706         411.930          42.000    37457706.254   150827107.974          44.000    37457697.266   158496279.348          43.000  
C09  39170110.861   203968630.939         462.237          38.000    39170110.074   157721497.277          42.000    39170099.335   165741231.667          40.000  
C13  36274784.278   188892252.073         249.928          49.000    36274786.690   146063473.619          48.000    36274776.398   153490428.920          47.000  
C14  25619641.916   133408579.152       -2213.276          34.000    25619642.077   103159975.217          38.000    25619634.143   108405397.986          38.000  
C16  37270853.133   194078972.699         268.331          46.000    37270854.616   150074191.631          44.000    37270846.271   157705078.210          42.000  
C23  24284820.558   126457845.185        3050.436          42.000                                                    24284805.172   102757091.057          46.000  
C24  25156900.176   130998703.981       -2230.424          40.000                                                    25156890.759   106447024.567          41.000  
C25  22467172.248   116991852.462         756.207          49.000                                                    22467165.637    95066131.113          49.000  
C27  25194584.587   131194926.170       -2173.637          40.000                                                    25194579.923   106606051.453          39.000  
C30  25798040.934   134336677.493        -351.064          36.000                                                    25798037.879   109159541.145          38.000  
C32  24876142.855   129536894.082        2262.569          40.000                                                    24876135.600   105258479.198          44.000  
C33  23738685.159   123613201.234       -1627.377          45.000                                                    23738692.003   100445563.305          45.000  
C38  35856374.583   186712779.798        -451.381          50.000                                                    35856364.005   151719428.922          51.000  
C39  36813241.589   191696262.247         168.561          48.000                                                    36813233.388   155768932.096          49.000  
C41  21983185.401   114472414.445         523.292          51.000                                                    21983185.598    93018229.103          52.000  
> 2022 08 25 07 17 02.0000000  0 41                     
G02  23981744.113   126024745.425       -3287.042          37.000    23981752.833    98201589.061          26.000                                                  
G05  21098018.832   110871567.935       -1770.851          49.000    21098026.731    86393439.436          44.000                                                  
G13  21271592.839   111783372.602       -1945.900          48.000    21271600.112    87103948.153          39.000                                                  
G14  24348564.598   127952660.977        -169.665          39.000    24348573.640    99703372.416          19.000    24348573.265    95549065.701          31.000  
G15  20254528.901   106438089.199          30.233          51.000    20254536.227    82938792.522          56.000                                                  
G18  21588593.631   113448542.002         376.508          46.000    21588601.994    88401183.949          39.000    21588602.387    84718614.252          39.000  
G20  23462014.306   123293552.939       -3216.241          39.000    23462024.580    96072898.208          23.000                                                  
G23  23527940.029   123639590.993        3166.805          41.000    23527949.642    96342683.735          32.000    23527949.678    92328338.534          35.000  
G24  21016020.906   110440324.160        2616.762          48.000    21016032.056    86057410.298          54.000    21016027.928    82471687.146          40.000  
R03  20565168.624   110086218.597        -840.988          52.000    20565174.020    85623303.939          50.000  
R04  20715167.636   110929005.712        1490.334          51.000    20715172.818    86278411.958          48.000  
R13  20644530.762   110240407.124        -882.116          40.000    20644536.552    85742517.526          45.000  
R14  20845085.064   111115525.863        3243.684          52.000    20845092.337    86423629.986          49.000  
R18  23104341.670   123332993.599       -4007.423          42.000    23104351.516    95924854.962          39.000  
R19  21545687.337   115254913.066       -2197.837          38.000    21545692.912    89643085.347          44.000  
R20  23020789.692   123102102.104        1822.823          34.000    23020797.412    95746079.798          40.000  
E03  25139871.122   132111314.824        1213.402          49.000    25139867.048   107233251.541          49.000    25139876.929    99941396.061          50.000  
E05  23869484.835   125434966.374        -560.587          52.000    23869479.010   101814115.343          52.000    23869490.285    94890764.319          54.000  
E09  26958789.293   141669748.032       -1807.990          42.000    26958786.452   114991685.121          44.000    26958796.137   107172252.997          44.000  
E15  25342326.616   133174231.139         630.336          46.000    25342322.917   108096966.632          47.000    25342333.138   100746138.945          49.000  
E24  26051314.661   136900454.097        1430.819          44.000    26051311.802   111120507.551          46.000    26051319.897   103564438.437          47.000  
E25  27210343.806   142991806.312        2838.622          41.000    27210340.661   116064783.231          39.000    27210352.883   108171953.370          43.000  
E31  27466674.690   144338849.715        -748.854          38.000    27466671.295   117158160.947          38.000    27466682.928   109191406.973          43.000  
E36  27553574.572   144795533.814       -3156.315          38.000    27553573.553   117527991.082          36.000    27553585.972   109536084.780          40.000  
J02  37330505.846   196173821.699         423.114          41.000    37330516.103   152862729.855          44.000    37330512.619   146493451.489          31.000  
J03  37230987.539   195649852.341        -411.632          40.000    37230998.100   152454419.907          44.000    37230995.187   146102150.040          30.000  
C06  37457631.258   195052251.849         411.611          42.000    37457627.345   150826789.492          45.000    37457618.142   158495944.676          43.000  
C09  39170022.105   203968168.984         461.801          38.000    39170021.373   157721140.071          42.000    39170010.526   165740856.291          40.000  
C13  36274736.550   188892002.316         249.555          49.000    36274738.641   146063280.494          48.000    36274728.473   153490225.983          47.000  
C14  25620067.181   133410792.507       -2213.482          34.000    25620067.056   103161686.726          39.000    25620059.265   108407196.518          38.000  
C16  37270801.706   194078704.477         267.958          45.000    37270803.011   150073984.229          44.000    37270794.809   157704860.258          43.000  
C23  24284235.097   126454794.932        3049.956          41.000                                                    24284219.444   102754612.477          46.000  
C24  25157328.872   131000934.728       -2231.055          39.000                                                    25157319.115   106448837.227          41.000  
C25  22467027.009   116991096.642         755.410          50.000                                                    22467020.523    95065516.949          49.000  
C27  25195002.025   131197099.936       -2173.961          40.000                                                    25194997.469   106607817.815          39.000  
C30  25798108.944   134337028.876        -351.910          36.000                                                    25798105.245   109159826.673          38.000  
C32  24875708.459   129534631.658        2262.372          41.000                                                    24875701.187   105256640.798          44.000  
C33  23738997.760   123614828.804       -1627.862          45.000                                                    23739004.586   100446885.834          45.000  
C38  35856460.926   186713231.316        -451.744          51.000                                                    35856450.616   151719795.816          51.000  
C39  36813209.336   191696093.765         168.281          48.000                                                    36813201.027   155768795.198          49.000  
C41  21983084.817   114471891.285         522.880          51.000                                                    21983085.067    93017803.995          52.000  
> 2022 08 25 07 17 03.0000000  0 41                     
G02  23982370.208   126028032.307       -3286.998          38.000    23982378.392    98204150.240          25.000                                                  
G05  21098355.717   110873338.775       -1771.202          49.000    21098363.615    86394819.311          44.000                                                  
G13  21271963.318   111785318.288       -1945.894          48.000    21271970.340    87105464.270          39.000                                                  
G14  24348596.351   127952830.564        -169.981          38.000    24348605.894    99703504.558          19.000    24348605.554    95549192.343          32.000  
G15  20254522.950   106438058.951          29.946          50.000    20254530.687    82938768.954          55.000                                                  
G18  21588522.226   113448165.624         375.952          46.000    21588530.428    88400890.670          39.000    21588530.839    84718333.186          39.000  
G20  23462626.409   123296769.120       -3216.451          39.000    23462636.648    96075404.313          24.000                                                  
G23  23527337.271   123636424.033        3166.840          41.000    23527346.956    96340215.979          31.000    23527346.992    92325973.598          35.000  
G24  21015522.968   110437707.397        2616.406          48.000    21015534.082    86055371.265          53.000    21015529.919    82469733.075          40.000  
R03  20565325.407   110087059.503        -841.173          52.000    20565331.232    85623957.972          49.000  
R04  20714889.683   110927515.198        1490.374          51.000    20714894.525    86277252.672          48.000  
R13  20644696.087   110241289.514        -883.014          40.000    20644701.662    85743203.834          45.000  
R14  20844475.998   111112282.240        3243.206          51.000    20844483.789    86421107.170          49.000  
R18  23105093.205   123337000.883       -4007.481          43.000    23105102.247    95927971.723          40.000  
R19  21546098.485   115257111.076       -2198.442          37.000    21546103.846    89644794.909          44.000  
R20  23020449.198   123100279.435        1821.993          35.000    23020456.471    95744662.169          40.000  
E03  25139640.415   132110101.265        1213.398          49.000    25139636.144   107232266.507          48.000    25139645.990    99940478.014          50.000  
E05  23869591.370   125435526.754        -560.553          52.000    23869585.581   101814570.197          51.000    23869596.910    94891188.241          54.000  
E09  26959133.147   141671555.831       -1807.877          42.000    26959130.574   114993152.489          44.000    26959140.152   107173620.586          43.000  
E15  25342206.786   133173600.752         629.989          45.000    25342203.052   108096454.950          47.000    25342213.166   100745662.061          48.000  
E24  26051042.140   136899023.157        1430.590          43.000    26051039.532   111119346.072          46.000    26051047.591   103563355.938          47.000  
E25  27209803.679   142988967.403        2838.803          41.000    27209800.337   116062478.920          39.000    27209812.649   108169805.757          42.000  
E31  27466817.285   144339598.518        -749.176          38.000    27466813.657   117158768.740          38.000    27466825.433   109191973.440          43.000  
E36  27554175.257   144798689.775       -3156.099          38.000    27554174.310   117530552.729          36.000    27554186.550   109538472.229          40.000  
J02  37330425.436   196173398.452         423.193          42.000    37330435.621   152862400.052          44.000    37330432.119   146493135.428          32.000  
J03  37231066.360   195650263.794        -411.568          40.000    37231076.384   152454740.520          44.000    37231073.454   146102457.296          29.000  
C06  37457551.955   195051840.001         411.777          41.000    37457548.095   150826471.029          44.000    37457539.143   158495610.014          43.000  
C09  39169933.207   203967707.041         461.821          38.000    39169932.599   157720782.874          42.000    39169921.753   165740480.919          40.000  
C13  36274688.339   188891752.669         249.463          49.000    36274690.787   146063087.446          48.000    36274680.513   153490023.116          47.000  
C14  25620492.356   133413005.918       -2213.716          34.000    25620492.231   103163398.269          39.000    25620484.280   108408995.093          38.000  
C16  37270750.225   194078436.262         268.027          45.000    37270751.441   150073776.828          45.000    37270743.310   157704642.309          43.000  
C23  24283649.368   126451744.834        3049.849          42.000                                                    24283633.769   102752134.025          46.000  
C24  25157756.942   131003165.811       -2231.328          39.000                                                    25157747.596   106450650.172          42.000  
C25  22466882.163   116990341.311         754.917          50.000                                                    22466875.480    95064903.178          50.000  
C27  25195419.607   131199273.888       -2174.072          40.000                                                    25195414.979   106609584.329          39.000  
C30  25798176.006   134337380.667        -352.236          36.000                                                    25798172.808   109160112.535          38.000  
C32  24875274.153   129532369.203        2262.388          41.000                                                    24875266.773   105254802.368          44.000  
C33  23739310.289   123616456.496       -1627.920          45.000                                                    23739317.151   100448208.472          45.000  
C38  35856547.913   186713682.937        -451.816          51.000                                                    35856537.352   151720162.790          51.000  
C39  36813176.886   191695925.306         168.276          48.000                                                    36813168.737   155768658.304          49.000  
C41  21982984.679   114471368.264         522.764          51.000                                                    21982984.679    93017378.993          52.000  
> 2022 08 25 07 17 04.0000000  0 41                     
G02  23982995.874   126031319.323       -3286.955          38.000    23983004.040    98206711.554          26.000                                                  
G05  21098692.906   110875110.067       -1771.438          49.000    21098700.947    86396199.541          44.000                                                  
G13  21272333.492   111787264.179       -1945.847          48.000    21272340.694    87106980.549          39.000                                                  
G14  24348628.784   127953000.754        -170.339          39.000    24348638.344    99703637.189          19.000    24348637.951    95549319.435          31.000  
G15  20254517.339   106438029.048          29.895          51.000    20254524.791    82938745.654          55.000                                                  
G18  21588450.822   113447789.976         375.408          46.000    21588459.006    88400597.960          39.000    21588459.256    84718052.676          39.000  
G20  23463238.370   123299985.555       -3216.477          38.000    23463248.591    96077910.614          22.000                                                  
G23  23526734.656   123633257.168        3166.961          41.000    23526744.270    96337748.294          31.000    23526744.341    92323608.734          35.000  
G24  21015025.583   110435091.199        2616.086          49.000    21015036.376    86053332.664          53.000    21015032.052    82467779.417          40.000  
R03  20565482.493   110087900.675        -841.175          52.000    20565488.336    85624612.215          49.000  
R04  20714610.980   110926024.830        1490.422          51.000    20714616.162    86276093.502          48.000  
R13  20644861.983   110242172.849        -883.744          40.000    20644867.147    85743890.867          45.000  
R14  20843868.219   111109039.233        3242.842          51.000    20843875.438    86418584.831          49.000  
R18  23105844.115   123341008.266       -4007.302          43.000    23105853.175    95931088.567          39.000  
R19  21546509.116   115259309.836       -2199.118          37.000    21546514.869    89646505.055          44.000  
R20  23020108.204   123098457.489        1821.693          34.000    23020115.887    95743245.092          40.000  
E03  25139409.547   132108887.812        1213.494          49.000    25139405.062   107231281.561          48.000    25139415.087    99939560.042          50.000  
E05  23869698.120   125436087.257        -560.437          52.000    23869692.384   101815025.146          52.000    23869703.570    94891612.255          54.000  
E09  26959477.161   141673363.669       -1807.722          42.000    26959474.588   114994619.889          42.000    26959484.166   107174988.198          43.000  
E15  25342086.742   133172970.887         629.705          46.000    25342083.329   108095943.694          47.000    25342093.354   100745185.573          49.000  
E24  26050769.906   136897592.660        1430.432          43.000    26050767.118   111118184.959          46.000    26050775.374   103562273.779          47.000  
E25  27209263.409   142986128.524        2838.987          41.000    27209260.103   116060174.635          39.000    27209272.415   108167658.163          42.000  
E31  27466960.040   144340347.806        -749.406          38.000    27466956.181   117159376.923          38.000    27466968.010   109192540.271          43.000  
E36  27554775.817   144801845.760       -3155.813          38.000    27554774.816   117533114.395          36.000    27554787.146   109540859.706          40.000  
J02  37330344.453   196172975.261         423.342          42.000    37330355.175   152862070.295          44.000    37330351.440   146492819.410          32.000  
J03  37231144.858   195650675.321        -411.501          40.000    37231154.579   152455061.186          44.000    37231151.720   146102764.599          30.000  
C06  37457473.046   195051428.298         411.783          41.000    37457469.150   150826152.677          44.000    37457460.180   158495275.469          43.000  
C09  39169845.113   203967245.278         461.773          38.000    39169843.790   157720425.812          42.000    39169833.140   165740105.709          40.000  
C13  36274640.700   188891503.191         249.537          49.000    36274642.934   146062894.536          47.000    36274632.552   153489820.401          47.000  
C14  25620917.264   133415219.497       -2213.495          34.000    25620917.425   103165109.953          39.000    25620909.312   108410793.808          38.000  
C16  37270698.852   194078168.171         268.165          45.000    37270700.031   150073569.518          45.000    37270691.812   157704424.463          43.000  
C23  24283063.765   126448694.945        3049.923          42.000                                                    24283047.968   102749655.747          46.000  
C24  25158185.298   131005397.302       -2231.630          39.000                                                    25158175.970   106452463.436          42.000  
C25  22466736.905   116989586.537         754.610          49.000                                                    22466730.508    95064289.861          50.000  
C27  25195837.509   131201448.078       -2174.198          40.000                                                    25195832.470   106611351.037          39.000  
C30  25798243.712   134337732.979        -352.406          36.000                                                    25798240.442   109160398.821          38.000  
C32  24874839.525   129530106.759        2262.618          41.000                                                    24874832.305   105252963.944          45.000  
C33  23739623.140   123618084.418       -1627.933          45.000                                                    23739629.752   100449531.292          45.000  
C38  35856634.595   186714134.758        -451.786          50.000                                                    35856624.142   151720529.934          51.000  
C39  36813144.471   191695756.943         168.438          48.000                                                    36813136.341   155768521.500          49.000  
C41  21982884.076   114470845.452         522.789          51.000                                                    21982884.255    93016954.171          52.000  
> 2022 08 25 07 17 05.0000000  0 41                     
G02  23983620.843   126034606.419       -3287.218          38.000    23983629.491    98209272.920          25.000                                                  
G05  21099030.183   110876881.805       -1771.939          49.000    21099038.046    86397580.113          44.000                                                  
G13  21272703.774   111789210.276       -1946.207          48.000    21272711.029    87108496.983          39.000                                                  
G14  24348660.787   127953171.524        -170.928          39.000    24348671.008    99703770.261          20.000    24348670.419    95549446.958          31.000  
G15  20254511.568   106437999.475          29.448          50.000    20254519.090    82938722.605          56.000                                                  
G18  21588378.935   113447415.021         374.550          46.000    21588387.655    88400305.780          40.000    21588387.976    84717772.666          39.000  
G20  23463850.544   123303202.291       -3216.812          38.000    23463860.658    96080417.159          23.000                                                  
G23  23526131.988   123630090.396        3166.684          41.000    23526141.726    96335280.691          32.000    23526141.941    92321243.932          35.000  
G24  21014527.574   110432475.470        2615.434          48.000    21014538.581    86051294.436          53.000    21014534.203    82465826.113          40.000  
R03  20565639.651   110088742.062        -841.511          52.000    20565645.405    85625266.627          49.000  
R04  20714332.866   110924534.606        1490.139          51.000    20714337.905    86274934.429          48.000  
R13  20645026.842   110243057.064        -884.671          40.000    20645032.650    85744578.597          45.000  
R14  20843259.940   111105796.806        3242.139          51.000    20843267.195    86416062.946          49.000  
R18  23106594.311   123345015.739       -4007.531          43.000    23106604.049    95934205.481          39.000  
R19  21546920.550   115261509.268       -2199.639          37.000    21546926.053    89648215.718          44.000  
R20  23019766.834   123096636.424        1820.551          34.000    23019775.214    95741828.710          40.000  
E03  25139178.537   132107674.485        1213.300          49.000    25139174.266   107230296.720          48.000    25139184.201    99938642.166          50.000  
E05  23869804.744   125436647.863        -560.689          53.000    23869799.044   101815480.185          52.000    23869810.248    94892036.352          55.000  
E09  26959821.069   141675171.491       -1807.837          42.000    26959818.585   114996087.273          43.000    26959828.198   107176355.811          44.000  
E15  25341966.931   133172341.530         629.091          46.000    25341963.500   108095432.861          47.000    25341973.596   100744709.468          49.000  
E24  26050497.922   136896162.504        1430.005          43.000    26050494.991   111117024.116          46.000    26050503.246   103561191.878          47.000  
E25  27208723.496   142983289.656        2838.847          40.000    27208719.994   116057870.364          39.000    27208732.198   108165510.583          42.000  
E31  27467102.564   144341097.549        -750.020          39.000    27467098.758   117159985.488          38.000    27467110.676   109193107.451          43.000  
E36  27555376.180   144805001.733       -3155.968          37.000    27555375.394   117535676.062          36.000    27555387.742   109543247.168          41.000  
J02  37330264.293   196172552.131         423.076          42.000    37330274.746   152861740.588          44.000    37330270.958   146492503.437          32.000  
J03  37231222.857   195651086.884        -411.656          40.000    37231233.078   152455381.872          44.000    37231230.022   146103071.934          30.000  
C06  37457393.743   195051016.703         411.610          42.000    37457389.955   150825834.403          44.000    37457381.092   158494941.021          43.000  
C09  39169756.143   203966783.510         461.732          38.000    39169755.106   157720068.748          42.000    39169744.510   165739730.493          40.000  
C13  36274592.615   188891253.878         249.276          49.000    36274594.938   146062701.759          47.000    36274584.681   153489617.815          47.000  
C14  25621342.439   133417433.177       -2213.796          33.000    25621342.600   103166821.702          39.000    25621334.559   108412592.595          37.000  
C16  37270647.103   194077900.179         267.908          46.000    37270648.533   150073362.295          45.000    37270640.295   157704206.700          42.000  
C23  24282478.322   126445645.315        3049.525          42.000                                                    24282462.311   102747177.673          46.000  
C24  25158613.922   131007629.185       -2232.062          39.000                                                    25158604.648   106454277.020          41.000  
C25  22466592.291   116988832.337         753.949          49.000                                                    22466585.662    95063677.014          50.000  
C27  25196255.001   131203622.527       -2174.626          40.000                                                    25196250.016   106613117.957          40.000  
C30  25798311.418   134338085.808        -353.176          36.000                                                    25798308.165   109160685.519          38.000  
C32  24874405.272   129527844.364        2262.391          41.000                                                    24874397.820   105251125.563          45.000  
C33  23739935.794   123619712.537       -1628.195          45.000                                                    23739942.513   100450854.272          45.000  
C38  35856721.385   186714586.780        -452.130          50.000                                                    35856710.967   151720897.236          51.000  
C39  36813112.289   191695588.668         168.265          48.000                                                    36813103.998   155768384.762          49.000  
C41  21982783.831   114470322.850         522.508          51.000                                                    21982783.867    93016529.509          52.000  
> 2022 08 25 07 17 06.0000000  0 41                     
G02  23984246.115   126037893.526       -3287.059          38.000    23984254.943    98211834.284          23.000                                                  
G05  21099367.479   110878653.944       -1772.342          49.000    21099375.163    86398960.997          44.000                                                  
G13  21273074.056   111791156.496       -1946.312          48.000    21273081.347    87110013.525          39.000                                                  
G14  24348694.274   127953342.814        -171.508          39.000    24348703.762    99703903.731          20.000    24348703.065    95549574.856          32.000  
G15  20254505.903   106437970.163          29.191          51.000    20254513.623    82938699.769          55.000                                                  
G18  21588307.834   113447040.668         374.064          46.000    21588316.304    88400014.081          39.000    21588316.715    84717493.121          39.000  
G20  23464463.041   123306419.210       -3217.103          38.000    23464472.869    96082923.847          22.000                                                  
G23  23525529.569   123626923.628        3166.730          41.000    23525538.968    96332813.070          31.000    23525539.326    92318879.142          35.000  
G24  21014029.725   110429860.198        2615.045          48.000    21014040.804    86049256.560          54.000    21014036.622    82463873.149          40.000  
R03  20565797.060   110089583.595        -841.653          53.000    20565802.581    85625921.155          49.000  
R04  20714054.842   110923044.460        1490.041          51.000    20714059.577    86273775.429          48.000  
R13  20645192.953   110243942.155        -885.593          40.000    20645198.403    85745266.999          45.000  
R14  20842651.678   111102554.840        3241.734          51.000    20842658.915    86413541.422          49.000  
R18  23107345.042   123349023.262       -4007.605          43.000    23107354.745    95937322.443          39.000  
R19  21547331.734   115263709.384       -2200.543          37.000    21547337.309    89649926.919          44.000  
R20  23019426.143   123094816.033        1819.985          34.000    23019434.774    95740412.854          41.000  
E03  25138947.633   132106461.167        1213.297          49.000    25138943.362   107229311.886          48.000    25138953.297    99937724.305          50.000  
E05  23869911.422   125437208.513        -560.697          53.000    23869905.668   101815935.261          52.000    23869916.944    94892460.483          54.000  
E09  26960165.065   141676979.276       -1807.752          42.000    26960162.564   114997554.630          43.000    26960172.213   107177723.382          44.000  
E15  25341847.369   133171712.604         628.654          46.000    25341843.867   108094922.363          47.000    25341853.909   100744233.692          48.000  
E24  26050225.598   136894732.703        1429.557          43.000    26050222.917   111115863.560          46.000    26050231.155   103560110.244          47.000  
E25  27208183.119   142980450.745        2838.825          40.000    27208179.617   116055566.059          39.000    27208191.946   108163362.971          42.000  
E31  27467245.212   144341847.694        -750.404          38.000    27467241.388   117160594.367          38.000    27467253.432   109193674.920          43.000  
E36  27555976.901   144808157.623       -3155.799          38.000    27555976.133   117538237.657          36.000    27555988.320   109545634.575          41.000  
J02  37330184.204   196172128.969         423.180          41.000    37330193.925   152861410.849          44.000    37330190.565   146492187.441          32.000  
J03  37231301.570   195651498.428        -411.566          40.000    37231311.147   152455702.552          44.000    37231308.288   146103379.252          30.000  
C06  37457314.940   195050605.137         411.500          42.000    37457311.009   150825516.161          44.000    37457302.003   158494606.586          43.000  
C09  39169666.851   203966321.886         461.564          38.000    39169666.494   157719711.789          42.000    39169655.862   165739355.380          40.000  
C13  36274544.690   188891004.691         249.084          49.000    36274547.174   146062509.069          48.000    36274536.756   153489415.329          47.000  
C14  25621767.043   133419646.969       -2213.963          33.000    25621767.686   103168533.555          39.000    25621759.663   108414391.482          38.000  
C16  37270596.034   194077632.213         267.887          46.000    37270596.999   150073155.086          45.000    37270588.761   157703988.961          42.000  
C23  24281892.468   126442595.813        3049.367          42.000                                                    24281876.690   102744699.710          46.000  
C24  25159042.779   131009861.397       -2232.372          39.000                                                    25159033.290   106456090.875          41.000  
C25  22466447.517   116988078.625         753.341          49.000                                                    22466440.887    95063064.559          50.000  
C27  25196672.493   131205797.136       -2174.774          40.000                                                    25196667.704   106614885.010          40.000  
C30  25798379.320   134338439.038        -353.451          37.000                                                    25798375.943   109160972.559          38.000  
C32  24873970.679   129525581.914        2262.384          41.000                                                    24873963.388   105249287.133          44.000  
C33  23740248.538   123621340.802       -1628.382          45.000                                                    23740255.257   100452177.366          45.000  
C38  35856808.604   186715038.903        -452.235          50.000                                                    35856797.811   151721264.626          51.000  
C39  36813079.875   191695420.409         168.273          48.000                                                    36813071.709   155768248.039          49.000  
C41  21982683.425   114469800.393         522.360          51.000                                                    21982683.532    93016104.972          52.000  
> 2022 08 25 07 17 07.0000000  0 41                     
G02  23984871.746   126041180.748       -3287.336          38.000    23984880.359    98214395.754          23.000                                                  
G05  21099704.435   110880426.519       -1772.839          49.000    21099712.530    86400342.226          44.000                                                  
G13  21273444.713   111793102.895       -1946.437          48.000    21273451.718    87111530.188          39.000                                                  
G14  24348727.314   127953514.664        -172.229          39.000    24348736.462    99704037.629          20.000    24348735.891    95549703.177          32.000  
G15  20254500.846   106437941.173          28.846          51.000    20254508.119    82938677.182          55.000                                                  
G18  21588236.751   113446667.028         373.314          46.000    21588245.346    88399722.935          39.000    21588245.578    84717214.108          39.000  
G20  23465075.073   123309636.357       -3217.311          38.000    23465085.151    96085430.706          22.000                                                  
G23  23524926.972   123623756.915        3166.653          42.000    23524936.353    96330345.496          31.000    23524936.782    92316514.386          34.000  
G24  21013532.359   110427245.426        2614.476          48.000    21013543.366    86047219.081          53.000    21013539.024    82461920.557          40.000  
R03  20565954.021   110090425.329        -841.909          52.000    20565959.882    85626575.828          49.000  
R04  20713776.604   110921554.460        1489.848          51.000    20713781.446    86272616.550          49.000  
R13  20645358.581   110244828.152        -886.513          40.000    20645364.406    85745956.106          45.000  
R14  20842043.935   111099313.431        3241.132          51.000    20842050.904    86411020.326          49.000  
R18  23108096.524   123353030.859       -4007.733          42.000    23108105.512    95940439.459          39.000  
R19  21547742.096   115265910.197       -2201.292          37.000    21547748.797    89651638.662          43.000  
R20  23019086.703   123092996.443        1819.260          34.000    23019094.601    95738997.626          41.000  
E03  25138716.801   132105247.975        1213.109          49.000    25138712.477   107228327.155          48.000    25138722.430    99936806.536          50.000  
E05  23870018.333   125437769.251        -560.807          53.000    23870012.436   101816390.403          52.000    23870023.640    94892884.679          54.000  
E09  26960509.062   141678787.078       -1807.854          42.000    26960506.560   114999021.995          43.000    26960516.227   107179090.970          44.000  
E15  25341727.700   133171084.166         628.177          46.000    25341724.376   108094412.269          47.000    25341734.329   100743758.280          48.000  
E24  26049953.345   136893303.265        1429.256          43.000    26049950.844   111114703.305          46.000    26049959.135   103559028.887          47.000  
E25  27207643.010   142977611.812        2838.855          40.000    27207639.383   116053261.731          39.000    27207651.712   108161215.344          42.000  
E31  27467388.164   144342598.288        -750.920          38.000    27467384.287   117161203.617          38.000    27467396.259   109194242.739          43.000  
E36  27556577.086   144811313.520       -3155.856          37.000    27556576.657   117540799.249          36.000    27556588.897   109548021.977          41.000  
J02  37330103.329   196171705.842         423.079          41.000    37330113.532   152861081.142          44.000    37330109.887   146491871.465          31.000  
J03  37231380.122   195651909.999        -411.560          40.000    37231389.718   152456023.259          44.000    37231386.590   146103686.594          30.000  
C06  37457235.941   195050193.667         411.333          42.000    37457231.992   150825197.979          45.000    37457223.058   158494272.235          43.000  
C09  39169578.632   203965860.310         461.553          38.000    39169577.899   157719354.866          42.000    39169567.267   165738980.313          39.000  
C13  36274496.908   188890755.661         248.911          49.000    36274499.356   146062316.505          47.000    36274489.028   153489212.974          47.000  
C14  25622192.773   133421860.847       -2214.224          33.000    25622192.933   103170245.462          39.000    25622184.910   108416190.442          38.000  
C16  37270544.553   194077364.352         267.774          46.000    37270545.429   150072947.962          45.000    37270537.334   157703771.302          43.000  
C23  24281307.168   126439546.534        3049.151          41.000                                                    24281291.140   102742221.916          45.000  
C24  25159471.707   131012094.008       -2232.925          39.000                                                    25159462.147   106457905.058          41.000  
C25  22466302.885   116987325.457         752.832          50.000                                                    22466296.237    95062452.548          50.000  
C27  25197090.199   131207971.972       -2175.029          39.000                                                    25197085.411   106616652.235          40.000  
C30  25798447.258   134338792.783        -353.970          36.000                                                    25798443.934   109161259.997          37.000  
C32  24873535.890   129523319.461        2262.432          40.000                                                    24873528.885   105247448.717          44.000  
C33  23740561.192   123622969.253       -1628.550          45.000                                                    23740568.018   100453500.620          45.000  
C38  35856895.304   186715491.204        -452.441          50.000                                                    35856884.708   151721632.158          51.000  
C39  36813047.693   191695252.230         168.140          48.000                                                    36813039.455   155768111.384          49.000  
C41  21982583.197   114469278.143         522.115          51.000                                                    21982583.287    93015680.601          52.000  
> 2022 08 25 07 17 08.0000000  0 41                     
G02  23985497.233   126044468.067       -3287.497          38.000    23985505.917    98216957.299          25.000                                                  
G05  21100041.910   110882199.568       -1773.425          49.000    21100049.826    86401723.818          44.000                                                  
G13  21273814.942   111795049.505       -1946.755          48.000    21273822.196    87113047.034          39.000                                                  
G14  24348759.281   127953687.121        -172.902          39.000    24348769.270    99704172.014          20.000    24348768.734    95549831.973          31.000  
G15  20254494.932   106437912.554          28.343          51.000    20254502.544    82938654.879          56.000                                                  
G18  21588165.846   113446294.121         372.474          46.000    21588174.281    88399432.358          39.000    21588174.584    84716935.637          39.000  
G20  23465686.926   123312853.798       -3217.741          38.000    23465697.290    96087937.809          23.000                                                  
G23  23524324.357   123620590.325        3166.453          42.000    23524333.792    96327878.033          31.000    23524334.257    92314149.734          34.000  
G24  21013034.939   110424631.181        2613.933          47.000    21013045.892    86045182.006          53.000    21013041.497    82459968.368          40.000  
R03  20566111.769   110091267.305        -842.178          52.000    20566117.076    85627230.702          49.000  
R04  20713497.936   110920064.640        1489.681          51.000    20713503.154    86271457.801          49.000  
R13  20645524.387   110245715.098        -887.447          40.000    20645530.391    85746645.950          45.000  
R14  20841435.155   111096072.615        3240.486          51.000    20841442.892    86408499.693          49.000  
R18  23108846.915   123357038.603       -4007.886          42.000    23108856.440    95943556.583          40.000  
R19  21548154.031   115268111.765       -2202.016          37.000    21548160.267    89653350.993          44.000  
R20  23018746.495   123091177.653        1818.268          34.000    23018754.375    95737583.016          41.000  
E03  25138486.058   132104034.903        1212.933          49.000    25138481.680   107227342.519          48.000    25138491.598    99935888.857          50.000  
E05  23870124.868   125438330.130        -560.993          53.000    23870119.167   101816845.659          52.000    23870130.389    94893308.978          54.000  
E09  26960853.112   141680594.907       -1807.932          42.000    26960850.485   115000489.388          43.000    26960860.242   107180458.581          44.000  
E15  25341608.389   133170456.273         627.522          45.000    25341604.904   108093902.620          47.000    25341614.839   100743283.281          49.000  
E24  26049681.736   136891874.254        1428.753          43.000    26049678.984   111113543.398          46.000    26049687.222   103557947.851          47.000  
E25  27207102.829   142974772.924        2838.821          40.000    27207099.291   116050957.442          39.000    27207111.496   108159067.741          43.000  
E31  27467531.331   144343349.392        -751.477          38.000    27467527.042   117161813.278          38.000    27467539.193   109194810.947          43.000  
E36  27557177.592   144814469.428       -3156.047          37.000    27557177.181   117543360.861          36.000    27557189.475   109550409.398          40.000  
J02  37330023.008   196171282.800         422.967          41.000    37330032.961   152860751.501          44.000    37330029.280   146491555.573          31.000  
J03  37231458.049   195652321.673        -411.653          40.000    37231468.020   152456344.039          44.000    37231464.893   146103994.011          31.000  
C06  37457156.514   195049782.311         411.233          42.000    37457152.868   150824879.897          44.000    37457144.095   158493937.983          43.000  
C09  39169490.216   203965398.870         461.389          38.000    39169489.305   157718998.054          42.000    39169478.690   165738605.350          39.000  
C13  36274448.894   188890506.799         248.709          48.000    36274451.557   146062124.068          48.000    36274441.228   153489010.749          47.000  
C14  25622618.234   133424074.941       -2214.387          34.000    25622618.198   103171957.544          39.000    25622610.211   108417989.569          38.000  
C16  37270493.001   194077096.625         267.586          46.000    37270494.073   150072740.940          45.000    37270485.960   157703553.756          43.000  
C23  24280721.654   126436497.515        3048.772          41.000                                                    24280705.590   102739744.343          45.000  
C24  25159900.492   131014327.019       -2233.308          39.000                                                    25159890.968   106459719.563          41.000  
C25  22466158.396   116986572.882         752.176          50.000                                                    22466151.802    95061841.022          50.000  
C27  25197508.013   131210147.087       -2175.476          39.000                                                    25197503.188   106618419.685          39.000  
C30  25798515.625   134339147.019        -354.494          36.000                                                    25798511.997   109161547.840          37.000  
C32  24873101.583   129521057.093        2262.342          41.000                                                    24873094.525   105245610.350          44.000  
C33  23740873.543   123624597.949       -1628.948          45.000                                                    23740880.762   100454824.066          45.000  
C38  35856982.237   186715943.726        -452.712          51.000                                                    35856971.551   151721999.864          51.000  
C39  36813015.653   191695084.172         167.937          48.000                                                    36813007.166   155767974.819          49.000  
C41  21982482.988   114468756.114         521.853          51.000                                                    21982483.006    93015256.414          52.000  
> 2022 08 25 07 17 09.0000000  0 41                     
G02  23986122.863   126047755.433       -3287.564          38.000    23986131.530    98219518.862          25.000                                                  
G05  21100379.581   110883973.034       -1773.887          49.000    21100387.425    86403105.742          44.000                                                  
G13  21274185.545   111796996.257       -1946.973          48.000    21274192.693    87114563.979          39.000                                                  
G14  24348792.035   127953860.119        -173.448          39.000    24348802.167    99704306.817          20.000    24348801.649    95549961.160          31.000  
G15  20254489.839   106437884.198          28.022          50.000    20254497.201    82938632.779          56.000                                                  
G18  21588095.103   113445921.836         371.850          46.000    21588103.430    88399142.264          40.000    21588103.734    84716657.625          39.000  
G20  23466299.190   123316071.453       -3217.969          38.000    23466309.519    96090445.071          23.000                                                  
G23  23523721.599   123617423.770        3166.342          41.000    23523731.249    96325410.586          30.000    23523731.606    92311785.101          34.000  
G24  21012537.501   110422017.389        2613.378          48.000    21012548.562    86043145.284          54.000    21012544.130    82458016.514          40.000  
R03  20566268.677   110092109.484        -842.448          52.000    20566274.413    85627885.728          49.000  
R04  20713220.019   110918574.910        1489.475          50.000    20713224.933    86270299.117          49.000  
R13  20645690.980   110246602.873        -888.356          40.000    20645696.555    85747336.444          45.000  
R14  20840827.662   111092832.313        3239.880          51.000    20840835.006    86405979.465          50.000  
R18  23109597.271   123361046.388       -4008.033          42.000    23109607.242    95946673.738          40.000  
R19  21548565.429   115270314.011       -2202.725          37.000    21548572.076    89655063.846          44.000  
R20  23018406.537   123089359.628        1817.545          34.000    23018414.542    95736168.994          41.000  
E03  25138255.155   132102821.885        1212.871          49.000    25138250.795   107226357.926          48.000    25138260.766    99934971.216          50.000  
E05  23870231.617   125438891.052        -561.109          53.000    23870225.863   101817300.958          52.000    23870237.121    94893733.310          54.000  
E09  26961196.894   141682402.691       -1807.969          41.000    26961194.410   115001956.748          43.000    26961204.256   107181826.154          44.000  
E15  25341489.006   133169828.815         627.080          46.000    25341485.414   108093393.325          47.000    25341495.439   100742808.617          48.000  
E24  26049409.752   136890445.579        1428.290          44.000    26049407.107   111112383.762          46.000    26049415.362   103556867.068          47.000  
E25  27206562.363   142971933.998        2838.881          40.000    27206559.057   116048653.123          39.000    27206571.262   108156920.119          43.000  
E31  27467674.498   144344100.887        -751.866          38.000    27467669.887   117162423.259          38.000    27467682.217   109195379.446          43.000  
E36  27557778.117   144817625.281       -3155.816          37.000    27557777.902   117545922.417          36.000    27557790.035   109552796.765          40.000  
J02  37329942.347   196170859.740         422.851          41.000    37329952.443   152860421.847          44.000    37329948.708   146491239.645          31.000  
J03  37231536.547   195652733.338        -411.729          40.000    37231546.286   152456664.815          44.000    37231543.195   146104301.421          30.000  
C06  37457078.033   195049371.021         411.113          42.000    37457073.995   150824561.859          44.000    37457065.060   158493603.770          44.000  
C09  39169401.854   203964937.502         461.236          38.000    39169400.567   157718641.289          42.000    39169390.096   165738230.449          39.000  
C13  36274401.381   188890258.045         248.535          49.000    36274403.775   146061931.715          48.000    36274393.482   153488808.614          48.000  
C14  25623043.660   133426289.046       -2214.233          34.000    25623043.356   103173669.624          39.000    25623035.333   108419788.709          38.000  
C16  37270441.735   194076828.933         267.486          46.000    37270442.771   150072533.939          45.000    37270434.551   157703336.232          42.000  
C23  24280136.283   126433448.667        3048.550          42.000                                                    24280120.093   102737266.897          45.000  
C24  25160329.956   131016560.380       -2233.662          39.000                                                    25160319.806   106461534.344          41.000  
C25  22466013.907   116985820.799         751.656          50.000                                                    22466007.313    95061229.890          50.000  
C27  25197926.005   131212322.365       -2175.610          39.000                                                    25197920.841   106620187.278          39.000  
C30  25798583.902   134339501.715        -355.019          37.000                                                    25798580.168   109161836.057          37.000  
C32  24872666.776   129518794.690        2262.305          40.000                                                    24872660.040   105243771.962          44.000  
C33  23741186.698   123626226.801       -1629.023          45.000                                                    23741193.613   100456147.637          46.000  
C38  35857068.973   186716396.370        -452.851          51.000                                                    35857058.502   151722367.682          51.000  
C39  36812982.864   191694916.144         167.813          48.000                                                    36812974.859   155767838.284          49.000  
C41  21982382.653   114468234.253         521.602          51.000                                                    21982382.850    93014832.360          52.000  
> 2022 08 25 07 17 10.0000000  0 41                     
G02  23986748.172   126051042.901       -3287.438          39.000    23986757.160    98222080.521          25.000                                                  
G05  21100716.805   110885746.961       -1774.181          49.000    21100724.989    86404488.023          44.000                                                  
G13  21274556.095   111798943.216       -1947.097          48.000    21274563.153    87116081.090          39.000                                                  
G14  24348825.754   127954033.674        -173.972          38.000    24348835.332    99704442.055          20.000    24348834.688    95550090.758          32.000  
G15  20254484.103   106437856.171          27.771          50.000    20254491.822    82938610.938          56.000                                                  
G18  21588024.663   113445550.262         371.194          46.000    21588032.794    88398852.723          40.000    21588033.115    84716380.157          39.000  
G20  23466911.758   123319289.392       -3218.166          38.000    23466921.783    96092952.524          23.000                                                  
G23  23523119.556   123614257.260        3166.468          41.000    23523128.687    96322943.170          32.000    23523129.027    92309420.495          34.000  
G24  21012040.402   110419404.113        2612.947          48.000    21012051.142    86041108.970          53.000    21012046.871    82456065.040          40.000  
R03  20566426.281   110092951.914        -842.604          52.000    20566431.785    85628540.947          49.000  
R04  20712941.513   110917085.293        1489.505          51.000    20712946.891    86269140.530          49.000  
R13  20645857.162   110247491.564        -889.172          40.000    20645863.005    85748027.648          44.000  
R14  20840220.258   111089592.619        3239.294          51.000    20840227.245    86403459.696          50.000  
R18  23110347.752   123365054.278       -4007.999          42.000    23110358.027    95949790.974          40.000  
R19  21548977.507   115272516.959       -2203.345          37.000    21548983.904    89656777.250          44.000  
R20  23018067.204   123087542.387        1816.778          35.000    23018074.709    95734755.578          41.000  
E03  25138024.466   132101608.980        1212.786          49.000    25138019.981   107225373.425          48.000    25138029.951    99934053.662          50.000  
E05  23870338.438   125439452.090        -561.130          53.000    23870332.720   101817756.343          51.000    23870343.870    94894157.731          54.000  
E09  26961541.034   141684210.517       -1807.834          42.000    26961538.460   115003424.137          43.000    26961548.271   107183193.764          44.000  
E15  25341369.533   133169201.879         626.654          46.000    25341365.995   108092884.443          47.000    25341376.145   100742334.344          49.000  
E24  26049138.035   136889017.301        1428.030          43.000    26049135.266   111111224.445          46.000    26049143.575   103555786.589          48.000  
E25  27206022.111   142969095.092        2838.865          40.000    27206018.734   116046348.812          39.000    27206031.045   108154772.507          42.000  
E31  27467817.235   144344852.904        -752.258          38.000    27467812.982   117163033.670          38.000    27467825.330   109195948.346          43.000  
E36  27558378.766   144820781.154       -3155.974          38.000    27558378.391   117548483.991          36.000    27558390.595   109555184.149          40.000  
J02  37329862.151   196170436.740         422.913          41.000    37329871.675   152860092.238          44.000    37329868.137   146490923.775          31.000  
J03  37231614.957   195653145.062        -411.735          41.000    37231624.677   152456985.643          44.000    37231621.515   146104608.881          30.000  
C06  37456998.998   195048959.853         411.112          42.000    37456995.049   150824243.925          44.000    37456986.025   158493269.662          44.000  
C09  39169313.223   203964476.228         461.307          38.000    39169312.026   157718284.604          41.000    39169301.555   165737855.624          39.000  
C13  36274353.724   188890009.463         248.450          49.000    36274356.011   146061739.493          48.000    36274345.754   153488606.627          47.000  
C14  25623468.728   133428503.326       -2214.425          34.000    25623468.657   103175381.841          39.000    25623460.526   108421587.990          38.000  
C16  37270390.147   194076561.345         267.508          46.000    37270391.398   150072327.025          45.000    37270383.142   157703118.800          43.000  
C23  24279550.947   126430400.028        3048.446          42.000                                                    24279534.668   102734789.640          45.000  
C24  25160758.866   131018794.177       -2233.927          39.000                                                    25160748.824   106463349.482          41.000  
C25  22465869.847   116985069.285         751.190          50.000                                                    22465862.949    95060619.226          50.000  
C27  25198343.711   131214497.930       -2175.744          39.000                                                    25198338.726   106621955.099          39.000  
C30  25798651.590   134339856.911        -355.461          36.000                                                    25798648.374   109162124.688          38.000  
C32  24872232.666   129516532.324        2262.347          40.000                                                    24872225.465   105241933.600          45.000  
C33  23741499.155   123627855.877       -1629.298          45.000                                                    23741506.446   100457471.388          46.000  
C38  35857156.031   186716849.209        -452.980          51.000                                                    35857145.471   151722735.648          51.000  
C39  36812950.735   191694748.205         167.864          48.000                                                    36812942.623   155767701.816          49.000  
C41  21982282.462   114467712.602         521.463          51.000                                                    21982282.623    93014408.470          52.000  
> 2022 08 25 07 17 11.0000000  0 41                     
G02  23987374.195   126054330.443       -3287.389          38.000    23987383.005    98224642.233          25.000                                                  
G05  21101054.636   110887521.264       -1774.235          49.000    21101062.570    86405870.598          44.000                                                  
G13  21274926.573   111800890.317       -1946.950          48.000    21274933.739    87117598.307          39.000                                                  
G14  24348858.776   127954207.798        -174.205          38.000    24348868.622    99704577.747          20.000    24348867.853    95550220.786          31.000  
G15  20254479.064   106437828.441          27.787          50.000    20254486.640    82938589.334          56.000                                                  
G18  21587953.813   113445179.347         370.731          46.000    21587962.104    88398563.694          40.000    21587962.461    84716103.174          39.000  
G20  23467524.416   123322507.514       -3218.122          37.000    23467534.154    96095460.144          23.000                                                  
G23  23522516.691   123611090.832        3166.556          41.000    23522526.323    96320475.831          31.000    23522526.555    92307055.952          35.000  
G24  21011542.982   110416791.286        2612.796          48.000    21011553.865    86039073.003          54.000    21011549.737    82454113.909          39.000  
R03  20566583.225   110093794.569        -842.566          52.000    20566589.158    85629196.350          49.000  
R04  20712663.363   110915595.792        1489.640          51.000    20712668.528    86267982.023          49.000  
R13  20646023.916   110248381.110        -889.754          40.000    20646029.687    85748719.515          45.000  
R14  20839612.961   111086353.466        3239.077          52.000    20839619.573    86400940.358          50.000  
R18  23111098.984   123369062.233       -4007.791          41.000    23111108.973    95952908.261          40.000  
R19  21549389.495   115274720.597       -2203.795          37.000    21549395.946    89658491.198          44.000  
R20  23017727.532   123085725.921        1816.347          34.000    23017734.983    95733342.782          41.000  
E03  25137793.473   132100396.152        1212.972          48.000    25137789.202   107224388.987          48.000    25137799.155    99933136.163          50.000  
E05  23870445.152   125440013.200        -560.993          53.000    23870439.416   101818211.788          51.000    23870450.656    94894582.206          54.000  
E09  26961885.137   141686018.319       -1807.619          42.000    26961882.528   115004891.511          43.000    26961892.303   107184561.353          44.000  
E15  25341250.347   133168575.403         626.434          46.000    25341246.827   108092375.947          47.000    25341256.941   100741860.422          49.000  
E24  26048866.301   136887589.375        1427.967          44.000    26048863.656   111110065.417          46.000    26048871.840   103554706.368          47.000  
E25  27205481.984   142966256.184        2839.071          41.000    27205478.374   116044044.503          39.000    27205490.811   108152624.889          43.000  
E31  27467960.509   144345605.287        -752.536          38.000    27467956.381   117163644.361          38.000    27467968.514   109196517.515          43.000  
E36  27558979.290   144823936.942       -3155.519          37.000    27558978.879   117551045.500          37.000    27558991.173   109557571.469          40.000  
J02  37329781.043   196170013.754         423.172          41.000    37329791.425   152859762.643          44.000    37329787.619   146490607.911          31.000  
J03  37231693.491   195653556.818        -411.627          40.000    37231702.997   152457306.487          44.000    37231699.817   146104916.357          30.000  
C06  37456919.981   195048548.721         411.311          42.000    37456916.068   150823926.011          44.000    37456907.044   158492935.583          44.000  
C09  39169224.646   203964015.020         461.335          38.000    39169223.342   157717927.978          42.000    39169212.871   165737480.867          39.000  
C13  36274305.906   188889761.049         248.542          49.000    36274308.140   146061547.406          48.000    36274298.026   153488404.768          48.000  
C14  25623894.386   133430717.713       -2214.226          33.000    25623893.975   103177094.143          39.000    25623885.666   108423387.364          38.000  
C16  37270338.755   194076293.824         267.707          45.000    37270340.114   150072120.164          45.000    37270331.840   157702901.415          43.000  
C23  24278965.629   126427351.587        3048.517          42.000                                                    24278949.136   102732312.528          45.000  
C24  25161187.705   131021028.302       -2234.144          39.000                                                    25161177.841   106465164.899          41.000  
C25  22465725.537   116984318.301         750.949          50.000                                                    22465718.800    95060008.990          50.000  
C27  25198761.847   131216673.665       -2175.589          39.000                                                    25198756.575   106623723.054          39.000  
C30  25798719.296   134340212.584        -355.818          36.000                                                    25798716.687   109162413.699          38.000  
C32  24871798.235   129514269.929        2262.522          40.000                                                    24871791.069   105240095.221          45.000  
C33  23741811.792   123629485.093       -1629.080          45.000                                                    23741819.404   100458795.255          46.000  
C38  35857243.053   186717302.197        -452.854          51.000                                                    35857232.493   151723103.740          51.000  
C39  36812918.571   191694580.328         168.025          48.000                                                    36812910.369   155767565.404          49.000  
C41  21982182.359   114467191.119         521.575          52.000                                                    21982182.467    93013984.725          52.000  
> 2022 08 25 07 17 12.0000000  0 41                     
G02  23987999.843   126057618.061       -3287.711          39.000    23988008.403    98227204.020          25.000                                                  
G05  21101392.147   110889296.042       -1774.996          49.000    21101400.223    86407253.533          44.000                                                  
G13  21275297.231   111802837.596       -1947.345          48.000    21275304.342    87119115.672          39.000                                                  
G14  24348891.637   127954382.462        -174.962          38.000    24348901.787    99704713.854          20.000    24348901.054    95550351.221          32.000  
G15  20254473.900   106437801.036          27.245          50.000    20254481.440    82938567.977          56.000                                                  
G18  21587883.230   113444809.117         369.862          46.000    21587891.557    88398275.210          39.000    21587892.039    84715826.705          39.000  
G20  23468136.662   123325725.923       -3218.664          37.000    23468146.633    96097967.986          22.000                                                  
G23  23521914.130   123607924.450        3166.351          41.000    23521923.743    96318008.514          31.000    23521923.904    92304691.449          34.000  
G24  21011045.759   110414178.984        2611.986          48.000    21011056.838    86037037.441          54.000    21011052.603    82452163.162          40.000  
R03  20566741.134   110094637.471        -843.013          52.000    20566746.655    85629851.938          49.000  
R04  20712385.411   110914106.436        1489.291          51.000    20712390.432    86266823.637          48.000  
R13  20646190.509   110249271.544        -890.903          40.000    20646196.352    85749412.080          45.000  
R14  20839005.450   111083114.873        3238.281          52.000    20839012.044    86398421.445          49.000  
R18  23111850.948   123373070.257       -4008.041          41.000    23111859.829    95956025.603          40.000  
R19  21549802.877   115276924.928       -2204.750          38.000    21549807.987    89660205.668          44.000  
R20  23017387.681   123083910.206        1815.300          34.000    23017395.454    95731930.555          42.000  
E03  25137562.819   132099183.406        1212.669          48.000    25137558.459   107223404.620          48.000    25137568.377    99932218.731          50.000  
E05  23870551.991   125440574.405        -561.281          52.000    23870546.237   101818667.311          51.000    23870557.459    94895006.751          54.000  
E09  26962228.812   141687826.098       -1807.736          42.000    26962226.311   115006358.864          43.000    26962236.317   107185928.923          44.000  
E15  25341131.178   133167949.435         625.687          46.000    25341127.748   108091867.847          47.000    25341137.808   100741386.877          48.000  
E24  26048594.817   136886161.824        1427.347          44.000    26048591.851   111108906.691          46.000    26048600.196   103553626.444          47.000  
E25  27204941.768   142963417.228        2839.018          40.000    27204938.212   116041740.168          39.000    27204950.577   108150477.255          43.000  
E31  27468103.819   144346358.161        -753.204          39.000    27468099.530   117164255.468          37.000    27468111.770   109197087.061          43.000  
E36  27559579.707   144827092.730       -3155.758          37.000    27559579.403   117553607.004          37.000    27559591.715   109559958.793          40.000  
J02  37329701.169   196169590.794         422.943          41.000    37329711.175   152859433.062          44.000    37329707.333   146490292.062          31.000  
J03  37231771.489   195653968.568        -411.652          40.000    37231781.156   152457627.329          44.000    37231778.119   146105223.832          30.000  
C06  37456840.965   195048137.690         410.928          42.000    37456837.158   150823608.181          44.000    37456828.135   158492601.594          44.000  
C09  39169135.980   203963553.915         460.978          37.000    39169134.855   157717571.427          41.000    39169124.258   165737106.180          39.000  
C13  36274258.196   188889512.760         248.190          49.000    36274260.573   146061355.413          48.000    36274250.334   153488203.009          47.000  
C14  25624319.383   133432932.173       -2214.501          33.000    25624319.401   103178806.497          39.000    25624310.949   108425186.780          38.000  
C16  37270287.686   194076026.405         267.354          45.000    37270288.865   150071913.376          45.000    37270280.538   157702684.115          42.000  
C23  24278380.312   126424303.359        3048.131          42.000                                                    24278363.765   102729835.592          46.000  
C24  25161616.758   131023262.790       -2234.599          39.000                                                    25161606.966   106466980.607          41.000  
C25  22465581.637   116983567.866         750.123          50.000                                                    22465574.668    95059399.200          50.000  
C27  25199179.714   131218849.626       -2176.112          39.000                                                    25199174.496   106625491.206          39.000  
C30  25798787.913   134340568.687        -356.371          36.000                                                    25798785.018   109162703.062          38.000  
C32  24871363.749   129512007.558        2262.300          40.000                                                    24871356.655   105238256.861          45.000  
C33  23742125.232   123631114.529       -1629.540          45.000                                                    23742132.219   100460119.301          46.000  
C38  35857330.022   186717755.364        -453.261          50.000                                                    35857319.443   151723471.973          51.000  
C39  36812886.317   191694412.512         167.701          48.000                                                    36812878.205   155767429.042          50.000  
C41  21982082.168   114466669.840         521.149          51.000                                                    21982082.418    93013561.141          52.000  
> 2022 08 25 07 17 13.0000000  0 41                     
G02  23988625.170   126060905.756       -3287.823          39.000    23988634.015    98229765.839          24.000                                                  
G05  21101730.479   110891071.260       -1775.523          49.000    21101738.073    86408636.824          43.000                                                  
G13  21275667.691   111804785.072       -1947.555          48.000    21275675.053    87120633.186          39.000                                                  
G14  24348924.462   127954557.713        -175.596          39.000    24348935.059    99704850.415          20.000    24348934.433    95550482.100          31.000  
G15  20254468.736   106437773.954          26.943          51.000    20254476.312    82938546.879          56.000                                                  
G18  21587813.076   113444439.590         369.159          46.000    21587821.260    88397987.260          39.000    21587821.707    84715550.756          39.000  
G20  23468749.552   123328944.558       -3218.736          37.000    23468759.004    96100476.027          22.000                                                  
G23  23521311.479   123604758.151        3166.210          41.000    23521321.164    96315541.272          30.000    23521321.379    92302327.005          34.000  
G24  21010548.875   110411567.167        2611.547          48.000    21010559.793    86035002.265          54.000    21010555.540    82450212.779          39.000  
R03  20566898.024   110095480.607        -843.273          52.000    20566904.224    85630507.710          49.000  
R04  20712106.940   110912617.219        1489.124          51.000    20712112.426    86265665.358          49.000  
R13  20646358.263   110250162.859        -891.730          40.000    20646363.338    85750105.324          45.000  
R14  20838397.278   111079876.846        3237.751          52.000    20838404.658    86395902.988          49.000  
R18  23112600.750   123377078.397       -4008.218          42.000    23112610.686    95959143.041          40.000  
R19  21550214.454   115279129.958       -2205.356          38.000    21550220.279    89661920.689          44.000  
R20  23017048.723   123082095.325        1814.410          34.000    23017056.049    95730518.986          42.000  
E03  25137332.023   132097970.781        1212.558          48.000    25137327.556   107222420.346          48.000    25137337.616    99931301.386          50.000  
E05  23870658.651   125441135.718        -561.388          52.000    23870652.969   101819122.922          51.000    23870664.262    94895431.383          54.000  
E09  26962573.148   141689633.926       -1807.794          42.000    26962570.468   115007826.262          44.000    26962580.332   107187296.538          44.000  
E15  25341012.242   133167323.958         625.229          46.000    25341008.561   108091360.159          47.000    25341018.800   100740913.709          49.000  
E24  26048323.244   136884734.688        1426.918          44.000    26048320.385   111107748.300          46.000    26048328.604   103552546.822          47.000  
E25  27204401.391   142960578.355        2838.725          40.000    27204398.067   116039435.890          39.000    27204410.343   108148329.670          43.000  
E31  27468247.289   144347111.493        -753.589          39.000    27468242.715   117164866.928          38.000    27468255.098   109197656.943          43.000  
E36  27560180.374   144830248.527       -3155.889          37.000    27560179.803   117556168.527          37.000    27560192.257   109562346.124          40.000  
J02  37329620.311   196169167.902         422.826          41.000    37329630.783   152859103.540          44.000    37329626.798   146489976.275          32.000  
J03  37231849.666   195654380.400        -411.929          41.000    37231859.709   152457948.235          44.000    37231856.456   146105531.365          30.000  
C06  37456762.287   195047726.781         410.767          42.000    37456758.124   150823290.438          44.000    37456749.207   158492267.697          43.000  
C09  39169047.296   203963092.914         460.889          37.000    39169046.314   157717214.954          42.000    39169035.717   165736731.586          39.000  
C13  36274210.647   188889264.660         247.998          49.000    36274213.095   146061163.567          48.000    36274202.659   153488001.412          48.000  
C14  25624744.666   133435146.863       -2214.624          34.000    25624744.558   103180519.041          39.000    25624736.339   108426986.401          38.000  
C16  37270236.062   194075759.082         267.207          45.000    37270237.438   150071706.667          45.000    37270229.236   157702466.893          43.000  
C23  24277795.048   126421255.377        3047.842          42.000                                                    24277778.429   102727358.855          45.000  
C24  25162045.793   131025497.721       -2235.063          39.000                                                    25162036.215   106468796.669          41.000  
C25  22465437.291   116982817.984         749.580          50.000                                                    22465430.662    95058789.861          50.000  
C27  25199597.688   131221025.854       -2176.250          39.000                                                    25199592.524   106627259.556          40.000  
C30  25798856.423   134340925.337        -356.948          37.000                                                    25798853.617   109162992.867          38.000  
C32  24870928.746   129509745.207        2262.285          40.000                                                    24870922.170   105236418.514          45.000  
C33  23742438.047   123632744.161       -1629.746          45.000                                                    23742445.195   100461443.508          45.000  
C38  35857417.223   186718208.729        -453.501          50.000                                                    35857406.555   151723840.369          51.000  
C39  36812854.243   191694244.783         167.700          48.000                                                    36812845.987   155767292.751          50.000  
C41  21981982.012   114466148.770         520.909          51.000                                                    21981982.298    93013137.729          52.000  
> 2022 08 25 07 17 14.0000000  0 41                     
G02  23989250.639   126064193.482       -3287.734          39.000    23989259.449    98232327.709          27.000                                                  
G05  21102068.114   110892846.850       -1775.781          49.000    21102076.083    86410020.397          44.000                                                  
G13  21276038.277   111806732.677       -1947.646          48.000    21276045.675    87122150.796          39.000                                                  
G14  24348958.878   127954733.484        -176.020          38.000    24348968.349    99704987.380          20.000    24348967.884    95550613.368          31.000  
G15  20254463.625   106437747.142          26.719          51.000    20254471.184    82938525.982          56.000                                                  
G18  21587742.726   113444070.680         368.623          47.000    21587751.142    88397699.807          40.000    21587751.500    84715275.275          39.000  
G20  23469361.977   123332163.416       -3219.003          37.000    23469371.536    96102984.238          23.000                                                  
G23  23520709.293   123601591.870        3166.275          41.000    23520718.424    96313074.040          31.000    23520718.889    92299962.578          34.000  
G24  21010051.920   110408955.801        2611.211          48.000    21010062.963    86032967.437          54.000    21010058.603    82448262.744          40.000  
R03  20567056.218   110096323.886        -843.303          52.000    20567061.758    85631163.596          49.000  
R04  20711829.613   110911128.069        1489.109          52.000    20711834.294    86264507.125          49.000  
R13  20646524.892   110251055.029        -892.585          40.000    20646530.413    85750799.232          45.000  
R14  20837790.160   111076639.306        3237.335          52.000    20837797.272    86393384.909          49.000  
R18  23113352.286   123381086.567       -4008.156          42.000    23113361.560    95962260.497          40.000  
R19  21550626.210   115281335.639       -2205.953          37.000    21550632.571    89663636.224          44.000  
R20  23016708.926   123080281.107        1813.897          34.000    23016716.717    95729107.927          42.000  
E03  25137101.263   132096758.196        1212.627          49.000    25137096.777   107221436.105          48.000    25137106.873    99930384.078          50.000  
E05  23870765.526   125441697.057        -561.323          52.000    23870759.808   101819578.555          51.000    23870771.083    94895856.035          54.000  
E09  26962917.073   141691441.670       -1807.641          42.000    26962914.465   115009293.579          44.000    26962924.346   107188664.084          44.000  
E15  25340893.181   133166698.929         624.844          46.000    25340889.714   108090852.833          47.000    25340899.864   100740440.877          49.000  
E24  26048051.813   136883307.839        1426.739          44.000    26048049.079   111106590.148          46.000    26048057.102   103551467.427          47.000  
E25  27203861.317   142957739.381        2838.965          41.000    27203857.636   116037131.523          39.000    27203870.091   108146182.003          43.000  
E31  27468390.867   144347865.221        -753.872          39.000    27468385.988   117165478.728          37.000    27468398.550   109198227.140          43.000  
E36  27560780.988   144833404.250       -3155.674          37.000    27560780.470   117558729.979          37.000    27560792.799   109564733.399          40.000  
J02  37329540.383   196168744.986         422.901          42.000    37329550.247   152858774.000          44.000    37329546.423   146489660.465          32.000  
J03  37231928.469   195654792.238        -411.874          40.000    37231938.011   152458269.148          44.000    37231934.812   146105838.911          30.000  
C06  37456683.306   195047315.907         410.825          42.000    37456679.143   150822972.721          44.000    37456670.244   158491933.826          43.000  
C09  39168958.898   203962631.982         460.859          38.000    39168957.701   157716858.539          42.000    39168947.212   165736357.044          40.000  
C13  36274163.169   188889016.662         248.007          49.000    36274165.349   146060971.799          48.000    36274155.056   153487799.891          48.000  
C14  25625170.145   133437361.567       -2214.717          34.000    25625169.913   103182231.590          38.000    25625161.657   108428786.023          38.000  
C16  37270185.082   194075491.794         267.334          46.000    37270186.011   150071499.987          46.000    37270177.809   157702249.709          43.000  
C23  24277209.766   126418207.509        3047.759          42.000                                                    24277193.147   102724882.215          45.000  
C24  25162475.204   131027732.980       -2235.444          39.000                                                    25162465.429   106470612.991          41.000  
C25  22465293.535   116982068.599         749.179          50.000                                                    22465286.745    95058180.925          49.000  
C27  25200015.555   131223202.231       -2176.382          39.000                                                    25200010.445   106629028.038          40.000  
C30  25798925.469   134341282.391        -357.266          37.000                                                    25798922.181   109163282.995          38.000  
C32  24870494.904   129507482.830        2262.524          40.000                                                    24870487.792   105234580.142          45.000  
C33  23742750.916   123634373.938       -1629.819          45.000                                                    23742758.171   100462767.832          45.000  
C38  35857504.227   186718662.214        -453.531          50.000                                                    35857493.595   151724208.860          51.000  
C39  36812821.918   191694077.089         167.724          48.000                                                    36812813.769   155767156.483          49.000  
C41  21981882.088   114465627.840         520.898          52.000                                                    21981882.249    93012714.433          51.000  
> 2022 08 25 07 17 15.0000000  0 41                     
G02  23989875.894   126067481.347       -3287.938          39.000    23989885.168    98234889.674          26.000                                                  
G05  21102406.178   110894622.913       -1776.210          49.000    21102413.969    86411404.345          43.000                                                  
G13  21276408.898   111808680.479       -1947.865          48.000    21276416.278    87123668.563          39.000                                                  
G14  24348992.597   127954909.853        -176.527          39.000    24349001.943    99705124.824          19.000    24349001.406    95550745.061          31.000  
G15  20254458.568   106437720.676          26.408          51.000    20254466.252    82938505.357          56.000                                                  
G18  21587672.608   113443702.486         367.994          47.000    21587680.899    88397412.898          40.000    21587681.417    84715000.321          39.000  
G20  23469974.330   123335382.541       -3219.232          37.000    23469984.122    96105492.638          23.000                                                  
G23  23520106.535   123598425.676        3166.227          41.000    23520115.791    96310606.883          30.000    23520116.578    92297598.215          35.000  
G24  21009554.964   110406344.966        2610.655          48.000    21009566.114    86030933.016          54.000    21009561.719    82446313.088          40.000  
R03  20567213.412   110097167.413        -843.563          52.000    20567219.309    85631819.673          49.000  
R04  20711550.802   110909639.095        1488.961          51.000    20711556.377    86263349.039          49.000  
R13  20646691.949   110251948.132        -893.426          40.000    20646697.632    85751493.870          45.000  
R14  20837182.721   111073402.342        3236.739          52.000    20837190.083    86390867.265          49.000  
R18  23114103.428   123385094.877       -4008.298          43.000    23114112.577    95965378.053          40.000  
R19  21551038.520   115283542.052       -2206.681          37.000    21551044.953    89665352.325          44.000  
R20  23016369.665   123078467.760        1812.973          34.000    23016377.598    95727697.549          41.000  
E03  25136870.556   132095545.735        1212.511          49.000    25136866.053   107220451.962          48.000    25136876.131    99929466.856          50.000  
E05  23870872.329   125442258.532        -561.449          52.000    23870866.682   101820034.297          51.000    23870877.922    94896280.784          54.000  
E09  26963261.284   141693249.484       -1807.753          42.000    26963258.372   115010760.970          43.000    26963268.378   107190031.677          44.000  
E15  25340774.263   133166074.420         624.347          46.000    25340770.939   108090345.924          47.000    25340781.035   100739968.440          49.000  
E24  26047780.526   136881881.433        1426.276          44.000    26047777.452   111105432.356          46.000    26047785.654   103550388.362          47.000  
E25  27203321.119   142954900.464        2838.956          41.000    27203317.456   116034827.214          39.000    27203329.857   108144034.383          43.000  
E31  27468534.641   144348619.441        -754.330          39.000    27468529.495   117166090.917          37.000    27468542.092   109198797.703          44.000  
E36  27561381.816   144836559.956       -3155.570          37.000    27561381.048   117561291.419          37.000    27561393.342   109567120.659          40.000  
J02  37329459.240   196168322.123         422.896          42.000    37329469.443   152858444.496          44.000    37329466.280   146489344.693          33.000  
J03  37232007.074   195655204.094        -411.781          41.000    37232016.313   152458590.070          44.000    37232013.150   146106146.452          30.000  
C06  37456603.932   195046905.152         410.777          42.000    37456600.179   150822655.100          44.000    37456591.406   158491600.047          43.000  
C09  39168870.447   203962171.135         460.807          37.000    39168869.089   157716502.176          41.000    39168858.814   165735982.564          39.000  
C13  36274115.423   188888768.862         247.799          49.000    36274117.817   146060780.180          48.000    36274107.382   153487598.537          48.000  
C14  25625595.517   133439576.440       -2214.935          33.000    25625595.178   103183944.259          38.000    25625586.958   108430585.781          37.000  
C16  37270133.476   194075224.622         267.262          46.000    37270134.798   150071293.395          46.000    37270126.471   157702032.605          42.000  
C23  24276624.073   126415159.906        3047.574          42.000                                                    24276607.722   102722405.785          45.000  
C24  25162904.275   131029968.635       -2235.785          39.000                                                    25162894.840   106472429.650          42.000  
C25  22465149.761   116981319.801         748.580          50.000                                                    22465142.917    95057572.465          50.000  
C27  25200433.869   131225378.876       -2176.600          39.000                                                    25200428.490   106630796.740          40.000  
C30  25798994.443   134341639.986        -357.792          37.000                                                    25798990.744   109163573.573          38.000  
C32  24870060.490   129505220.488        2262.462          40.000                                                    24870053.289   105232741.808          45.000  
C33  23743063.928   123636003.939       -1629.994          45.000                                                    23743071.218   100464092.339          45.000  
C38  35857591.321   186719115.881        -453.671          50.000                                                    35857580.760   151724577.507          51.000  
C39  36812789.700   191693909.488         167.687          48.000                                                    36812781.569   155767020.296          49.000  
C41  21981782.022   114465107.137         520.661          51.000                                                    21981782.290    93012291.319          52.000  
> 2022 08 25 07 17 16.0000000  0 41                     
G02  23990502.489   126070769.209       -3287.779          39.000    23990510.852    98237451.635          25.000                                                  
G05  21102744.099   110896399.367       -1776.504          49.000    21102751.944    86412788.599          44.000                                                  
G13  21276779.877   111810628.416       -1947.896          48.000    21276787.078    87125186.434          39.000                                                  
G14  24349025.744   127955086.742        -177.129          38.000    24349035.608    99705262.654          19.000    24349035.054    95550877.151          31.000  
G15  20254453.583   106437694.477          26.186          51.000    20254461.177    82938484.942          56.000                                                  
G18  21587602.508   113443334.958         367.290          47.000    21587611.031    88397126.510          40.000    21587611.514    84714725.864          39.000  
G20  23470587.398   123338601.889       -3219.429          37.000    23470596.958    96108001.200          22.000                                                  
G23  23519503.634   123595259.503        3166.264          41.000    23519513.159    96308139.739          31.000    23519513.998    92295233.869          34.000  
G24  21009058.330   110403734.563        2610.303          48.000    21009069.266    86028898.947          53.000    21009064.996    82444363.770          40.000  
R03  20567371.142   110098011.135        -843.725          52.000    20567376.931    85632475.901          49.000  
R04  20711273.511   110908150.228        1488.926          51.000    20711278.210    86262191.031          48.000  
R13  20646860.061   110252842.106        -894.247          40.000    20646865.082    85752189.181          45.000  
R14  20836575.710   111070165.907        3236.274          52.000    20836582.929    86388350.043          49.000  
R18  23114854.088   123389103.219       -4008.285          43.000    23114863.523    95968495.646          40.000  
R19  21551451.955   115285749.119       -2207.259          37.000    21551457.548    89667068.933          44.000  
R20  23016030.439   123076655.131        1812.263          34.000    23016038.605    95726287.728          41.000  
E03  25136639.902   132094333.312        1212.514          48.000    25136635.328   107219467.857          48.000    25136645.424    99928549.671          50.000  
E05  23870979.239   125442820.041        -561.460          52.000    23870973.468   101820490.070          51.000    23870984.779    94896705.567          54.000  
E09  26963605.120   141695057.239       -1807.686          42.000    26963602.476   115012228.294          43.000    26963612.375   107191399.232          44.000  
E15  25340655.505   133165450.345         623.969          45.000    25340651.860   108089839.369          47.000    25340662.277   100739496.331          49.000  
E24  26047509.077   136880455.323        1426.098          44.000    26047506.129   111104274.800          46.000    26047514.277   103549309.522          48.000  
E25  27202780.706   142952061.470        2839.155          41.000    27202777.079   116032522.832          39.000    27202789.640   108141886.705          42.000  
E31  27468677.647   144349374.061        -754.795          39.000    27468673.036   117166703.431          38.000    27468685.688   109199368.568          43.000  
E36  27561982.162   144839715.627       -3155.586          37.000    27561981.465   117563852.833          37.000    27561993.884   109569507.893          40.000  
J02  37329378.668   196167899.246         423.124          42.000    37329389.033   152858114.981          44.000    37329386.102   146489028.902          33.000  
J03  37232085.091   195655615.973        -411.817          41.000    37232094.758   152458911.010          44.000    37232091.559   146106454.027          30.000  
C06  37456525.273   195046494.421         410.859          43.000    37456521.234   150822337.492          44.000    37456512.568   158491266.294          43.000  
C09  39168781.888   203961710.341         460.873          38.000    39168780.744   157716145.867          41.000    39168770.273   165735608.135          39.000  
C13  36274067.802   188888521.172         247.758          49.000    36274070.339   146060588.657          48.000    36274059.886   153487397.269          48.000  
C14  25626020.478   133441791.374       -2214.829          33.000    25626020.621   103185656.985          38.000    25626012.205   108432385.582          37.000  
C16  37270082.281   194074957.500         267.187          46.000    37270083.443   150071086.837          45.000    37270075.348   157701815.546          42.000  
C23  24276038.773   126412112.474        3047.427          42.000                                                    24276022.476   102719929.500          45.000  
C24  25163333.846   131032204.636       -2236.021          40.000                                                    25163324.268   106474246.584          42.000  
C25  22465006.005   116980571.492         748.164          50.000                                                    22464999.268    95056964.405          50.000  
C27  25200851.414   131227555.709       -2176.832          40.000                                                    25200846.572   106632565.595          40.000  
C30  25799062.899   134341997.988        -358.091          37.000                                                    25799059.504   109163864.469          37.000  
C32  24869625.522   129502958.102        2262.475          39.000                                                    24869618.804   105230903.432          45.000  
C33  23743376.796   123637634.079       -1630.113          45.000                                                    23743384.284   100465416.959          45.000  
C38  35857678.539   186719569.694        -453.765          50.000                                                    35857667.907   151724946.258          51.000  
C39  36812757.750   191693741.913         167.666          48.000                                                    36812749.351   155766884.125          49.000  
C41  21981682.170   114464586.581         520.605          51.000                                                    21981682.295    93011868.323          52.000  
> 2022 08 25 07 17 17.0000000  0 41                     
G02  23991128.352   126074057.229       -3287.948          39.000    23991136.536    98240013.724          25.000                                                  
G05  21103082.467   110898176.322       -1777.026          49.000    21103090.079    86414173.235          44.000                                                  
G13  21277150.195   111812576.578       -1948.114          48.000    21277157.843    87126704.483          39.000                                                  
G14  24349059.338   127955264.243        -177.538          38.000    24349069.237    99705400.970          20.000    24349068.844    95551009.701          31.000  
G15  20254448.794   106437668.654          25.763          51.000    20254456.281    82938464.825          56.000                                                  
G18  21587533.194   113442968.141         366.612          47.000    21587541.128    88396840.674          39.000    21587541.699    84714451.937          39.000  
G20  23471199.698   123341821.505       -3219.618          37.000    23471209.634    96110509.989          23.000                                                  
G23  23518901.716   123592093.459        3166.168          41.000    23518910.669    96305672.695          31.000    23518911.473    92292869.618          34.000  
G24  21008561.732   110401124.721        2609.771          48.000    21008572.668    86026865.304          54.000    21008568.308    82442414.857          39.000  
R03  20567529.086   110098855.152        -844.029          53.000    20567534.518    85633132.350          49.000  
R04  20710995.111   110906661.530        1488.753          51.000    20711000.276    86261033.154          49.000  
R13  20647027.780   110253737.035        -895.260          40.000    20647032.622    85752885.241          45.000  
R14  20835968.860   111066930.106        3235.646          52.000    20835975.829    86385833.302          49.000  
R18  23115604.390   123393111.681       -4008.331          43.000    23115614.361    95971613.332          39.000  
R19  21551863.801   115287956.972       -2208.057          37.000    21551870.180    89668786.149          44.000  
R20  23015691.482   123074843.307        1811.641          34.000    23015699.791    95724878.532          42.000  
E03  25136409.035   132093121.056        1212.389          49.000    25136404.674   107218483.884          48.000    25136414.717    99927632.607          50.000  
E05  23871086.132   125443381.703        -561.562          52.000    23871080.449   101820945.962          52.000    23871091.671    94897130.459          54.000  
E09  26963949.278   141696865.062       -1807.714          41.000    26963946.222   115013695.690          43.000    26963956.389   107192766.841          44.000  
E15  25340536.908   133164826.821         623.453          45.000    25340533.352   108089333.265          46.000    25340543.627   100739024.642          49.000  
E24  26047237.718   136879029.671        1425.665          44.000    26047234.877   111103117.617          46.000    26047242.990   103548231.027          48.000  
E25  27202240.275   142949222.579        2838.981          41.000    27202236.880   116030218.544          39.000    27202249.406   108139739.111          43.000  
E31  27468821.456   144350129.183        -755.160          39.000    27468816.918   117167316.357          37.000    27468829.372   109199939.812          43.000  
E36  27562582.364   144842871.318       -3155.516          37.000    27562582.132   117566414.266          37.000    27562594.408   109571895.141          41.000  
J02  37329298.669   196167476.468         422.936          41.000    37329308.568   152857785.544          44.000    37329305.799   146488713.200          32.000  
J03  37232163.714   195656027.917        -411.820          41.000    37232173.096   152459232.005          43.000    37232169.879   146106761.658          30.000  
C06  37456446.470   195046083.852         410.757          43.000    37456442.557   150822020.021          44.000    37456433.640   158490932.683          43.000  
C09  39168693.811   203961249.735         460.674          38.000    39168692.400   157715789.691          41.000    39168681.786   165735233.853          40.000  
C13  36274020.610   188888273.671         247.574          49.000    36274022.593   146060397.267          48.000    36274012.372   153487196.152          48.000  
C14  25626446.208   133444006.520       -2214.995          33.000    25626446.118   103187369.881          38.000    25626437.613   108434185.584          37.000  
C16  37270030.694   194074690.520         267.036          46.000    37270032.391   150070880.389          45.000    37270024.028   157701598.608          43.000  
C23  24275453.491   126409065.283        3047.207          43.000                                                    24275437.319   102717453.410          45.000  
C24  25163763.399   131034441.067       -2236.426          39.000                                                    25163753.822   106476063.868          42.000  
C25  22464862.248   116979823.770         747.603          50.000                                                    22464855.637    95056356.827          50.000  
C27  25201269.210   131229732.822       -2177.168          40.000                                                    25201264.707   106634334.673          40.000  
C30  25799131.409   134342356.533        -358.623          38.000                                                    25799128.389   109164155.822          37.000  
C32  24869191.251   129500695.786        2262.545          39.000                                                    24869184.265   105229065.115          45.000  
C33  23743689.737   123639264.464       -1630.366          45.000                                                    23743697.331   100466741.783          45.000  
C38  35857765.829   186720023.725        -453.960          50.000                                                    35857755.037   151725315.202          51.000  
C39  36812725.443   191693574.477         167.549          49.000                                                    36812717.205   155766748.068          49.000  
C41  21981582.103   114464066.279         520.323          51.000                                                    21981582.371    93011445.535          52.000  
> 2022 08 25 07 17 18.0000000  0 41                     
G02  23991753.446   126077345.284       -3288.019          39.000    23991762.202    98242575.838          25.000                                                  
G05  21103420.584   110899953.668       -1777.599          48.000    21103428.304    86415558.175          43.000                                                  
G13  21277520.852   111814524.894       -1948.351          48.000    21277528.553    87128222.646          39.000                                                  
G14  24349093.057   127955442.312        -178.385          38.000    24349103.045    99705539.722          19.000    24349102.724    95551142.681          30.000  
G15  20254443.844   106437643.104          25.482          51.000    20254451.385    82938444.916          56.000                                                  
G18  21587463.344   113442601.968         365.892          47.000    21587471.528    88396555.342          39.000    21587472.082    84714178.499          39.000  
G20  23471811.873   123345041.337       -3219.845          37.000    23471822.362    96113018.954          24.000                                                  
G23  23518299.387   123588927.448        3166.063          41.000    23518308.393    96303205.675          30.000    23518308.894    92290505.393          34.000  
G24  21008065.152   110398515.330        2609.227          48.000    21008076.070    86024832.014          53.000    21008071.710    82440466.299          39.000  
R03  20567686.512   110099699.370        -844.278          53.000    20567692.337    85633788.961          49.000  
R04  20710716.712   110905172.914        1488.632          51.000    20710722.269    86259875.350          49.000  
R13  20647195.123   110254632.813        -896.202          40.000    20647200.376    85753581.958          45.000  
R14  20835362.064   111063694.823        3235.052          52.000    20835368.854    86383316.975          49.000  
R18  23116355.693   123397120.209       -4008.516          43.000    23116365.360    95974731.066          39.000  
R19  21552277.361   115290165.467       -2208.847          37.000    21552283.115    89670503.861          44.000  
R20  23015353.543   123073032.281        1810.685          35.000    23015361.173    95723469.956          41.000  
E03  25136178.310   132091908.847        1212.191          49.000    25136173.932   107217499.945          48.000    25136184.046    99926715.579          50.000  
E05  23871193.131   125443943.424        -561.710          52.000    23871187.288   101821401.905          52.000    23871198.546    94897555.392          54.000  
E09  26964293.185   141698672.837       -1807.765          41.000    26964290.290   115015163.033          43.000    26964300.404   107194134.407          43.000  
E15  25340418.365   133164203.747         622.870          45.000    25340414.702   108088827.528          46.000    25340425.048   100738553.295          49.000  
E24  26046966.752   136877604.360        1425.189          44.000    26046963.858   111101960.711          46.000    26046971.756   103547152.791          47.000  
E25  27201699.970   142946383.585        2839.100          41.000    27201696.610   116027914.171          39.000    27201709.154   108137591.437          43.000  
E31  27468965.338   144350884.712        -755.763          39.000    27468960.567   117167929.616          38.000    27468973.164   109200511.366          43.000  
E36  27563183.174   144846026.947       -3155.538          37.000    27563182.692   117568975.642          37.000    27563194.932   109574282.343          40.000  
J02  37329217.937   196167053.699         422.738          41.000    37329228.086   152857456.123          43.000    37329225.388   146488397.511          33.000  
J03  37232242.195   195656439.896        -411.886          42.000    37232251.433   152459553.025          43.000    37232248.235   146107069.298          30.000  
C06  37456367.954   195045673.359         410.394          43.000    37456363.826   150821702.604          44.000    37456354.856   158490599.123          43.000  
C09  39168605.074   203960789.165         460.521          38.000    39168603.894   157715433.551          41.000    39168593.298   165734859.597          40.000  
C13  36273973.167   188888026.275         247.381          49.000    36273975.240   146060205.967          48.000    36273964.876   153486995.125          48.000  
C14  25626871.830   133446221.701       -2215.075          33.000    25626871.580   103189082.790          38.000    25626862.895   108435985.584          37.000  
C16  37269979.660   194074423.572         266.957          46.000    37269981.107   150070673.972          45.000    37269972.744   157701381.688          43.000  
C23  24274868.352   126406018.279        3047.010          43.000                                                    24274852.162   102714977.469          46.000  
C24  25164192.989   131036677.844       -2236.876          40.000                                                    25164183.375   106477881.427          41.000  
C25  22464718.689   116979076.577         746.971          50.000                                                    22464712.166    95055749.669          49.000  
C27  25201687.506   131231910.123       -2177.492          40.000                                                    25201682.949   106636103.899          40.000  
C30  25799200.473   134342715.541        -359.181          37.000                                                    25799197.239   109164447.545          37.000  
C32  24868757.052   129498433.461        2262.401          39.000                                                    24868749.833   105227226.786          45.000  
C33  23744002.856   123640895.005       -1630.509          44.000                                                    23744010.503   100468066.734          46.000  
C38  35857853.084   186720477.890        -454.206          50.000                                                    35857842.273   151725684.246          51.000  
C39  36812693.082   191693407.068         167.469          48.000                                                    36812685.094   155766612.039          49.000  
C41  21981482.055   114463546.131         520.111          51.000                                                    21981482.501    93011022.872          52.000  
> 2022 08 25 07 17 19.0000000  0 41                     
G02  23992379.326   126080633.433       -3288.095          39.000    23992387.921    98245138.026          25.000                                                  
G05  21103759.095   110901731.453       -1777.836          49.000    21103766.582    86416943.467          43.000                                                  
G13  21277892.117   111816473.394       -1948.490          48.000    21277899.211    87129740.955          40.000                                                  
G14  24349126.936   127955620.926        -178.725          38.000    24349137.086    99705678.913          20.000    24349136.693    95551276.052          30.000  
G15  20254439.180   106437617.909          25.162          51.000    20254446.596    82938425.276          56.000                                                  
G18  21587393.690   113442236.518         365.279          47.000    21587401.928    88396270.578          40.000    21587402.625    84713905.593          39.000  
G20  23472425.353   123348261.463       -3220.135          37.000    23472434.948    96115528.127          23.000                                                  
G23  23517696.290   123585761.512        3165.987          42.000    23517705.707    96300738.712          31.000    23517706.457    92288141.218          34.000  
G24  21007568.572   110395906.467        2608.800          49.000    21007579.651    86022799.132          54.000    21007575.291    82438518.118          40.000  
R03  20567844.689   110100543.836        -844.452          53.000    20567850.032    85634445.768          49.000  
R04  20710439.099   110903684.443        1488.506          51.000    20710444.335    86258717.645          48.000  
R13  20647362.359   110255529.456        -896.846          40.000    20647368.399    85754279.344          45.000  
R14  20834754.338   111060460.117        3234.583          52.000    20834762.111    86380801.107          49.000  
R18  23117106.532   123401128.847       -4008.515          43.000    23117116.235    95977848.879          40.000  
R19  21552689.617   115292374.688       -2209.353          38.000    21552696.104    89672222.148          43.000  
R20  23015015.514   123071222.013        1810.154          34.000    23015022.841    95722061.968          41.000  
E03  25135947.746   132090696.735        1212.223          49.000    25135943.314   107216516.091          48.000    25135953.392    99925798.626          50.000  
E05  23871299.935   125444505.254        -561.772          52.000    23871294.181   101821857.930          52.000    23871305.474    94897980.413          54.000  
E09  26964637.467   141700480.619       -1807.660          41.000    26964634.304   115016630.389          43.000    26964644.400   107195501.982          43.000  
E15  25340300.037   133163581.192         622.462          45.000    25340296.266   108088322.205          47.000    25340306.577   100738082.336          49.000  
E24  26046695.340   136876179.438        1424.918          44.000    26046692.534   111100804.116          46.000    26046700.611   103546074.847          48.000  
E25  27201159.753   142943544.665        2839.088          40.000    27201156.358   116025609.857          39.000    27201168.920   108135443.819          43.000  
E31  27469109.309   144351640.735        -756.122          39.000    27469104.252   117168543.261          37.000    27469117.010   109201083.292          43.000  
E36  27563783.449   144849182.583       -3155.565          37.000    27563782.984   117571537.020          37.000    27563795.457   109576669.552          41.000  
J02  37329137.598   196166630.980         422.838          41.000    37329147.515   152857126.725          44.000    37329144.852   146488081.844          33.000  
J03  37232320.193   195656851.939        -411.864          41.000    37232330.021   152459874.098          43.000    37232326.626   146107376.991          29.000  
C06  37456288.990   195045262.953         410.463          43.000    37456284.970   150821385.252          44.000    37456276.035   158490265.635          43.000  
C09  39168516.729   203960328.719         460.468          38.000    39168515.568   157715077.499          41.000    39168504.900   165734485.447          40.000  
C13  36273925.421   188887779.074         247.221          49.000    36273927.709   146060014.817          48.000    36273917.344   153486794.249          47.000  
C14  25627297.059   133448437.054       -2215.274          33.000    25627296.720   103190795.839          38.000    25627288.357   108437785.744          37.000  
C16  37269928.626   194074156.734         266.923          46.000    37269929.859   150070467.637          45.000    37269921.478   157701164.863          43.000  
C23  24274283.034   126402971.507        3046.835          43.000                                                    24274267.113   102712501.720          46.000  
C24  25164622.524   131038915.037       -2237.237          40.000                                                    25164612.982   106479699.330          42.000  
C25  22464575.218   116978329.954         746.454          49.000                                                    22464568.785    95055142.977          49.000  
C27  25202105.373   131234087.669       -2177.613          39.000                                                    25202101.120   106637873.326          40.000  
C30  25799269.715   134343075.055        -359.649          38.000                                                    25799266.320   109164739.679          37.000  
C32  24868322.281   129496171.145        2262.490          39.000                                                    24868315.366   105225388.464          45.000  
C33  23744316.082   123642525.780       -1630.733          44.000                                                    23744323.658   100469391.869          46.000  
C38  35857940.410   186720932.259        -454.332          50.000                                                    35857929.581   151726053.455          51.000  
C39  36812661.168   191693239.761         167.402          48.000                                                    36812652.894   155766476.086          49.000  
C41  21981382.471   114463026.207         519.916          51.000                                                    21981382.649    93010600.396          52.000  
> 2022 08 25 07 17 20.0000000  0 41                     
G02  23993004.849   126083921.626       -3288.193          39.000    23993013.587    98247700.263          26.000                                                  
G05  21104097.320   110903509.650       -1778.379          49.000    21104105.040    86418329.070          44.000                                                  
G13  21278262.738   111818422.035       -1948.681          48.000    21278269.993    87131259.377          40.000                                                  
G14  24349162.138   127955800.068        -179.301          38.000    24349171.073    99705818.484          20.000    24349170.769    95551409.827          30.000  
G15  20254434.105   106437592.966          24.874          51.000    20254441.896    82938405.847          56.000                                                  
G18  21587324.376   113441871.687         364.527          47.000    21587332.435    88395986.294          39.000    21587333.204    84713633.161          38.000  
G20  23473038.206   123351481.762       -3220.405          37.000    23473047.820    96118037.462          22.000                                                  
G23  23517094.032   123582595.589        3165.943          41.000    23517103.253    96298271.763          31.000    23517103.985    92285777.068          34.000  
G24  21007072.439   110393298.042        2608.277          48.000    21007083.285    86020766.600          54.000    21007078.979    82436570.268          40.000  
R03  20568002.151   110101388.439        -844.591          52.000    20568007.994    85635102.682          49.000  
R04  20710161.343   110902196.046        1488.411          51.000    20710166.471    86257560.005          48.000  
R13  20647530.667   110256426.952        -897.819          40.000    20647536.529    85754977.403          45.000  
R14  20834148.007   111057225.930        3233.991          52.000    20834155.494    86378285.625          49.000  
R18  23117857.799   123405137.512       -4008.619          43.000    23117867.145    95980966.723          39.000  
R19  21553103.035   115294584.557       -2210.200          37.000    21553109.414    89673940.935          44.000  
R20  23014676.307   123069412.525        1809.161          34.000    23014684.473    95720654.595          41.000  
E03  25135717.182   132089484.687        1212.066          49.000    25135712.536   107215532.288          48.000    25135722.739    99924881.724          50.000  
E05  23871406.863   125445067.127        -561.869          52.000    23871401.109   101822313.999          52.000    23871412.384    94898405.467          54.000  
E09  26964981.428   141702288.371       -1807.646          41.000    26964978.372   115018097.718          43.000    26964988.415   107196869.533          43.000  
E15  25340181.601   133162959.080         621.934          45.000    25340177.920   108087817.246          47.000    25340188.194   100737611.708          49.000  
E24  26046424.231   136874754.855        1424.434          45.000    26046421.586   111099647.796          46.000    26046429.520   103544997.163          47.000  
E25  27200619.126   142940705.692        2839.068          41.000    27200616.053   116023305.500          39.000    27200628.686   108133296.157          43.000  
E31  27469253.101   144352397.177        -756.625          39.000    27469248.276   117169157.259          37.000    27469260.963   109201655.531          44.000  
E36  27564384.026   144852338.189       -3155.571          37.000    27564383.508   117574098.391          37.000    27564395.963   109579056.743          41.000  
J02  37329056.972   196166208.235         422.837          41.000    37329067.265   152856797.320          44.000    37329064.317   146487766.147          33.000  
J03  37232398.603   195657263.939        -411.972          41.000    37232408.431   152460195.139          43.000    37232405.035   146107684.644          29.000  
C06  37456210.295   195044852.591         410.370          43.000    37456206.185   150821067.934          44.000    37456197.251   158489932.178          43.000  
C09  39168428.278   203959868.305         460.317          38.000    39168427.098   157714721.482          41.000    39168416.448   165734111.319          40.000  
C13  36273877.943   188887531.995         247.065          49.000    36273880.141   146059823.767          48.000    36273869.902   153486593.484          48.000  
C14  25627722.503   133450652.479       -2215.420          32.000    25627722.288   103192508.942          38.000    25627713.747   108439585.947          37.000  
C16  37269876.698   194073889.961         266.821          46.000    37269878.557   150070261.355          45.000    37269870.212   157700948.086          43.000  
C23  24273698.002   126399924.881        3046.538          43.000                                                    24273682.152   102710026.091          45.000  
C24  25165052.614   131041152.544       -2237.638          40.000                                                    25165042.768   106481517.490          41.000  
C25  22464432.105   116977583.823         745.878          49.000                                                    22464425.494    95054536.684          50.000  
C27  25202523.383   131236265.357       -2177.647          40.000                                                    25202519.434   106639642.874          40.000  
C30  25799338.315   134343434.988        -360.142          38.000                                                    25799335.456   109165032.150          37.000  
C32  24867888.153   129493908.829        2262.382          40.000                                                    24867880.845   105223550.149          44.000  
C33  23744629.576   123644156.682       -1630.899          44.000                                                    23744636.831   100470717.108          46.000  
C38  35858027.664   186721386.746        -454.498          50.000                                                    35858016.800   151726422.766          51.000  
C39  36812628.789   191693072.477         167.284          48.000                                                    36812620.837   155766340.151          49.000  
C41  21981282.708   114462506.428         519.760          51.000                                                    21981282.779    93010178.028          52.000  
> 2022 08 25 07 17 21.0000000  0 41                     
G02  23993630.247   126087209.887       -3288.143          40.000    23993639.396    98250262.533          25.000                                                  
G05  21104436.010   110905288.251       -1778.743          50.000    21104443.532    86419715.000          44.000                                                  
G13  21278633.288   111820370.826       -1948.773          48.000    21278640.882    87132777.922          39.000                                                  
G14  24349196.286   127955979.773        -179.876          38.000    24349205.238    99705958.514          20.000    24349204.953    95551544.028          31.000  
G15  20254429.531   106437568.346          24.523          51.000    20254437.232    82938386.658          56.000                                                  
G18  21587255.277   113441507.540         363.840          47.000    21587263.157    88395702.543          39.000    21587263.943    84713361.231          39.000  
G20  23473650.453   123354702.313       -3220.682          37.000    23473660.817    96120546.971          22.000                                                  
G23  23516491.793   123579429.738        3165.881          41.000    23516500.781    96295804.874          31.000    23516501.621    92283412.956          34.000  
G24  21006575.894   110390690.113        2607.746          48.000    21006587.045    86018734.442          54.000    21006582.685    82434622.791          39.000  
R03  20568160.023   110102233.249        -844.810          52.000    20568165.688    85635759.763          49.000  
R04  20709883.158   110900707.756        1488.319          51.000    20709888.376    86256402.440          48.000  
R13  20647698.636   110257325.327        -898.624          39.000    20647704.748    85755676.137          45.000  
R14  20833541.604   111053992.278        3233.494          51.000    20833548.787    86375770.558          49.000  
R18  23118608.441   123409146.260       -4008.658          44.000    23118618.108    95984084.635          39.000  
R19  21553516.185   115296795.131       -2210.927          38.000    21553522.689    89675660.264          43.000  
R20  23014338.100   123067603.753        1808.517          33.000    23014346.176    95719247.772          41.000  
E03  25135486.368   132088272.719        1212.023          49.000    25135481.954   107214548.545          48.000    25135492.086    99923964.878          50.000  
E05  23871513.880   125445629.080        -561.907          52.000    23871508.037   101822770.129          51.000    23871519.330    94898830.582          54.000  
E09  26965325.353   141704096.129       -1807.664          41.000    26965322.458   115019565.051          43.000    26965332.411   107198237.085          43.000  
E15  25340063.486   133162337.455         621.477          46.000    25340059.609   108087312.683          47.000    25340069.901   100737141.455          49.000  
E24  26046153.265   136873330.644        1424.104          45.000    26046150.531   111098491.783          46.000    26046158.519   103543919.757          47.000  
E25  27200078.892   142937866.689        2839.108          41.000    27200075.675   116021001.113          39.000    27200088.452   108131148.474          42.000  
E31  27469397.089   144353154.039        -757.025          40.000    27469392.122   117169771.597          37.000    27469404.969   109202228.098          43.000  
E36  27564984.354   144855493.713       -3155.550          37.000    27564984.158   117576659.678          37.000    27564996.451   109581443.857          41.000  
J02  37328976.562   196165785.521         422.741          42.000    37328986.801   152856467.935          44.000    37328983.960   146487450.495          32.000  
J03  37232476.851   195657675.970        -411.946          40.000    37232486.679   152460516.198          43.000    37232483.409   146107992.334          29.000  
C06  37456131.153   195044442.313         410.333          43.000    37456127.383   150820750.681          45.000    37456118.502   158489598.798          43.000  
C09  39168339.629   203959407.941         460.377          38.000    39168338.808   157714365.501          41.000    39168327.997   165733737.245          40.000  
C13  36273830.590   188887285.046         246.940          49.000    36273832.735   146059632.802          48.000    36273822.496   153486392.811          47.000  
C14  25628147.839   133452868.018       -2215.482          32.000    25628148.036   103194222.140          39.000    25628139.244   108441386.251          37.000  
C16  37269825.861   194073623.263         266.764          45.000    37269827.362   150070055.125          45.000    37269818.999   157700731.369          43.000  
C23  24273113.006   126396878.478        3046.422          43.000                                                    24273097.103   102707550.640          45.000  
C24  25165481.756   131043390.455       -2237.992          40.000                                                    25165472.607   106483335.972          42.000  
C25  22464288.921   116976838.239         745.397          49.000                                                    22464282.309    95053930.833          50.000  
C27  25202942.126   131238443.319       -2178.002          39.000                                                    25202937.766   106641412.651          40.000  
C30  25799407.593   134343795.383        -360.507          38.000                                                    25799404.644   109165325.000          38.000  
C32  24867453.596   129491646.486        2262.404          40.000                                                    24867446.377   105221711.802          44.000  
C33  23744942.605   123645787.776       -1631.068          44.000                                                    23744949.967   100472042.511          46.000  
C38  35858114.829   186721841.400        -454.672          50.000                                                    35858104.108   151726792.204          51.000  
C39  36812596.911   191692905.251         167.291          48.000                                                    36812588.673   155766204.264          49.000  
C41  21981182.820   114461986.830         519.581          52.000                                                    21981183.034    93009755.812          51.000  
> 2022 08 25 07 17 22.0000000  0 41                     
G02  23994257.146   126090498.242       -3288.493          39.000    23994265.295    98252824.887          24.000                                                  
G05  21104773.931   110907067.296       -1779.294          50.000    21104782.097    86421101.264          44.000                                                  
G13  21279004.374   111822319.816       -1949.118          48.000    21279011.807    87134296.609          39.000                                                  
G14  24349230.344   127956160.045        -180.529          38.000    24349239.565    99706099.013          20.000    24349239.207    95551678.651          30.000  
G15  20254424.831   106437544.037          24.104          50.000    20254432.533    82938367.714          56.000                                                  
G18  21587185.480   113441144.070         363.069          47.000    21587193.897    88395419.322          39.000    21587194.719    84713089.811          39.000  
G20  23474263.825   123357923.119       -3220.979          38.000    23474273.706    96123056.702          23.000                                                  
G23  23515889.428   123576263.950        3165.725          42.000    23515898.112    96293338.019          31.000    23515899.220    92281048.894          34.000  
G24  21006079.546   110388082.656        2607.146          48.000    21006090.786    86016702.662          54.000    21006086.515    82432675.664          39.000  
R03  20568318.146   110103078.283        -845.201          52.000    20568323.561    85636417.004          49.000  
R04  20709605.849   110899219.620        1487.996          51.000    20709610.602    86255245.007          48.000  
R13  20647867.123   110258224.618        -899.786          39.000    20647873.109    85756375.584          45.000  
R14  20832934.700   111050759.174        3232.797          52.000    20832942.241    86373255.929          49.000  
R18  23119358.904   123413155.079       -4008.945          43.000    23119368.964    95987202.597          39.000  
R19  21553930.049   115299006.395       -2211.625          37.000    21553935.964    89677380.140          43.000  
R20  23014000.089   123065795.773        1807.604          34.000    23014008.220    95717841.572          41.000  
E03  25135255.768   132087060.851        1211.751          49.000    25135251.265   107213564.883          48.000    25135261.450    99923048.105          50.000  
E05  23871620.755   125446191.133        -562.122          52.000    23871615.001   101823226.338          52.000    23871626.277    94899255.771          54.000  
E09  26965669.564   141705903.879       -1807.698          41.000    26965666.437   115021032.378          43.000    26965676.408   107199604.634          43.000  
E15  25339945.265   133161716.309         620.872          46.000    25339941.280   108086808.501          46.000    25339951.698   100736671.562          49.000  
E24  26045882.389   136871906.773        1423.689          45.000    26045879.476   111097336.046          46.000    26045887.571   103542842.606          47.000  
E25  27199538.407   142935027.719        2838.967          40.000    27199535.513   116018696.754          39.000    27199548.200   108129000.816          42.000  
E31  27469541.149   144353911.335        -757.541          39.000    27469536.182   117170386.288          38.000    27469549.083   109202800.984          43.000  
E36  27565585.325   144858649.237       -3155.539          37.000    27565584.646   117579220.971          37.000    27565596.958   109583830.979          41.000  
J02  37328896.330   196165362.844         422.703          41.000    37328906.390   152856138.571          43.000    37328903.120   146487134.859          31.000  
J03  37232554.974   195658088.046        -412.092          40.000    37232565.035   152460837.296          44.000    37232561.818   146108300.055          30.000  
C06  37456052.244   195044032.131         410.078          43.000    37456048.456   150820433.500          44.000    37456039.789   158489265.489          43.000  
C09  39168251.553   203958947.731         460.107          38.000    39168250.463   157714009.640          41.000    39168239.652   165733363.286          40.000  
C13  36273783.077   188887038.243         246.646          49.000    36273785.382   146059441.960          47.000    36273775.107   153486192.266          48.000  
C14  25628572.979   133455083.647       -2215.781          32.000    25628573.551   103195935.393          38.000    25628564.777   108443186.624          36.000  
C16  37269774.738   194073356.649         266.572          45.000    37269776.149   150069848.958          45.000    37269767.822   157700514.724          43.000  
C23  24272528.224   126393832.279        3046.104          43.000                                                    24272512.124   102705075.356          45.000  
C24  25165911.596   131045628.704       -2238.423          40.000                                                    25165902.411   106485154.736          42.000  
C25  22464145.826   116976093.177         744.707          49.000                                                    22464139.214    95053325.412          50.000  
C27  25203360.636   131240621.467       -2178.335          39.000                                                    25203356.062   106643182.567          40.000  
C30  25799477.175   134344156.296        -361.279          37.000                                                    25799473.923   109165618.257          37.000  
C32  24867019.272   129489384.164        2262.280          40.000                                                    24867011.785   105219873.484          45.000  
C33  23745256.099   123647419.053       -1631.392          44.000                                                    23745263.283   100473368.055          46.000  
C38  35858202.298   186722296.233        -454.951          51.000                                                    35858191.505   151727161.796          51.000  
C39  36812564.872   191692738.103         167.060          48.000                                                    36812556.670   155766068.450          49.000  
C41  21981083.004   114461467.432         519.272          51.000                                                    21981083.325    93009333.759          52.000  
> 2022 08 25 07 17 23.0000000  0 41                     
G02  23994882.205   126093786.664       -3288.532          39.000    23994890.925    98255387.301          25.000                                                  
G05  21105113.049   110908846.798       -1779.743          50.000    21105120.608    86422487.887          44.000                                                  
G13  21279375.335   111824268.991       -1949.279          48.000    21279382.786    87135815.446          39.000                                                  
G14  24349264.474   127956340.904        -181.120          39.000    24349273.945    99706239.929          20.000    24349273.587    95551813.708          31.000  
G15  20254420.221   106437520.045          23.777          50.000    20254427.958    82938349.026          56.000                                                  
G18  21587116.756   113440781.310         362.366          47.000    21587124.851    88395136.652          40.000    21587125.762    84712818.919          39.000  
G20  23474876.929   123361144.181       -3221.154          38.000    23474886.614    96125566.611          23.000                                                  
G23  23515286.938   123573098.237        3165.662          42.000    23515295.837    96290871.237          31.000    23515296.784    92278684.888          34.000  
G24  21005583.788   110385475.724        2606.638          48.000    21005594.742    86014671.289          54.000    21005590.328    82430728.936          39.000  
R03  20568475.626   110103923.586        -845.458          52.000    20568481.398    85637074.460          49.000  
R04  20709327.503   110897731.632        1487.862          51.000    20709332.828    86254087.681          48.000  
R13  20648035.968   110259124.800        -900.658          40.000    20648041.722    85757075.728          45.000  
R14  20832328.940   111047526.653        3232.227          52.000    20832335.802    86370741.751          49.000  
R18  23120110.136   123417163.994       -4008.928          43.000    23120119.964    95990320.633          39.000  
R19  21554344.021   115301218.343       -2212.365          37.000    21554349.507    89679100.549          43.000  
R20  23013662.865   123063988.631        1806.522          34.000    23013670.352    95716436.027          41.000  
E03  25135025.204   132085849.088        1211.658          49.000    25135020.790   107212581.317          48.000    25135030.886    99922131.417          50.000  
E05  23871727.576   125446753.288        -562.307          52.000    23871722.055   101823682.633          52.000    23871733.258    94899681.038          54.000  
E09  26966013.382   141707711.649       -1807.761          41.000    26966010.505   115022499.724          43.000    26966020.440   107200972.200          43.000  
E15  25339827.204   133161095.685         620.335          46.000    25339823.237   108086304.750          47.000    25339833.584   100736202.064          49.000  
E24  26045611.494   136870483.339        1423.206          45.000    26045608.671   111096180.662          46.000    26045616.694   103541765.787          47.000  
E25  27198998.298   142932188.743        2838.905          41.000    27198995.404   116016392.402          39.000    27199007.966   108126853.162          43.000  
E31  27469685.442   144354669.138        -758.107          39.000    27469680.528   117171001.390          38.000    27469693.304   109203374.257          44.000  
E36  27566185.760   144861804.740       -3155.558          37.000    27566185.099   117581782.251          37.000    27566197.446   109586218.090          41.000  
J02  37328816.062   196164940.215         422.523          41.000    37328825.997   152855809.253          43.000    37328822.477   146486819.265          32.000  
J03  37232633.884   195658500.175        -412.223          40.000    37232643.390   152461158.431          44.000    37232640.156   146108607.818          29.000  
C06  37455974.031   195043622.042         409.960          43.000    37455969.850   150820116.398          44.000    37455960.987   158488932.261          43.000  
C09  39168162.744   203958487.617         459.912          38.000    39168161.833   157713653.857          42.000    39168151.326   165732989.399          40.000  
C13  36273735.563   188886791.615         246.479          49.000    36273738.047   146059251.256          47.000    36273727.647   153485991.862          47.000  
C14  25628998.869   133457299.465       -2216.016          32.000    25628999.209   103197648.800          38.000    25628990.220   108444987.153          37.000  
C16  37269723.596   194073090.129         266.420          45.000    37269724.776   150069642.868          45.000    37269716.628   157700298.152          43.000  
C23  24271942.978   126390786.307        3045.830          43.000                                                    24271927.128   102702600.256          45.000  
C24  25166341.649   131047867.409       -2238.907          40.000                                                    25166332.411   106486973.863          42.000  
C25  22464002.891   116975348.701         744.155          49.000                                                    22463996.226    95052720.459          50.000  
C27  25203778.771   131242799.876       -2178.594          39.000                                                    25203774.447   106644952.708          40.000  
C30  25799546.239   134344517.662        -361.837          37.000                                                    25799543.326   109165911.897          38.000  
C32  24866584.590   129487121.874        2262.192          41.000                                                    24866577.299   105218035.191          45.000  
C33  23745569.486   123649050.563       -1631.671          45.000                                                    23745576.616   100474693.788          46.000  
C38  35858289.624   186722751.241        -455.176          50.000                                                    35858278.903   151727531.532          51.000  
C39  36812532.636   191692571.043         166.972          48.000                                                    36812524.452   155765932.698          49.000  
C41  21980983.366   114460948.247         519.033          51.000                                                    21980983.688    93008911.876          52.000  
> 2022 08 25 07 17 24.0000000  0 41                     
G02  23995507.996   126097075.168       -3288.600          39.000    23995516.466    98257949.763          23.000                                                  
G05  21105451.345   110910626.720       -1780.192          49.000    21105459.422    86423874.837          43.000                                                  
G13  21279745.903   111826218.324       -1949.449          48.000    21279753.711    87137334.412          39.000                                                  
G14  24349298.425   127956522.285        -181.549          38.000    24349308.396    99706381.267          21.000    24349308.093    95551949.141          29.000  
G15  20254415.968   106437496.370          23.446          50.000    20254423.473    82938330.573          56.000                                                  
G18  21587047.889   113440419.200         361.752          47.000    21587055.894    88394854.490          39.000    21587056.841    84712548.509          39.000  
G20  23475490.104   123364365.469       -3221.505          38.000    23475499.414    96128076.715          23.000                                                  
G23  23514684.591   123569932.581        3165.561          41.000    23514693.454    96288404.496          31.000    23514694.437    92276320.928          34.000  
G24  21005087.708   110382869.268        2606.151          48.000    21005098.698    86012640.287          54.000    21005094.320    82428782.551          40.000  
R03  20568633.660   110104769.107        -845.685          52.000    20568639.378    85637732.083          49.000  
R04  20709049.479   110896243.768        1487.816          51.000    20709054.875    86252930.456          48.000  
R13  20648204.759   110260025.904        -901.632          39.000    20648210.512    85757776.584          45.000  
R14  20831722.180   111044294.677        3231.682          52.000    20831729.417    86368227.991          49.000  
R18  23120861.564   123421172.984       -4009.053          43.000    23120870.909    95993438.727          39.000  
R19  21554756.867   115303431.035       -2212.988          38.000    21554763.157    89680821.529          43.000  
R20  23013325.623   123062182.218        1805.910          33.000    23013332.556    95715031.042          42.000  
E03  25134794.676   132084637.395        1211.610          49.000    25134790.226   107211597.798          48.000    25134800.304    99921214.782          50.000  
E05  23871834.719   125447315.519        -562.296          52.000    23871828.858   101824138.990          52.000    23871840.240    94900106.358          54.000  
E09  26966357.200   141709519.401       -1807.891          42.000    26966354.680   115023967.048          43.000    26966364.437   107202339.751          44.000  
E15  25339709.144   133160475.522         619.916          46.000    25339705.105   108085801.371          47.000    25339715.577   100735732.916          49.000  
E24  26045340.636   136869060.249        1422.870          44.000    26045337.884   111095025.556          46.000    26045345.889   103540689.229          47.000  
E25  27198457.832   142929349.746        2838.983          41.000    27198455.152   116014088.029          39.000    27198467.731   108124705.484          43.000  
E31  27469829.698   144355427.356        -758.492          40.000    27469824.784   117171616.817          38.000    27469837.578   109203947.837          44.000  
E36  27566786.248   144864960.223       -3155.372          37.000    27566785.534   117584343.505          37.000    27566797.935   109588605.177          41.000  
J02  37328735.455   196164517.593         422.597          41.000    37328745.551   152855479.939          43.000    37328741.906   146486503.664          32.000  
J03  37232712.758   195658912.306        -412.105          40.000    37232722.086   152461479.570          44.000    37232718.565   146108915.577          30.000  
C06  37455894.871   195043212.035         409.995          43.000    37455891.012   150819799.354          44.000    37455882.202   158488599.094          43.000  
C09  39168074.596   203958027.573         460.078          38.000    39168073.399   157713298.117          41.000    39168062.910   165732615.582          39.000  
C13  36273688.353   188886545.143         246.386          49.000    36273690.730   146059060.666          47.000    36273680.348   153485791.584          47.000  
C14  25629424.634   133459515.344       -2216.158          32.000    25629424.527   103199362.260          38.000    25629415.718   108446787.743          37.000  
C16  37269672.527   194072823.675         266.411          45.000    37269673.492   150069436.831          45.000    37269665.558   157700081.639          43.000  
C23  24271358.250   126387740.530        3045.649          43.000                                                    24271342.311   102700125.315          45.000  
C24  25166771.757   131050106.440       -2239.141          40.000                                                    25166762.483   106488793.261          42.000  
C25  22463859.939   116974604.741         743.681          49.000                                                    22463853.381    95052115.939          49.000  
C27  25204196.924   131244978.483       -2178.740          39.000                                                    25204192.743   106646723.005          41.000  
C30  25799615.910   134344879.493        -362.095          37.000                                                    25799612.908   109166205.917          38.000  
C32  24866150.248   129484859.570        2262.256          41.000                                                    24866142.885   105216196.886          44.000  
C33  23745883.123   123650682.233       -1631.817          45.000                                                    23745889.914   100476019.649          46.000  
C38  35858377.147   186723206.412        -455.308          50.000                                                    35858366.282   151727901.391          51.000  
C39  36812500.543   191692404.047         166.904          48.000                                                    36812492.466   155765796.995          49.000  
C41  21980883.835   114460429.241         518.852          51.000                                                    21980883.978    93008490.144          52.000  
> 2022 08 25 07 17 25.0000000  0 41                     
G02  23996134.001   126100363.711       -3288.487          39.000    23996142.275    98260512.275          24.000                                                  
G05  21105790.464   110912407.035       -1780.509          50.000    21105798.201    86425262.095          43.000                                                  
G13  21280117.024   111828167.784       -1949.498          48.000    21280124.726    87138853.472          39.000                                                  
G14  24349333.967   127956704.224        -182.150          39.000    24349343.080    99706523.021          21.000    24349342.687    95552085.007          30.000  
G15  20254411.680   106437472.965          23.290          51.000    20254419.006    82938312.340          56.000                                                  
G18  21586979.325   113440057.761         361.093          47.000    21586987.188    88394572.843          39.000    21586987.974    84712278.601          39.000  
G20  23476102.404   123367586.983       -3221.588          38.000    23476112.393    96130586.974          23.000                                                  
G23  23514082.244   123566766.954        3165.580          42.000    23514091.018    96285937.774          31.000    23514092.054    92273956.990          34.000  
G24  21004591.825   110380263.263        2605.780          48.000    21004602.886    86010609.634          54.000    21004598.455    82426836.516          39.000  
R03  20568791.550   110105614.822        -845.810          52.000    20568797.340    85638389.866          49.000  
R04  20708771.169   110894755.996        1487.729          51.000    20708777.083    86251773.302          49.000  
R13  20648373.817   110260927.852        -902.407          40.000    20648379.464    85758478.090          45.000  
R14  20831116.134   111041063.234        3231.170          52.000    20831123.174    86365714.649          49.000  
R18  23121613.153   123425182.042       -4009.003          42.000    23121621.980    95996556.874          39.000  
R19  21555169.891   115305644.342       -2213.710          37.000    21555177.003    89682542.983          43.000  
R20  23012987.327   123060376.597        1805.056          33.000    23012994.903    95713626.672          42.000  
E03  25134564.165   132083425.773        1211.620          49.000    25134559.698   107210614.338          48.000    25134569.722    99920298.193          50.000  
E05  23871941.844   125447877.815        -562.340          52.000    23871936.000   101824595.399          51.000    23871947.258    94900531.734          54.000  
E09  26966701.214   141711327.133       -1807.740          42.000    26966698.695   115025434.363          43.000    26966708.433   107203707.286          44.000  
E15  25339591.226   133159855.819         619.535          46.000    25339587.134   108085298.365          47.000    25339597.677   100735264.115          48.000  
E24  26045069.956   136867637.514        1422.582          44.000    26045067.204   111093870.744          46.000    26045075.138   103539612.946          47.000  
E25  27197917.723   142926510.747        2839.047          41.000    27197914.846   116011783.641          38.000    27197927.479   108122557.799          43.000  
E31  27469974.062   144356185.993        -758.912          40.000    27469969.220   117172232.596          37.000    27469981.960   109204521.750          43.000  
E36  27567386.469   144868115.662       -3155.479          37.000    27567385.969   117586904.738          37.000    27567398.423   109590992.244          41.000  
J02  37328655.170   196164094.995         422.670          41.000    37328665.141   152855150.644          43.000    37328661.567   146486188.091          31.000  
J03  37232791.310   195659324.464        -412.139          40.000    37232800.548   152461800.730          43.000    37232796.957   146109223.357          30.000  
C06  37455816.123   195042802.100         409.857          43.000    37455812.316   150819482.367          44.000    37455803.471   158488265.986          43.000  
C09  39167986.305   203957567.598         459.863          37.000    39167985.305   157712942.431          41.000    39167974.547   165732241.813          39.000  
C13  36273641.125   188886298.768         246.288          49.000    36273643.216   146058870.151          48.000    36273633.013   153485591.382          47.000  
C14  25629850.042   133461731.336       -2215.845          32.000    25629850.060   103201075.801          38.000    25629841.268   108448588.411          37.000  
C16  37269620.814   194072557.291         266.361          45.000    37269622.333   150069230.844          45.000    37269614.363   157699865.183          42.000  
C23  24270773.290   126384694.936        3045.487          42.000                                                    24270757.422   102697650.518          45.000  
C24  25167201.221   131052345.825       -2239.390          40.000                                                    25167192.554   106490612.936          42.000  
C25  22463717.148   116973861.300         743.202          49.000                                                    22463710.608    95051511.831          50.000  
C27  25204615.417   131247157.268       -2178.858          39.000                                                    25204611.289   106648493.444          40.000  
C30  25799685.653   134345241.825        -362.598          37.000                                                    25799682.383   109166500.338          38.000  
C32  24865716.048   129482597.265        2262.240          41.000                                                    24865708.436   105214358.575          44.000  
C33  23746196.385   123652314.054       -1631.880          45.000                                                    23746203.301   100477345.637          45.000  
C38  35858464.705   186723661.732        -455.387          51.000                                                    35858453.680   151728271.373          51.000  
C39  36812468.808   191692237.089         166.928          48.000                                                    36812460.427   155765661.330          49.000  
C41  21980783.930   114459910.393         518.740          51.000                                                    21980784.287    93008068.542          52.000  
