     3.02           OBSERVATION DATA    M: Mixed            RINEX VERSION / TYPE
CONVBIN 2.4.3                           20220826 040041 UTC PGM / RUN BY / DATE 
format: BINEX                                               COMMENT             
log: C:\ProjectFlutter\C#\KDT-DataConverter\2022-08-25_17-37COMMENT             
3333                                                        MARKER NAME         
3333                                                        MARKER NUMBER       
RG-CORS                                                     MARKER TYPE         
KKFC                KKFC                                    OBSERVER / AGENCY   
6037C01431          TRIMBLE BD990       5.41,24/APR/2019    REC # / TYPE / VERS 
tty                 C220GR2                                 ANT # / TYPE        
 -3737557.3413  3681865.6930  3614920.4318                  APPROX POSITION XYZ 
        3.1210        0.0000        0.0000                  ANTENNA: DELTA H/E/N
G   16 C1C L1C D1C S1C C2W L2W D2W S2W C2X L2X D2X S2X C5X  SYS / # / OBS TYPES 
       L5X D5X S5X                                          SYS / # / OBS TYPES 
R   16 C1C L1C D1C S1C C1P L1P D1P S1P C2P L2P D2P S2P C2C  SYS / # / OBS TYPES 
       L2C D2C S2C                                          SYS / # / OBS TYPES 
E   20 C1X L1X D1X S1X C7X L7X D7X S7X C5X L5X D5X S5X C6X  SYS / # / OBS TYPES 
       L6X D6X S6X C8X L8X D8X S8X                          SYS / # / OBS TYPES 
J   16 C1C L1C D1C S1C C1Z L1Z D1Z S1Z C2X L2X D2X S2X C5X  SYS / # / OBS TYPES 
       L5X D5X S5X                                          SYS / # / OBS TYPES 
C   12 C1I L1I D1I S1I C7I L7I D7I S7I C6I L6I D6I S6I      SYS / # / OBS TYPES 
     1.000                                                  INTERVAL            
  2022    08    25    08    37   19.0000000     GPS         TIME OF FIRST OBS   
  2022    08    25    08    38   21.0000000     GPS         TIME OF LAST OBS    
G L1C                                                       SYS / PHASE SHIFT   
G L2W  0.00000                                              SYS / PHASE SHIFT   
G L2X  0.00000                                              SYS / PHASE SHIFT   
G L5X  0.00000                                              SYS / PHASE SHIFT   
R L1C                                                       SYS / PHASE SHIFT   
R L1P  0.00000                                              SYS / PHASE SHIFT   
R L2P  0.00000                                              SYS / PHASE SHIFT   
R L2C                                                       SYS / PHASE SHIFT   
E L1X  0.00000                                              SYS / PHASE SHIFT   
E L7X  0.00000                                              SYS / PHASE SHIFT   
E L5X  0.00000                                              SYS / PHASE SHIFT   
E L6X  0.00000                                              SYS / PHASE SHIFT   
E L8X  0.00000                                              SYS / PHASE SHIFT   
J L1C                                                       SYS / PHASE SHIFT   
J L1Z  0.00000                                              SYS / PHASE SHIFT   
J L2X  0.00000                                              SYS / PHASE SHIFT   
J L5X  0.00000                                              SYS / PHASE SHIFT   
C L1I                                                       SYS / PHASE SHIFT   
C L7I                                                       SYS / PHASE SHIFT   
C L6I                                                       SYS / PHASE SHIFT   
  4 R03  5 R04  6 R05  1 R14 -7                             GLONASS SLOT / FRQ #
 C1C    0.000 C1P    0.000 C2C    0.000 C2P    0.000        GLONASS COD/PHS/BIS 
                                                            END OF HEADER       
> 2022 08 25 08 37 19.0000000  0 30                     
G23  20934503.008   110011652.6201       1888.949          46.400    20934509.836    85723332.4441       1471.910          39.900    20934509.758    85723325.4411       1471.910          49.500    20934512.023    82151507.3181       1410.578          41.400  
G18  22404029.758   117734091.6771      -2398.492          42.400    22404038.117    91740766.3971      -1868.953          31.200    22404037.852    91740773.4051      -1868.953          44.300    22404038.102    87918238.2481      -1791.082          36.400  
R04  19899100.359   106558831.5811        212.797          51.600    19899098.926   106558888.5961        212.797          49.600    19899104.910    82879084.9161        165.508          50.700    19899105.281    82879100.9131        165.508          51.000  
C13  36283262.258   188936528.4101       -548.910          48.200    36283265.238   146097693.4391       -424.449          47.600    36283256.520   153526350.2341       -446.035          46.100  
C06  37024849.938   192798181.7561        119.895          42.800    37024846.281   149083762.4841         92.711          46.500    37024838.516   156664254.9401         97.426          42.800  
R03  22159328.438   118620850.6711      -2224.914          44.800    22159327.387   118620858.6861      -2224.914          43.900    22159335.813    92260583.9651      -1730.488          42.300    22159336.211    92260543.9661      -1730.488          42.700  
C16  36982687.906   192578590.1821          5.133          45.600    36982689.426   148914032.7001          3.969          45.700    36982680.250   156485881.4291          4.172          42.900  
C38  36553689.789   190344650.1831      -1206.879          49.000                                                                    36553681.449   154670589.8051       -980.688          47.600  
C09  38660467.297   201315253.0851        143.523          38.800    38660465.582   155669709.8211        110.980          42.300    38660456.398   163585081.3871        116.625          39.200  
R14  19652760.438   104760420.6851       -638.414          52.600    19652758.098   104760463.6871       -638.414          51.200    19652766.527    81480265.1661       -496.543          50.800    19652766.094    81480251.1731       -496.543          50.800  
J07  37152775.047   195239126.2601          0.051          40.600    37152768.289   195239204.4221          0.051          46.400    37152781.609   152134450.5761          0.043          47.800    37152781.340   145795502.9531          0.039          40.900  
J02  37092879.367   194924355.7431        174.270          44.200    37092874.512   194924453.7681        174.270          44.000    37092887.777   151889186.6631        135.797          47.200    37092887.727   145560445.3851        130.137          40.000  
J04  38165902.445   200563146.2061        607.035          48.400    38165897.883   200563150.7491        607.035          50.700    38165909.078   156283024.1951        473.016          52.500    38165908.000   149771197.5981        453.305          43.600  
C41  22173948.477   115465647.8291       -832.086          49.800                                                                    22173948.012    93825316.0751       -676.141          49.500  
R15  20554659.945                        3324.156          51.800    20554658.184                        3324.156          49.300    20554666.129                        2585.453          46.500    20554665.570                        2585.453          46.800  
G24  19823725.125   104174366.0991       -251.363          51.800    19823734.617    81174930.3521       -195.867          56.100    19823734.809    81174929.3571       -195.867          52.800    19823732.137    77792609.1561       -187.707          46.400  
G05  23697984.883   124533755.6571      -3391.770          38.800    23697993.445    97039327.6581      -2642.938          26.900    23697994.633    97039331.6571      -2642.938          38.900                                                                  
G15  21047174.750   110603678.6171      -1502.035          49.000    21047181.609    86184804.6871      -1170.418          42.800    21047181.813    86184811.6831      -1170.418          46.900                                                                  
C39  36617708.922   190678168.5871        -26.551          47.800                                                                    36617699.613   154941531.1201        -21.574          49.300  
R05  21444314.867   114632287.6541       2584.637          38.400    21444313.473   114632083.6571       2584.637          37.000    21444321.434    89158364.6361       2010.273          39.600    21444321.410    89158364.6291       2010.273          40.200  
G12  23327222.563   122585243.7731       3334.617          35.800    23327229.531    95521123.2501       2598.402          21.500    23327230.055    95521118.2361       2598.402          36.300                                                                  
C33  25915640.859   134949587.5841      -2519.098          34.600                                                                    25915645.332   109657556.7521      -2046.973          35.000  
E25  24980041.211   131271051.5881       1979.258          47.800    24980046.660   100584344.4921       1516.574          50.100    24980047.277    98027110.0491       1478.016          38.300    24980036.801   106551169.4111       1606.539          48.600    24980048.008    99305736.0721       1497.293          51.300  
C23  22181827.992   115506760.6731       1212.723          50.800                                                                    22181810.402    93858573.7471        985.438          50.500  
C32  22813182.172   118794245.6151       1748.109          49.200                                                                    22813173.637    96529997.6191       1420.480          48.700  
E24  25934551.031   136287043.2591       -709.133          46.200    25934553.551   104427772.7201       -543.359          44.300    25934554.680   101772785.5241       -529.547          34.000    25934546.746   110622602.7771       -575.594          43.100    25934555.695   103100300.4291       -536.453          45.100  
E15  25560530.328   134321482.1871      -1524.852          43.600    25560536.051   102921673.0561      -1168.391          46.500    25560536.266   100304988.3851      -1138.688          37.000    25560527.160   109027152.7891      -1237.703          44.800    25560537.832   101613336.0211      -1153.539          47.900  
C25  23141568.898   120504301.3171      -1766.008          47.000                                                                    23141558.590    97919572.8091      -1435.027          47.300  
E03  24130849.352   126808524.2641        709.961          50.800    24130853.645    97165021.3181        543.996          53.800    24130853.465    94694688.4721        530.164          43.200    24130844.348   102929014.9101        576.266          50.700    24130854.906    95929896.1961        537.082          55.200  
E05  24767096.055   130151998.6591      -1071.082          48.200    24767100.578    99726909.3901       -820.699          49.700    24767100.496    97191460.3761       -799.832          39.700    24767091.285   105642844.4211       -869.383          47.900    24767102.270    98459209.6841       -810.266          50.900  
> 2022 08 25 08 37 20.0000000  0 30                     
G23  20934143.547   110009763.652        1888.738          47.000    20934150.375    85721860.518        1471.746          40.400    20934150.125    85721853.519        1471.746          49.600    20934152.590    82150096.726        1410.422          41.400  
G18  22404486.164   117736490.133       -2398.664          42.400    22404494.395    91742635.326       -1869.086          31.800    22404494.461    91742642.326       -1869.086          44.300    22404494.512    87920029.301       -1791.211          36.000  
R04  19899060.602   106558618.698         212.680          51.800    19899059.246   106558675.711         212.680          49.900    19899065.125    82878919.338         165.418          50.500    19899065.457    82878935.335         165.418          51.300  
C13  36283367.633   188937077.134        -548.816          48.200    36283370.633   146098117.747        -424.379          47.500    36283361.879   153526796.120        -445.957          46.300  
C06  37024826.875   192798061.647         120.109          42.600    37024823.383   149083669.608          92.875          46.000    37024815.418   156664157.343          97.598          42.600  
R03  22159744.055   118623075.500       -2224.891          45.000    22159742.898   118623083.516       -2224.891          44.100    22159751.367    92262314.381       -1730.469          42.300    22159751.629    92262274.383       -1730.469          42.700  
C16  36982686.867   192578584.787           5.379          45.200    36982688.602   148914028.529           4.156          46.000    36982679.230   156485877.045           4.371          42.500  
C38  36553921.516   190345856.848       -1206.723          48.800                                                                    36553913.105   154671570.318        -980.563          47.600  
C09  38660439.695   201315109.391         143.594          38.600    38660438.094   155669598.712         111.035          42.400    38660428.719   163584964.628         116.684          39.400  
R14  19652880.234   104761059.296        -639.051          52.800    19652878.086   104761102.301        -639.051          50.800    19652886.363    81480761.865        -497.039          50.300    19652885.691    81480747.868        -497.039          50.800  
J07  37152775.000   195239126.017           0.254          40.400    37152768.246   195239204.179           0.254          46.300    37152781.590   152134450.386           0.199          47.800    37152781.262   145795502.774           0.188          40.800  
J02  37092846.164   194924181.303         174.414          44.600    37092841.367   194924279.327         174.414          44.100    37092854.582   151889050.737         135.906          47.500    37092854.586   145560315.124         130.242          39.600  
J04  38165786.875   200562538.887         607.359          47.800    38165782.445   200562543.430         607.359          50.600    38165793.418   156282550.958         473.266          52.500    38165792.406   149770744.081         453.547          43.800  
C41  22174108.250   115466479.820        -832.141          49.800                                                                    22174107.785    93825992.136        -676.184          49.700  
R15  20554037.883                        3323.863          51.200    20554036.223                        3323.863          49.500    20554044.086                        2585.227          46.500    20554043.602                        2585.227          47.000  
G24  19823772.969   104174617.533        -251.680          51.600    19823782.477    81175126.274        -196.113          55.900    19823782.652    81175125.281        -196.113          52.700    19823779.965    77792796.915        -187.941          46.200  
G05  23698630.289   124537147.252       -3391.742          38.800    23698638.762    97041970.447       -2642.918          26.000    23698639.848    97041974.453       -2642.918          38.700                                                                  
G15  21047460.563   110605180.558       -1502.070          49.000    21047467.188    86185975.027       -1170.445          42.800    21047467.598    86185982.024       -1170.445          47.000                                                                  
C39  36617713.969   190678194.867         -26.309          48.000                                                                    36617704.703   154941552.473         -21.375          49.600  
R05  21443831.320   114629702.790        2584.816          38.400    21443829.844   114629498.800        2584.816          37.400    21443837.805    89156354.185        2010.414          39.300    21443837.836    89156354.176        2010.414          40.300  
G12  23326587.969   122581909.008        3334.789          35.400    23326595.043    95518524.729        2598.539          20.400    23326595.523    95518519.721        2598.539          36.100                                                                  
C33  25916124.570   134952106.370       -2518.793          34.800                                                                    25916129.023   109659603.467       -2046.727          35.200  
E25  24979664.555   131269072.236        1979.188          48.200    24979670.063   100582827.846        1516.520          49.700    24979670.555    98025631.959        1477.965          38.100    24979660.289   106549562.794        1606.484          48.400    24979671.336    99304238.706        1497.242          51.000  
C23  22181595.102   115505547.969        1212.477          50.400                                                                    22181577.508    93857588.324         985.238          50.600  
C32  22812846.430   118792497.337        1748.184          49.400                                                                    22812837.898    96528576.997        1420.543          48.700  
E24  25934685.961   136287752.313        -709.309          46.000    25934688.477   104428316.021        -543.496          44.400    25934689.535   101773315.010        -529.676          34.200    25934681.574   110623178.309        -575.734          43.300    25934690.633   103100836.823        -536.586          45.300  
E15  25560820.477   134323006.918       -1524.922          43.600    25560826.230   102922841.357       -1168.445          46.900    25560826.449   100306126.985       -1138.742          37.200    25560817.250   109028390.397       -1237.762          44.900    25560828.008   101614489.472       -1153.594          48.200  
C25  23141908.031   120506067.306       -1766.172          46.800                                                                    23141897.750    97921007.823       -1435.160          47.600  
E03  24130714.195   126807814.035         710.230          50.800    24130718.430    97164477.116         544.203          54.300    24130718.285    94694158.106         530.367          43.100    24130709.195   102928438.424         576.484          50.700    24130719.746    95929358.911         537.285          55.800  
E05  24767299.828   130153069.499       -1070.863          48.400    24767304.285    99727729.901        -820.531          49.800    24767304.336    97192260.028        -799.672          39.500    24767295.008   105643713.608        -869.207          47.900    24767306.020    98460019.766        -810.102          51.000  
> 2022 08 25 08 37 21.0000000  0 30                     
G23  20933784.188   110007875.204        1888.094          46.800    20933791.141    85720389.002        1471.242          40.700    20933790.914    85720382.000        1471.242          49.900    20933793.219    82148686.522        1409.938          41.200  
G18  22404942.672   117738889.050       -2399.266          42.000    22404950.898    91744504.608       -1869.559          30.800    22404950.789    91744511.610       -1869.559          44.700    22404950.945    87921820.694       -1791.660          35.800  
R04  19899020.930   106558406.236         212.105          52.000    19899019.410   106558463.247         212.105          50.000    19899025.406    82878754.086         164.969          50.700    19899025.813    82878770.083         164.969          51.500  
C13  36283473.063   188937626.108        -549.176          48.400    36283475.977   146098542.248        -424.656          47.400    36283467.410   153527242.201        -446.250          46.400  
C06  37024803.828   192797941.622         119.883          42.400    37024800.191   149083576.796          92.703          46.000    37024792.348   156664059.807          97.414          42.600  
R03  22160159.742   118625300.696       -2225.492          44.600    22160158.551   118625308.706       -2225.492          43.700    22160167.023    92264045.083       -1730.941          42.700    22160167.203    92264005.085       -1730.941          42.900  
C16  36982685.844   192578579.470           5.191          45.400    36982687.547   148914024.419           4.016          46.100    36982678.184   156485872.728           4.219          42.900  
C38  36554153.281   190347063.730       -1207.105          49.400                                                                    36554144.922   154672551.008        -980.871          47.800  
C09  38660412.125   201314965.807         143.496          38.200    38660410.605   155669487.684         110.961          42.900    38660401.082   163584847.953         116.602          39.800  
R14  19653000.219   104761698.876        -640.168          52.800    19652997.918   104761741.878        -640.168          50.800    19653006.234    81481259.316        -497.906          50.700    19653005.941    81481245.319        -497.906          50.400  
J07  37152774.961   195239125.833           0.051          40.200    37152768.016   195239203.996           0.051          46.300    37152781.699   152134450.245           0.039          48.000    37152781.305   145795502.639           0.039          40.500  
J02  37092812.992   194924006.986         174.129          44.200    37092808.117   194924105.012         174.129          44.100    37092821.652   151888914.906         135.684          47.400    37092821.457   145560184.954         130.031          39.600  
J04  38165671.313   200561931.607         607.125          47.600    38165667.070   200561936.150         607.125          50.700    38165677.875   156282077.751         473.086          52.700    38165676.887   149770290.592         453.371          44.100  
C41  22174268.094   115467312.189        -832.680          49.800                                                                    22174267.715    93826668.503        -676.621          49.600  
R15  20553415.938                        3323.027          51.400    20553414.371                        3323.027          49.100    20553422.176                        2584.578          46.400    20553421.801                        2584.578          47.200  
G24  19823820.930   104174869.581        -252.453          52.200    19823830.438    81175322.676        -196.719          55.900    19823830.633    81175321.682        -196.719          53.100    19823827.871    77792985.135        -188.520          46.300  
G05  23699275.734   124540539.109       -3392.098          39.200    23699284.258    97044613.457       -2643.191          25.800    23699285.445    97044617.454       -2643.191          38.400                                                                  
G15  21047746.430   110606682.811       -1502.539          48.800    21047753.258    86187145.611       -1170.809          43.300    21047753.262    86187152.608       -1170.809          47.200                                                                  
C39  36617719.023   190678221.217         -26.500          48.400                                                                    36617709.730   154941573.883         -21.531          49.600  
R05  21443347.789   114627118.046        2584.645          38.800    21443346.516   114626914.043        2584.645          37.200    21443354.246    89154343.826        2010.281          39.200    21443354.285    89154343.820        2010.281          40.300  
G12  23325953.414   122578574.455        3334.371          35.200    23325960.711    95515926.374        2598.211          21.100    23325960.957    95515921.373        2598.211          36.500                                                                  
C33  25916608.320   134954625.394       -2519.324          34.600                                                                    25916612.738   109661650.370       -2047.160          35.200  
E25  24979287.969   131267093.283        1978.609          48.400    24979293.430   100581311.504        1516.078          49.700    24979294.027    98024154.173        1477.535          38.600    24979283.781   106547956.500        1606.016          48.600    24979294.746    99302741.641        1496.805          51.000  
C23  22181362.320   115504335.820        1211.711          50.800                                                                    22181344.730    93856603.354         984.613          50.300  
C32  22812510.742   118790749.306        1747.770          49.400                                                                    22812502.250    96527156.575        1420.207          49.100  
E24  25934820.992   136288461.887        -710.004          45.600    25934823.504   104428859.720        -544.027          44.700    25934824.559   101773844.886        -530.199          34.500    25934816.738   110623754.260        -576.301          43.500    25934825.672   103101373.611        -537.113          45.600  
E15  25561110.703   134324532.092       -1525.422          43.400    25561116.414   102924009.997       -1168.832          47.400    25561116.582   100307265.914       -1139.113          37.200    25561107.500   109029628.360       -1238.168          44.800    25561118.234   101615643.255       -1153.973          48.200  
C25  23142247.266   120507833.771       -1766.852          46.800                                                                    23142237.000    97922443.217       -1435.711          47.500  
E03  24130579.070   126807103.940         709.914          51.000    24130583.344    97163933.018         543.961          53.900    24130583.141    94693627.842         530.129          43.500    24130573.953   102927862.049         576.230          51.200    24130584.641    95928821.731         537.047          55.500  
E05  24767503.633   130154140.485       -1071.191          48.200    24767508.070    99728550.525        -820.781          49.900    24767508.055    97193059.788        -799.914          39.700    24767498.801   105644582.912        -869.473          48.000    24767509.828    98460829.958        -810.348          51.200  
> 2022 08 25 08 37 22.0000000  0 30                     
G23  20933424.891   110005987.133        1887.832          46.800    20933431.785    85718917.781        1471.035          40.700    20933431.391    85718910.776        1471.035          50.100    20933433.852    82147276.601        1409.742          41.500  
G18  22405399.227   117741288.272       -2399.508          42.600    22405407.344    91746374.127       -1869.746          31.100    22405407.340    91746381.136       -1869.746          45.100    22405407.504    87923612.320       -1791.840          36.200  
R04  19898981.305   106558194.041         212.016          52.200    19898980.117   106558251.054         212.016          49.600    19898985.816    82878589.047         164.902          50.700    19898985.980    82878605.043         164.902          51.600  
C13  36283578.500   188938175.207        -549.207          48.600    36283581.457   146098966.845        -424.684          47.000    36283572.777   153527688.389        -446.277          46.600  
C06  37024780.766   192797821.550         120.039          42.000    37024776.988   149083483.949          92.824          45.800    37024769.258   156663962.239          97.543          42.900  
R03  22160575.469   118627526.100       -2225.563          44.800    22160574.598   118627534.113       -2225.563          43.900    22160582.621    92265775.952       -1730.992          42.600    22160583.043    92265735.954       -1730.992          43.400  
C16  36982684.805   192578574.088           5.348          45.600    36982686.566   148914020.258           4.137          46.100    36982677.125   156485868.357           4.344          42.900  
C38  36554385.070   190348270.700       -1207.059          49.600                                                                    36554376.695   154673531.770        -980.836          47.600  
C09  38660384.539   201314822.186         143.625          38.400    38660382.898   155669376.626         111.059          42.800    38660373.672   163584731.254         116.707          39.600  
R14  19653120.352   104762339.261        -640.840          52.800    19653118.320   104762382.264        -640.840          50.700    19653126.430    81481757.395        -498.430          50.400    19653126.465    81481743.399        -498.430          50.600  
J07  37152774.914   195239125.572           0.246          40.200    37152767.820   195239203.737           0.246          46.200    37152781.719   152134450.041           0.191          48.300    37152781.230   145795502.444           0.184          40.900  
J02  37092779.820   194923832.660         174.258          44.600    37092774.922   194923930.687         174.258          43.900    37092788.496   151888779.071         135.785          47.000    37092788.313   145560054.777         130.125          39.200  
J04  38165555.734   200561324.225         607.383          47.600    38165551.238   200561328.767         607.383          50.300    38165562.129   156281604.468         473.285          52.700    38165561.324   149769837.028         453.563          43.900  
C41  22174427.984   115468144.794        -832.797          49.400                                                                    22174427.520    93827345.064        -676.715          49.800  
R15  20552794.078                        3322.688          51.400    20552792.723                        3322.688          49.300    20552800.254                        2584.313          46.300    20552799.969                        2584.313          46.900  
G24  19823868.977   104175122.113        -252.770          52.000    19823878.508    81175519.454        -196.965          56.100    19823878.828    81175518.461        -196.965          53.200    19823875.934    77793173.714        -188.758          46.500  
G05  23699921.219   124543931.105       -3392.145          39.800    23699929.813    97047256.567       -2643.230          25.600    23699930.977    97047260.565       -2643.230          38.900                                                                  
G15  21048032.328   110608185.228       -1502.574          48.800    21048039.082    86188316.329       -1170.836          43.300    21048039.273    86188323.321       -1170.836          47.100                                                                  
C39  36617724.070   190678247.484         -26.313          48.400                                                                    36617714.734   154941595.229         -21.379          49.500  
R05  21442864.250   114624533.289        2584.648          39.000    21442863.219   114624329.296        2584.648          36.800    21442870.734    89152333.463        2010.281          39.400    21442870.746    89152333.454        2010.281          40.100  
G12  23325318.875   122575239.963        3334.348          35.200    23325326.262    95513328.069        2598.195          20.900    23325326.332    95513323.066        2598.195          36.000                                                                  
C33  25917092.102   134957144.516       -2519.250          34.800                                                                    25917096.555   109663697.359       -2047.098          34.900  
E25  24978911.438   131265114.588        1978.523          48.400    24978916.891   100579795.364        1516.012          49.700    24978917.449    98022676.577        1477.469          38.600    24978907.051   106546350.417        1605.945          48.200    24978918.227    99301244.773        1496.742          51.200  
C23  22181129.625   115503124.090        1211.426          50.400                                                                    22181112.078    93855618.727         984.383          50.600  
C32  22812175.070   118789001.377        1747.805          49.400                                                                    22812166.551    96525736.238        1420.234          49.300  
E24  25934956.086   136289171.852        -710.211          45.600    25934958.605   104429403.721        -544.188          44.600    25934959.656   101774375.057        -530.352          34.000    25934952.078   110624330.532        -576.469          43.700    25934960.781   103101910.697        -537.270          45.700  
E15  25561400.992   134326057.560       -1525.680          43.800    25561406.680   102925178.862       -1169.027          47.100    25561406.867   100308405.058       -1139.305          36.800    25561397.723   109030866.565       -1238.375          44.700    25561408.535   101616797.262       -1154.168          48.200  
C25  23142586.563   120509600.571       -1767.020          47.000                                                                    23142576.254    97923878.886       -1435.848          47.500  
E03  24130443.938   126806393.842         710.066          50.600    24130448.207    97163388.920         544.078          54.000    24130448.043    94693097.575         530.246          43.200    24130438.891   102927285.672         576.352          51.300    24130449.539    95928284.549         537.160          55.500  
E05  24767707.438   130155211.480       -1071.074          48.200    24767711.969    99729371.158        -820.695          49.600    24767711.914    97193859.555        -799.828          39.900    24767702.641   105645452.226        -869.379          48.200    24767713.656    98461640.158        -810.262          50.800  
> 2022 08 25 08 37 23.0000000  0 30                     
G23  20933065.711   110004099.581        1887.207          46.600    20933072.559    85717446.956        1470.551          40.900    20933072.563    85717439.954        1470.551          50.000    20933074.625    82145867.060        1409.277          41.700  
G18  22405855.875   117743687.948       -2400.039          42.600    22405864.094    91748244.013       -1870.160          31.500    22405864.102    91748251.012       -1870.160          44.600    22405864.145    87925404.285       -1792.238          36.200  
R04  19898941.758   106557982.224         211.539          51.800    19898940.164   106558039.235         211.539          49.800    19898946.238    82878424.297         164.527          50.300    19898946.773    82878440.294         164.527          51.600  
C13  36283684.008   188938724.575        -549.582          48.600    36283687.004   146099391.655        -424.973          47.000    36283678.293   153528134.795        -446.578          46.200  
C06  37024757.727   192797701.580         119.789          42.200    37024754.098   149083391.180          92.629          46.300    37024746.176   156663864.753          97.340          43.000  
R03  22160991.266   118629751.866       -2226.027          44.800    22160990.434   118629759.876       -2226.027          44.200    22160998.469    92267507.099       -1731.352          42.700    22160998.531    92267467.100       -1731.352          43.400  
C16  36982683.797   192578568.786           5.164          44.800    36982685.445   148914016.154           3.992          46.100    36982676.051   156485864.047           4.195          42.700  
C38  36554616.906   190349477.893       -1207.391          49.400                                                                    36554608.555   154674512.713        -981.102          47.700  
C09  38660356.984   201314678.673         143.254          38.600    38660355.406   155669265.659         110.773          42.600    38660346.039   163584614.640         116.406          39.800  
R14  19653240.664   104762980.557        -641.836          53.200    19653238.449   104763023.560        -641.836          50.800    19653246.691    81482256.178        -499.207          50.300    19653246.629    81482242.181        -499.207          50.300  
J07  37152774.883   195239125.368           0.141          40.800    37152767.656   195239203.528           0.141          46.300    37152781.668   152134449.877           0.109          48.500    37152781.230   145795502.286           0.105          40.800  
J02  37092746.672   194923658.467         174.004          44.600    37092741.645   194923756.495         174.004          44.000    37092755.375   151888643.336         135.586          47.000    37092755.121   145559924.699         129.938          39.800  
J04  38165440.164   200560716.883         607.238          47.600    38165435.801   200560721.425         607.238          50.500    38165446.836   156281131.213         473.172          53.000    38165445.789   149769383.493         453.457          43.500  
C41  22174587.961   115468977.790        -833.262          49.200                                                                    22174587.516    93828021.939        -677.094          50.000  
R15  20552172.359                        3321.945          51.000    20552170.992                        3321.945          49.200    20552178.535                        2583.734          46.200    20552178.336                        2583.734          47.200  
G24  19823917.164   104175375.265        -253.535          51.600    19823926.723    81175716.716        -197.559          56.200    19823926.879    81175715.721        -197.559          53.000    19823924.074    77793362.755        -189.328          46.600  
G05  23700566.758   124547323.375       -3392.539          39.800    23700575.309    97049899.888       -2643.535          26.800    23700576.703    97049903.889       -2643.535          38.900                                                                  
G15  21048318.289   110609687.951       -1503.016          48.800    21048325.043    86189487.281       -1171.184          42.600    21048324.992    86189494.276       -1171.184          47.200                                                                  
C39  36617729.125   190678273.817         -26.402          48.000                                                                    36617719.816   154941616.625         -21.453          49.000  
R05  21442380.750   114621948.661        2584.453          38.600    21442379.273   114621744.672        2584.453          36.300    21442387.137    89150323.194        2010.133          39.700    21442387.301    89150323.183        2010.133          40.100  
G12  23324684.383   122571905.679        3334.184          35.400    23324691.813    95510729.917        2598.066          20.400    23324692.141    95510724.925        2598.066          36.300                                                                  
C33  25917575.922   134959663.857       -2519.500          34.800                                                                    25917580.465   109665744.525       -2047.301          34.700  
E25  24978534.977   131263136.292        1978.043          48.600    24978540.453   100578279.527        1515.641          49.900    24978541.059    98021199.278        1477.109          38.300    24978530.617   106544744.658        1605.555          48.400    24978541.734    99299748.205        1496.375          51.100  
C23  22180897.031   115501912.908        1210.773          50.400                                                                    22180879.445    93854634.540         983.855          50.700  
C32  22811839.445   118787253.689        1747.465          49.200                                                                    22811830.941    96524316.101        1419.957          49.400  
E24  25935091.289   136289882.335        -710.809          46.200    25935093.707   104429948.116        -544.648          44.000    25935094.797   101774905.611        -530.801          33.800    25935087.359   110624907.220        -576.957          43.700    25935095.969   103102448.170        -537.723          45.700  
E15  25561691.367   134327583.476       -1526.270          43.800    25561697.063   102926348.072       -1169.480          47.000    25561697.184   100309544.544       -1139.746          36.700    25561688.066   109032105.135       -1238.855          44.900    25561698.910   101617951.609       -1154.613          48.300  
C25  23142925.953   120511367.839       -1767.629          47.400                                                                    23142915.609    97925314.938       -1436.344          47.600  
E03  24130308.844   126805683.878         709.789          50.200    24130313.098    97162844.920         543.863          53.700    24130312.898    94692567.406         530.039          43.200    24130303.793   102926709.404         576.129          51.700    24130314.410    95927747.462         536.953          55.200  
E05  24767911.273   130156282.626       -1071.328          49.000    24767915.777    99730191.903        -820.887          49.800    24767915.688    97194659.435        -800.020          40.100    24767906.461   105646321.659        -869.586          48.700    24767917.461    98462450.471        -810.453          50.800  
> 2022 08 25 08 37 24.0000000  0 30                     
G23  20932706.633   110002212.639        1886.707          46.400    20932713.629    85715976.611        1470.160          40.800    20932713.254    85715969.611        1470.160          50.000    20932715.613    82144457.984        1408.902          42.000  
G18  22406312.617   117746088.173       -2400.355          42.600    22406320.711    91750114.319       -1870.406          31.200    22406320.711    91750121.317       -1870.406          45.000    22406320.945    87927196.659       -1792.473          36.400  
R04  19898902.297   106557770.915         211.125          51.400    19898900.668   106557827.928         211.125          49.700    19898906.813    82878259.948         164.207          50.500    19898907.348    82878275.943         164.207          51.400  
C13  36283789.578   188939274.286        -549.816          48.600    36283792.531   146099816.725        -425.152          47.400    36283783.816   153528581.480        -446.770          46.400  
C06  37024734.727   192797581.785         119.773          42.600    37024730.922   149083298.543          92.617          46.200    37024723.164   156663767.406          97.328          42.600  
R03  22161407.141   118631978.072       -2226.391          45.200    22161406.266   118631986.085       -2226.391          44.200    22161414.340    92269238.589       -1731.637          42.500    22161414.309    92269198.593       -1731.637          43.600  
C16  36982682.805   192578563.663           5.121          45.000    36982684.328   148914012.196           3.961          46.100    36982675.098   156485859.888           4.160          43.300  
C38  36554848.789   190350685.402       -1207.645          48.600                                                                    36554840.363   154675493.914        -981.309          47.900  
C09  38660329.453   201314535.332         143.414          38.600    38660327.801   155669154.815         110.895          42.700    38660318.547   163584498.158         116.535          40.200  
R14  19653361.156   104763622.860        -642.734          52.800    19653359.207   104763665.863        -642.734          51.000    19653367.324    81482755.751        -499.902          50.300    19653366.840    81482741.754        -499.902          50.300  
J07  37152774.867   195239125.317           0.090          40.200    37152768.074   195239203.478           0.090          46.000    37152781.605   152134449.840           0.070          48.600    37152781.176   145795502.249           0.066          41.300  
J02  37092713.570   194923484.503         173.957          44.400    37092708.746   194923582.529         173.957          44.100    37092722.277   151888507.778         135.551          47.200    37092722.035   145559794.789         129.902          39.900  
J04  38165324.609   200560109.676         607.258          48.200    38165320.238   200560114.218         607.258          50.500    38165331.223   156280658.065         473.188          52.900    38165330.160   149768930.058         453.473          43.900  
C41  22174748.023   115469811.253        -833.633          49.600                                                                    22174747.574    93828699.194        -677.395          50.000  
R15  20551550.758                        3321.281          50.800    20551549.188                        3321.281          49.500    20551556.840                        2583.219          46.400    20551556.363                        2583.219          46.900  
G24  19823965.469   104175629.143        -254.133          51.800    19823975.035    81175914.542        -198.027          56.400    19823975.148    81175913.548        -198.027          52.900    19823972.367    77793552.339        -189.777          46.400  
G05  23701212.344   124550716.006       -3392.785          39.800    23701220.875    97052543.493       -2643.730          26.400    23701222.113    97052547.494       -2643.730          39.200                                                                  
G15  21048604.328   110611191.080       -1503.250          48.400    21048611.090    86190658.550       -1171.363          42.600    21048611.152    86190665.547       -1171.363          47.000                                                                  
C39  36617734.211   190678300.301         -26.512          48.200                                                                    36617724.875   154941638.145         -21.543          49.200  
R05  21441897.281   114619364.261        2584.461          39.000    21441895.371   114619160.268        2584.461          36.700    21441903.746    89148313.106        2010.137          39.400    21441904.004    89148313.095        2010.137          40.300  
G12  23324049.938   122568571.697        3334.039          35.600    23324057.434    95508132.018        2597.953          20.100    23324057.449    95508127.020        2597.953          36.500                                                                  
C33  25918059.797   134962183.533       -2519.820          34.800                                                                    25918064.371   109667791.966       -2047.559          35.100  
E25  24978158.617   131261158.493        1977.605          49.000    24978164.043   100576764.071        1515.305          50.100    24978164.750    98019722.349        1476.781          38.500    24978154.348   106543139.303        1605.199          48.500    24978165.371    99298252.013        1496.043          51.400  
C23  22180664.563   115500702.384        1210.266          50.800                                                                    22180646.961    93853650.893         983.441          50.900  
C32  22811503.891   118785506.336        1747.254          49.600                                                                    22811495.410    96522896.232        1419.789          49.300  
E24  25935226.609   136290593.434        -711.371          46.800    25935229.063   104430492.986        -545.078          44.200    25935230.027   101775436.627        -531.219          34.200    25935222.500   110625484.412        -577.410          43.700    25935231.301   103102986.113        -538.148          45.300  
E15  25561981.836   134329109.913       -1526.672          44.200    25561987.559   102927517.677       -1169.789          46.900    25561987.664   100310684.411       -1140.047          37.000    25561978.543   109033344.126       -1239.184          45.000    25561989.363   101619106.347       -1154.918          48.600  
C25  23143265.445   120513135.685       -1768.063          46.800                                                                    23143255.168    97926751.456       -1436.695          47.500  
E03  24130173.781   126804974.144         709.723          50.000    24130178.012    97162301.100         543.813          53.500    24130177.938    94692037.414         529.988          43.300    24130168.703   102926133.322         576.074          50.700    24130179.375    95927210.556         536.902          54.800  
E05  24768115.148   130157354.012       -1071.391          48.800    24768119.695    99731012.834        -820.938          50.200    24768119.629    97195459.496        -800.063          39.900    24768110.332   105647191.291        -869.637          48.700    24768121.363    98463260.968        -810.500          51.200  
> 2022 08 25 08 37 25.0000000  0 30                     
G23  20932347.656   110000326.192        1886.355          46.800    20932354.625    85714506.652        1469.887          40.400    20932354.348    85714499.652        1469.887          50.000    20932356.617    82143049.274        1408.641          41.700  
G18  22406769.445   117748488.820       -2400.730          42.400    22406777.633    91751984.945       -1870.699          31.800    22406777.703    91751991.948       -1870.699          44.800    22406777.789    87928989.348       -1792.754          36.200  
R04  19898862.906   106557560.017         210.855          51.600    19898861.492   106557617.028         210.855          49.500    19898867.500    82878095.913         163.996          50.500    19898867.688    82878111.910         163.996          51.300  
C13  36283895.188   188939824.232        -549.871          48.400    36283898.188   146100241.976        -425.195          47.300    36283889.582   153529028.356        -446.816          46.300  
C06  37024711.727   192797462.045         119.801          43.000    37024708.012   149083205.954          92.641          46.500    37024700.238   156663670.106          97.348          43.200  
R03  22161823.078   118634204.605       -2226.500          45.400    22161822.211   118634212.618       -2226.500          44.300    22161830.355    92270970.336       -1731.723          42.700    22161830.352    92270930.340       -1731.723          43.600  
C16  36982681.836   192578558.594           5.199          45.200    36982683.395   148914008.276           4.020          46.300    36982674.219   156485855.771           4.223          43.300  
C38  36555080.719   190351893.102       -1207.668          48.800                                                                    36555072.430   154676475.267        -981.328          47.900  
C09  38660301.938   201314392.069         143.270          38.400    38660300.242   155669044.037         110.785          41.900    38660291.066   163584381.751         116.418          39.400  
R14  19653481.820   104764266.069        -643.527          53.400    19653479.695   104764309.072        -643.527          51.100    19653487.965    81483256.022        -500.520          50.300    19653487.543    81483242.025        -500.520          50.700  
J07  37152774.867   195239125.297           0.234          40.000    37152768.008   195239203.458           0.234          46.200    37152781.691   152134449.823           0.184          48.100    37152781.219   145795502.236           0.176          41.000  
J02  37092680.484   194923310.639         173.938          45.000    37092675.813   194923408.664         173.938          44.600    37092689.039   151888372.301         135.535          47.200    37092688.945   145559664.953         129.887          40.000  
J04  38165209.070   200559502.474         607.277          48.000    38165204.699   200559507.017         607.277          50.300    38165215.578   156280184.920         473.203          52.600    38165214.617   149768476.629         453.484          43.600  
C41  22174908.141   115470645.057        -833.844          50.000                                                                    22174907.723    93829376.729        -677.566          50.000  
R15  20550929.281                        3320.852          50.800    20550927.695                        3320.852          49.300    20550935.414                        2582.883          46.700    20550935.328                        2582.883          47.000  
G24  19824013.898   104175883.611        -254.637          51.600    19824023.453    81176112.831        -198.418          56.600    19824023.727    81176111.836        -198.418          52.700    19824020.828    77793742.363        -190.152          46.300  
G05  23701857.992   124554108.873       -3392.953          39.200    23701866.473    97055187.293       -2643.859          27.000    23701867.602    97055191.285       -2643.859          38.800                                                                  
G15  21048890.422   110612694.496       -1503.367          48.400    21048897.023    86191830.038       -1171.457          42.700    21048897.293    86191837.037       -1171.457          47.300                                                                  
C39  36617739.305   190678326.825         -26.352          48.000                                                                    36617729.961   154941659.700         -21.410          49.000  
R05  21441413.836   114616779.955        2584.395          39.000    21441412.145   114616575.963        2584.395          37.200    21441420.289    89146303.088        2010.086          39.400    21441420.422    89146303.076        2010.086          39.800  
G12  23323415.523   122565237.883        3333.887          35.400    23323423.039    95505534.244        2597.836          21.300    23323423.172    95505529.243        2597.836          36.300                                                                  
C33  25918543.711   134964703.386       -2519.762          34.600                                                                    25918548.211   109669839.542       -2047.516          34.900  
E25  24977782.320   131259181.059        1977.391          48.600    24977787.773   100575248.894        1515.141          50.300    24977788.520    98018245.697        1476.621          38.400    24977778.086   106541534.244        1605.023          48.400    24977789.055    99296756.098        1495.883          51.400  
C23  22180432.195   115499492.388        1209.832          51.200                                                                    22180414.605    93852667.672         983.086          50.900  
C32  22811168.359   118783759.198        1747.184          49.600                                                                    22811159.910    96521476.545        1419.730          48.700  
E24  25935362.023   136291305.026        -711.719          46.800    25935364.551   104431038.229        -545.344          44.600    25935365.500   101775968.004        -531.477          34.000    25935358.035   110626062.006        -577.691          43.500    25935366.719   103103524.426        -538.410          45.400  
E15  25562272.391   134330636.762       -1526.941          43.800    25562278.059   102928687.599       -1169.996          47.200    25562278.277   100311824.591       -1140.250          36.400    25562269.203   109034583.450       -1239.402          45.000    25562279.906   101620261.395       -1155.121          48.300  
C25  23143605.023   120514903.972       -1768.355          46.600                                                                    23143594.715    97928188.333       -1436.934          47.900  
E03  24130038.742   126804264.527         709.676          50.600    24130042.969    97161757.368         543.777          54.200    24130042.848    94691507.505         529.953          43.200    24130033.621   102925557.336         576.035          50.500    24130044.324    95926673.735         536.863          54.900  
E05  24768319.047   130158425.517       -1071.453          49.000    24768323.609    99731833.858        -820.984          50.200    24768323.594    97196259.641        -800.113          39.200    24768314.203   105648061.019        -869.688          48.300    24768325.246    98464071.553        -810.547          51.200  
> 2022 08 25 08 37 26.0000000  0 30                     
G23  20931988.758   109998440.182        1885.766          47.000    20931995.797    85713037.036        1469.426          40.600    20931995.457    85713030.034        1469.426          50.200    20931997.664    82141640.891        1408.199          41.900  
G18  22407226.352   117750889.844       -2401.273          42.600    22407234.539    91753855.868       -1871.121          31.700    22407234.488    91753862.874       -1871.121          44.900    22407234.758    87930782.317       -1793.156          36.300  
R04  19898823.594   106557349.465         210.371          51.400    19898822.117   106557406.475         210.371          49.600    19898828.094    82877932.151         163.621          49.800    19898828.281    82877948.146         163.621          51.500  
C13  36284000.828   188940374.343        -550.211          48.000    36284003.637   146100667.357        -425.457          47.300    36283995.145   153529475.367        -447.090          46.000  
C06  37024688.742   192797342.333         119.703          42.600    37024685.023   149083113.389          92.563          46.500    37024677.258   156663572.832          97.266          43.000  
R03  22162239.070   118636431.427       -2226.938          45.400    22162238.348   118636439.439       -2226.938          44.600    22162246.254    92272702.306       -1732.063          42.600    22162246.270    92272662.310       -1732.063          43.400  
C16  36982680.859   192578553.529           4.996          45.400    36982682.438   148914004.358           3.863          46.300    36982673.254   156485851.653           4.059          43.200  
C38  36555312.672   190353100.955       -1207.941          48.800                                                                    36555304.313   154677456.745        -981.551          47.500  
C09  38660274.438   201314248.856         143.273          38.600    38660272.723   155668933.294         110.789          42.000    38660263.578   163584265.377         116.422          39.400  
R14  19653602.648   104764910.159        -644.543          52.600    19653600.434   104764953.160        -644.543          51.100    19653608.727    81483756.981        -501.313          50.300    19653608.258    81483742.985        -501.313          50.400  
J07  37152774.859   195239125.272           0.031          40.000    37152767.980   195239203.437           0.031          46.100    37152781.566   152134449.806           0.023          48.000    37152781.258   145795502.217           0.023          41.100  
J02  37092647.406   194923136.834         173.758          44.400    37092642.766   194923234.860         173.758          44.500    37092656.133   151888236.870         135.395          47.200    37092655.891   145559535.166         129.754          39.700  
J04  38165093.516   200558895.238         607.207          48.200    38165089.145   200558899.781         607.207          50.800    38165100.172   156279711.751         473.148          52.300    38165099.059   149768023.173         453.434          43.600  
C41  22175068.328   115471479.163        -834.293          50.000                                                                    22175067.984    93830054.507        -677.930          49.800  
R15  20550307.906                        3320.152          50.800    20550306.367                        3320.152          49.100    20550314.031                        2582.340          46.600    20550313.691                        2582.340          47.000  
G24  19824062.422   104176138.633        -255.262          51.800    19824071.953    81176311.550        -198.906          56.500    19824072.105    81176310.556        -198.906          52.700    19824069.313    77793932.802        -190.617          46.600  
G05  23702503.672   124557501.941       -3393.160          38.800    23702512.141    97057831.232       -2644.023          26.900    23702513.410    97057835.225       -2644.023          38.700                                                                  
G15  21049176.555   110614198.143       -1503.719          48.800    21049183.277    86193001.713       -1171.730          42.800    21049183.543    86193008.711       -1171.730          47.500                                                                  
C39  36617744.398   190678353.342         -26.563          48.200                                                                    36617735.035   154941681.246         -21.586          49.000  
R05  21440930.398   114614195.679        2584.211          39.200    21440928.793   114613991.686        2584.211          36.800    21440936.945    89144293.098        2009.941          39.400    21440936.961    89144293.085        2009.941          39.600  
G12  23322781.148   122561904.200        3333.719          36.200    23322788.797    95502936.560        2597.703          21.100    23322788.570    95502931.573        2597.703          36.500                                                                  
C33  25919027.656   134967223.404       -2520.152          34.800                                                                    25919032.105   109671887.259       -2047.832          35.000  
E25  24977406.094   131257203.952        1976.891          48.600    24977411.523   100573733.969        1514.762          50.100    24977412.316    98016769.286        1476.250          38.700    24977401.758   106539929.448        1604.621          48.600    24977412.828    99295260.431        1495.504          51.200  
C23  22180199.922   115498282.878        1209.242          51.400                                                                    22180182.336    93851684.847         982.609          51.000  
C32  22810832.875   118782012.231        1746.879          49.400                                                                    22810824.402    96520056.989        1419.480          48.600  
E24  25935497.516   136292017.069        -712.324          46.600    25935500.055   104431583.824        -545.805          44.600    25935501.082   101776499.728        -531.930          34.000    25935493.395   110626639.964        -578.184          43.700    25935502.223   103104063.084        -538.867          45.800  
E15  25562563.016   134332163.978       -1527.375          44.000    25562568.648   102929857.804       -1170.328          47.400    25562568.945   100312965.042       -1140.574          36.800    25562559.910   109035823.074       -1239.754          44.700    25562570.547   101621416.725       -1155.449          48.300  
C25  23143944.680   120516672.659       -1768.844          46.800                                                                    23143934.383    97929625.539       -1437.332          47.500  
E03  24129903.719   126803554.962         709.539          50.600    24129907.895    97161213.669         543.672          54.000    24129907.762    94690977.629         529.852          43.100    24129898.727   102924981.386         575.922          50.800    24129909.250    95926136.952         536.762          55.100  
E05  24768522.969   130159497.100       -1071.652          48.800    24768527.531    99732654.938        -821.137          50.100    24768527.512    97197059.849        -800.262          39.000    24768518.129   105648930.811        -869.848          48.200    24768529.164    98464882.197        -810.699          51.300  
> 2022 08 25 08 37 27.0000000  0 30                     
G23  20931629.953   109996554.617        1885.445          46.600    20931636.918    85711567.765        1469.176          40.200    20931636.523    85711560.764        1469.176          49.900    20931638.813    82140232.843        1407.961          41.600  
G18  22407683.320   117753291.242       -2401.473          42.600    22407691.520    91755727.088       -1871.277          30.600    22407691.438    91755734.094       -1871.277          44.500    22407691.730    87932575.566       -1793.309          36.400  
R04  19898784.336   106557139.248         210.141          51.400    19898782.809   106557196.258         210.141          49.400    19898788.879    82877768.646         163.441          50.200    19898789.133    82877784.642         163.441          51.000  
C13  36284106.508   188940924.632        -550.281          48.200    36284109.543   146101092.877        -425.512          47.900    36284100.832   153529922.519        -447.148          46.200  
C06  37024665.750   192797222.621         119.734          42.400    37024662.121   149083020.818          92.586          46.800    37024654.262   156663475.556          97.293          43.000  
R03  22162655.109   118638658.553       -2227.207          45.400    22162654.309   118638666.565       -2227.207          44.300    22162662.180    92274434.513       -1732.273          42.400    22162662.309    92274394.517       -1732.273          43.600  
C16  36982679.891   192578548.462           5.066          46.000    36982681.500   148914000.440           3.918          46.300    36982672.258   156485847.536           4.117          43.200  
C38  36555544.656   190354308.951       -1207.961          48.600                                                                    36555536.320   154678438.343        -981.566          47.500  
C09  38660246.938   201314105.669         143.207          39.000    38660245.211   155668822.570         110.734          42.500    38660236.070   163584149.029         116.367          39.700  
R14  19653723.648   104765555.149        -645.422          52.400    19653721.578   104765598.149        -645.422          51.300    19653729.703    81484258.641        -501.992          49.800    19653729.656    81484244.647        -501.992          50.500  
J07  37152774.852   195239125.226           0.211          39.600    37152767.848   195239203.384           0.211          46.300    37152781.586   152134449.764           0.164          48.200    37152781.168   145795502.179           0.156          40.900  
J02  37092614.344   194922963.076         173.770          44.000    37092609.723   194923061.101         173.770          44.400    37092622.895   151888101.474         135.406          47.500    37092622.852   145559405.414         129.762          39.600  
J04  38164977.953   200558287.961         607.379          48.200    38164973.449   200558292.502         607.379          50.800    38164984.605   156279238.544         473.281          52.500    38164983.438   149767569.685         453.563          43.800  
C41  22175228.563   115472313.575        -834.508          50.200                                                                    22175228.160    93830732.535        -678.105          50.100  
R15  20549686.641                        3319.723          51.400    20549685.152                        3319.723          49.400    20549692.750                        2582.008          46.800    20549692.527                        2582.008          47.100  
G24  19824111.055   104176394.189        -255.766          51.800    19824120.586    81176510.683        -199.297          56.600    19824120.953    81176509.688        -199.297          52.800    19824117.914    77794123.640        -190.996          46.500  
G05  23703149.391   124560895.196       -3393.297          39.200    23703157.852    97060475.328       -2644.125          26.700    23703159.063    97060479.316       -2644.125          38.700                                                                  
G15  21049462.727   110615702.023       -1503.949          48.800    21049469.430    86194173.566       -1171.910          43.000    21049469.785    86194180.564       -1171.910          47.500                                                                  
C39  36617749.484   190678379.832         -26.316          48.000                                                                    36617740.121   154941702.770         -21.383          49.300  
R05  21440446.961   114611611.443        2584.313          39.400    21440445.430   114611407.454        2584.313          36.600    21440453.488    89142283.136        2010.020          38.900    21440453.293    89142283.123        2010.020          39.500  
G12  23322146.789   122558570.656        3333.531          36.000    23322154.527    95500339.004        2597.555          21.100    23322154.398    95500334.007        2597.555          37.000                                                                  
C33  25919511.633   134969743.571       -2520.289          34.800                                                                    25919516.086   109673935.097       -2047.941          35.000  
E25  24977029.922   131255227.163        1976.703          48.600    24977035.363   100572219.285        1514.617          50.200    24977036.148    98015293.111        1476.109          38.900    24977025.535   106538324.913        1604.469          48.800    24977036.668    99293765.004        1495.363          51.400  
C23  22179967.742   115497073.847        1208.867          51.400                                                                    22179950.172    93850702.408         982.301          51.000  
C32  22810497.422   118780265.433        1746.766          49.400                                                                    22810488.867    96518637.568        1419.391          48.900  
E24  25935633.102   136292729.557        -712.652          46.800    25935635.598   104432129.755        -546.059          44.700    25935636.613   101777031.779        -532.176          33.600    25935629.242   110627218.281        -578.449          43.600    25935637.805   103104602.075        -539.117          46.000  
E15  25562853.695   134333691.558       -1527.699          44.000    25562859.430   102931028.287       -1170.574          47.400    25562859.660   100314105.770       -1140.816          36.400    25562850.586   109037062.995       -1240.016          45.100    25562861.242   101622572.330       -1155.695          48.300  
C25  23144284.422   120518441.744       -1769.230          46.800                                                                    23144274.168    97931063.062       -1437.645          47.300  
E03  24129768.711   126802845.458         709.543          50.800    24129772.961    97160670.025         543.676          54.100    24129772.754    94690447.805         529.852          43.400    24129763.707   102924405.490         575.926          50.900    24129774.281    95925600.217         536.762          55.100  
E05  24768726.891   130160568.753       -1071.641          48.800    24768731.480    99733476.077        -821.129          49.900    24768731.379    97197860.111        -800.250          39.300    24768722.031   105649800.659        -869.840          47.800    24768733.109    98465692.896        -810.688          51.300  
> 2022 08 25 08 37 28.0000000  0 30                     
G23  20931271.227   109994669.509        1884.895          46.200    20931278.074    85710098.850        1468.750          40.200    20931277.930    85710091.846        1468.750          50.000    20931280.055    82138825.130        1407.551          41.500  
G18  22408140.367   117755693.027       -2402.000          42.400    22408148.660    91757598.603       -1871.688          30.400    22408148.750    91757605.613       -1871.688          44.300    22408148.730    87934369.103       -1793.703          36.000  
R04  19898745.133   106556929.336         209.805          51.200    19898743.809   106556986.349         209.805          49.900    19898749.707    82877605.380         163.180          50.100    19898749.922    82877621.375         163.180          50.800  
C13  36284212.219   188941475.124        -550.570          48.600    36284215.090   146101518.552        -425.734          47.700    36284206.590   153530369.838        -447.383          46.300  
C06  37024642.758   192797102.932         119.742          42.000    37024639.094   149082928.268          92.594          46.700    37024631.270   156663378.302          97.301          42.800  
R03  22163071.219   118640886.000       -2227.664          45.400    22163070.422   118640894.010       -2227.664          44.100    22163078.359    92276166.968       -1732.625          42.300    22163078.789    92276126.973       -1732.625          43.700  
C16  36982678.922   192578543.413           5.113          46.000    36982680.477   148913996.535           3.953          46.400    36982671.270   156485843.433           4.156          43.000  
C38  36555776.672   190355517.107       -1208.230          48.600                                                                    36555768.281   154679420.068        -981.785          47.900  
C09  38660219.445   201313962.494         143.219          38.600    38660217.813   155668711.857         110.746          42.000    38660208.520   163584032.681         116.379          39.400  
R14  19653844.813   104766201.031        -646.289          52.200    19653842.633   104766244.032        -646.289          51.800    19653850.770    81484760.995        -502.668          49.400    19653850.258    81484746.998        -502.668          50.300  
J07  37152774.836   195239125.173           0.094          39.600    37152767.988   195239203.338           0.094          46.300    37152781.586   152134449.728           0.074          48.300    37152781.223   145795502.145           0.070          41.000  
J02  37092581.289   194922789.388         173.684          44.200    37092576.508   194922887.412         173.684          44.400    37092589.977   151887966.132         135.336          47.600    37092589.816   145559275.711         129.699          39.600  
J04  38164862.391   200557680.661         607.305          47.600    38164858.035   200557685.204         607.305          50.800    38164868.969   156278765.325         473.227          53.000    38164867.941   149767116.182         453.508          44.100  
C41  22175388.867   115473148.310        -834.875          50.600                                                                    22175388.461    93831410.824        -678.406          50.200  
R15  20549065.477                        3319.031          51.200    20549063.871                        3319.031          49.300    20549071.629                        2581.469          47.000    20549071.211                        2581.469          47.000  
G24  19824159.789   104176650.312        -256.410          51.200    19824169.301    81176710.260        -199.801          56.600    19824169.563    81176709.265        -199.801          52.900    19824166.684    77794314.902        -191.477          46.300  
G05  23703795.148   124564288.660       -3393.527          39.600    23703803.602    97063119.566       -2644.309          26.600    23703804.574    97063123.567       -2644.309          38.900                                                                  
G15  21049748.953   110617206.143       -1504.238          48.400    21049755.660    86195345.607       -1172.133          42.600    21049756.051    86195352.604       -1172.133          47.500                                                                  
C39  36617754.578   190678406.328         -26.512          48.000                                                                    36617745.195   154941724.301         -21.543          49.100  
R05  21439963.539   114609027.285        2583.945          39.600    21439961.586   114608823.291        2583.945          36.600    21439970.031    89140273.240        2009.734          39.300    21439969.941    89140273.227        2009.734          40.000  
G12  23321512.461   122555237.247        3333.359          36.200    23321520.277    95497741.532        2597.426          21.100    23321520.074    95497736.548        2597.426          37.100                                                                  
C33  25919995.641   134972263.906       -2520.379          34.400                                                                    25920000.070   109675983.068       -2048.016          35.300  
E25  24976653.813   131253250.706        1976.289          48.200    24976659.273   100570704.858        1514.301          50.100    24976660.090    98013817.188        1475.801          38.900    24976649.539   106536720.646        1604.133          48.800    24976660.543    99292269.827        1495.051          51.300  
C23  22179735.648   115495865.305        1208.301          51.600                                                                    22179718.020    93849720.371         981.844          50.700  
C32  22810162.000   118778518.807        1746.539          49.400                                                                    22810153.469    96517218.298        1419.207          49.300  
E24  25935768.766   136293442.505        -713.156          47.000    25935771.328   104432676.036        -546.445          44.700    25935772.320   101777564.177        -532.551          34.100    25935764.750   110627796.975        -578.863          43.700    25935773.465   103105141.415        -539.500          45.900  
E15  25563144.461   134335219.509       -1528.109          43.600    25563150.199   102932199.051       -1170.887          46.900    25563150.344   100315246.769       -1141.121          37.200    25563141.320   109038303.211       -1240.348          45.000    25563151.992   101623728.211       -1156.004          48.000  
C25  23144624.227   120520211.242       -1769.715          46.800                                                                    23144613.926    97932500.925       -1438.039          47.500  
E03  24129633.703   126802136.027         709.422          51.200    24129637.938    97160126.436         543.582          54.200    24129637.789    94689918.035         529.762          43.200    24129628.691   102923829.654         575.828          51.100    24129639.258    95925063.536         536.672          55.100  
E05  24768930.836   130161640.487       -1071.758          48.400    24768935.414    99734297.273        -821.215          49.900    24768935.328    97198660.431        -800.336          39.300    24768925.984   105650670.571        -869.934          47.900    24768937.051    98466503.656        -810.777          51.200  
> 2022 08 25 08 37 29.0000000  0 30                     
G23  20930912.586   109992784.875        1884.598          46.400    20930919.586    85708630.300        1468.516          40.500    20930919.258    85708623.298        1468.516          50.200    20930921.371    82137417.770        1407.328          41.700  
G18  22408597.492   117758095.226       -2402.195          42.200    22408605.934    91759470.450       -1871.840          30.400    22408605.535    91759477.455       -1871.840          44.900    22408605.961    87936162.950       -1793.848          36.000  
R04  19898706.008   106556719.781         209.531          51.000    19898704.461   106556776.791         209.531          50.200    19898710.473    82877442.390         162.969          50.200    19898710.594    82877458.386         162.969          50.800  
C13  36284317.984   188942025.833        -550.762          48.800    36284320.844   146101944.396        -425.887          48.000    36284312.305   153530817.334        -447.539          46.300  
C06  37024619.789   192796983.303         119.766          42.200    37024616.086   149082835.763          92.609          46.500    37024608.262   156663281.095          97.316          42.600  
R03  22163487.391   118643113.788       -2227.750          45.400    22163486.875   118643121.799       -2227.750          44.200    22163494.547    92277899.690       -1732.695          42.100    22163495.078    92277859.693       -1732.695          43.500  
C16  36982677.961   192578538.407           5.129          46.000    36982679.590   148913992.667           3.969          46.200    36982670.336   156485839.367           4.168          43.400  
C38  36556008.719   190356725.445       -1208.301          48.800                                                                    36556000.332   154680401.939        -981.844          48.100  
C09  38660191.969   201313819.402         143.098          38.600    38660190.262   155668601.218         110.652          41.700    38660181.039   163583916.416         116.281          39.200  
R14  19653966.141   104766847.783        -647.066          53.000    19653964.082   104766890.788        -647.066          51.300    19653972.105    81485264.024        -503.273          49.600    19653971.840    81485250.027        -503.273          50.300  
J07  37152774.836   195239125.144           0.211          39.600    37152767.766   195239203.304           0.211          46.300    37152781.516   152134449.702           0.164          48.200    37152781.238   145795502.121           0.156          40.400  
J02  37092548.258   194922615.790         173.680          43.800    37092543.527   194922713.816         173.680          44.300    37092556.867   151887830.862         135.332          47.500    37092556.855   145559146.077         129.695          39.600  
J04  38164746.820   200557073.358         607.434          48.200    38164742.313   200557077.899         607.434          50.900    38164753.473   156278292.101         473.324          52.800    38164752.336   149766662.675         453.602          44.000  
C41  22175549.242   115473983.384        -835.109          50.400                                                                    22175548.836    93832089.387        -678.594          49.700  
R15  20548444.422                        3318.543          51.400    20548442.762                        3318.543          49.200    20548450.625                        2581.086          46.800    20548450.215                        2581.086          46.800  
G24  19824208.641   104176907.019        -256.824          51.200    19824218.188    81176910.292        -200.125          56.300    19824218.445    81176909.295        -200.125          53.100    19824215.512    77794506.597        -191.785          46.400  
G05  23704440.961   124567682.362       -3393.797          39.200    23704449.434    97065764.013       -2644.516          27.300    23704450.574    97065768.008       -2644.516          38.700                                                                  
G15  21050035.234   110618710.530       -1504.379          48.600    21050041.898    86196517.855       -1172.242          43.200    21050042.301    86196524.852       -1172.242          47.000                                                                  
C39  36617759.664   190678432.846         -26.406          47.600                                                                    36617750.344   154941745.849         -21.457          49.100  
R05  21439480.141   114606443.215        2584.063          39.200    21439478.422   114606239.231        2584.063          36.800    21439486.766    89138263.405        2009.828          39.400    21439486.590    89138263.394        2009.828          39.800  
G12  23320878.156   122551904.004        3333.387          36.400    23320886.270    95495144.212        2597.441          21.300    23320885.805    95495139.217        2597.441          37.300                                                                  
C33  25920479.680   134974784.419       -2520.461          34.600                                                                    25920484.215   109678031.180       -2048.082          35.200  
E25  24976277.773   131251274.610        1976.070          48.200    24976283.270   100569190.706        1514.133          50.100    24976283.957    98012341.531        1475.637          38.500    24976273.418   106535116.672        1603.953          48.800    24976284.488    99290774.923        1494.883          51.300  
C23  22179503.664   115494657.283        1207.891          51.600                                                                    22179486.074    93848738.754         981.508          50.700  
C32  22809826.625   118776772.389        1746.453          49.600                                                                    22809818.129    96515799.187        1419.137          49.000  
E24  25935904.531   136294155.935        -713.527          47.000    25935907.027   104433222.692        -546.730          44.700    25935908.086   101778096.932        -532.832          33.800    25935900.605   110628376.055        -579.164          43.600    25935909.223   103105681.120        -539.781          45.800  
E15  25563435.297   134336747.858       -1528.383          43.400    25563440.977   102933370.124       -1171.098          46.900    25563441.180   100316388.066       -1141.324          37.000    25563432.168   109039543.754       -1240.570          44.700    25563442.816   101624884.397       -1156.211          48.000  
C25  23144964.133   120521981.169       -1769.992          47.000                                                                    23144953.906    97933939.133       -1438.262          47.300  
E03  24129498.727   126801426.694         709.402          51.400    24129502.984    97159582.921         543.566          54.300    24129502.918    94689388.340         529.746          43.000    24129493.738   102923253.897         575.813          51.100    24129504.297    95924526.931         536.656          55.200  
E05  24769134.813   130162712.333       -1071.750          48.000    24769139.406    99735118.553        -821.211          49.600    24769139.273    97199460.832        -800.336          39.900    24769129.922   105651540.571        -869.930          47.800    24769140.992    98467314.496        -810.773          51.000  
> 2022 08 25 08 37 30.0000000  0 30                     
G23  20930554.047   109990900.699        1884.031          46.600    20930561.066    85707162.114        1468.078          40.600    20930560.887    85707155.113        1468.078          50.700    20930562.867    82136010.761        1406.906          41.800  
G18  22409054.695   117760497.815       -2402.688          42.000    22409063.055    91761342.600       -1872.223          30.400    22409062.961    91761349.601       -1872.223          44.800    22409063.281    87937957.085       -1794.215          36.200  
R04  19898666.938   106556510.586         209.090          50.800    19898665.637   106556567.599         209.090          50.300    19898671.305    82877279.684         162.625          49.900    19898671.508    82877295.680         162.625          51.100  
C13  36284423.773   188942576.721        -550.863          49.000    36284426.867   146102370.375        -425.961          48.200    36284418.047   153531264.977        -447.621          46.100  
C06  37024596.820   192796863.696         119.734          42.600    37024593.184   149082743.273          92.586          46.700    37024585.348   156663183.902          97.293          43.200  
R03  22163903.617   118645341.863       -2228.133          45.800    22163902.988   118645349.876       -2228.133          44.500    22163910.707    92279632.636       -1732.992          41.800    22163911.574    92279592.638       -1732.992          42.900  
C16  36982677.000   192578533.409           5.035          45.800    36982678.703   148913988.799           3.895          46.200    36982669.359   156485835.305           4.090          43.500  
C38  36556240.805   190357933.946       -1208.543          48.400                                                                    36556232.457   154681383.945        -982.039          48.200  
C09  38660164.492   201313676.343         143.199          39.000    38660162.676   155668490.596         110.730          42.000    38660153.570   163583800.169         116.359          39.200  
R14  19654087.625   104767495.373        -647.934          53.200    19654085.395   104767538.375        -647.934          51.400    19654093.719    81485767.706        -503.945          49.800    19654093.266    81485753.710        -503.945          50.200  
J07  37152774.836   195239125.111           0.117          39.600    37152767.809   195239203.270           0.117          46.200    37152781.391   152134449.678           0.090          48.200    37152781.203   145795502.096           0.086          40.800  
J02  37092515.234   194922442.258         173.570          43.800    37092510.461   194922540.283         173.570          44.400    37092523.859   151887695.644         135.250          47.000    37092523.863   145559016.493         129.613          39.700  
J04  38164631.250   200556466.029         607.383          48.000    38164626.895   200556470.572         607.383          50.500    38164637.820   156277818.859         473.285          52.800    38164636.781   149766209.153         453.566          43.900  
C41  22175709.664   115474818.769        -835.453          50.000                                                                    22175709.273    93832768.208        -678.875          50.300  
R15  20547823.484                        3317.930          51.000    20547821.805                        3317.930          49.300    20547829.730                        2580.613          46.400    20547829.242                        2580.613          46.800  
G24  19824257.594   104177164.279        -257.473          51.200    19824267.176    81177110.754        -200.625          56.700    19824267.402    81177109.758        -200.625          53.100    19824264.512    77794698.707        -192.266          46.400  
G05  23705086.789   124571076.249       -3393.785          39.200    23705095.137    97068408.600       -2644.508          26.800    23705096.738    97068412.592       -2644.508          38.400                                                                  
G15  21050321.555   110620215.163       -1504.672          48.400    21050328.270    86197690.297       -1172.473          42.900    21050328.641    86197697.295       -1172.473          47.100                                                                  
C39  36617764.758   190678459.357         -26.414          47.600                                                                    36617755.422   154941767.391         -21.465          48.600  
R05  21438996.734   114603859.203        2584.117          39.600    21438994.836   114603655.209        2584.117          36.800    21439003.379    89136253.617        2009.867          39.300    21439003.086    89136253.609        2009.867          39.900  
G12  23320243.883   122548570.914        3333.035          37.000    23320252.102    95492547.007        2597.172          22.000    23320251.406    95492542.005        2597.172          37.100                                                                  
C33  25920963.750   134977305.115       -2520.656          34.800                                                                    25920968.277   109680079.451       -2048.242          35.000  
E25  24975901.797   131249298.850        1975.621          48.800    24975907.305   100567676.812        1513.785          50.100    24975908.074    98010866.125        1475.301          38.700    24975897.395   106533512.973        1603.586          48.800    24975908.512    99289280.274        1494.543          51.300  
C23  22179271.766   115493449.754        1207.355          51.400                                                                    22179254.207    93847757.537         981.074          50.800  
C32  22809491.273   118775026.154        1746.270          49.400                                                                    22809482.805    96514380.229        1418.988          49.100  
E24  25936040.375   136294869.820        -714.121          46.800    25936042.898   104433769.693        -547.184          44.900    25936043.988   101778630.031        -533.273          34.200    25936036.316   110628955.508        -579.645          43.700    25936045.078   103106221.168        -540.227          45.900  
E15  25563726.203   134338276.578       -1528.859          43.600    25563731.844   102934541.480       -1171.461          46.900    25563732.094   100317529.642       -1141.680          36.700    25563723.070   109040784.599       -1240.957          44.500    25563733.738   101626040.863       -1156.570          47.700  
C25  23145304.109   120523751.513       -1770.457          47.200                                                                    23145293.793    97935377.684       -1438.641          47.200  
E03  24129363.758   126800717.427         709.313          51.600    24129367.973    97159039.456         543.500          54.400    24129367.902    94688858.692         529.680          43.800    24129358.730   102922678.195         575.738          50.900    24129369.316    95923990.373         536.590          55.100  
E05  24769338.797   130163784.264       -1071.918          48.000    24769343.430    99735939.902        -821.340          49.800    24769343.297    97200261.296        -800.461          39.500    24769333.938   105652410.644        -870.063          48.000    24769344.984    98468125.402        -810.898          51.000  
> 2022 08 25 08 37 31.0000000  0 30                     
G23  20930195.586   109989016.977        1883.465          46.400    20930202.570    85705694.277        1467.633          40.500    20930202.371    85705687.277        1467.633          50.200    20930204.395    82134604.083        1406.484          41.700  
G18  22409511.969   117762900.791       -2403.305          42.400    22409520.355    91763215.042       -1872.703          31.300    22409520.230    91763222.047       -1872.703          44.600    22409520.480    87939751.519       -1794.676          36.200  
R04  19898627.945   106556301.752         208.586          51.200    19898626.316   106556358.762         208.586          49.900    19898632.480    82877117.258         162.234          50.500    19898632.344    82877133.253         162.234          51.000  
C13  36284529.609   188943127.821        -551.297          49.000    36284532.641   146102796.525        -426.297          47.900    36284523.840   153531712.794        -447.977          46.600  
C06  37024573.867   192796744.132         119.504          43.000    37024570.352   149082650.819          92.406          46.300    37024562.363   156663086.750          97.105          42.700  
R03  22164319.898   118647570.224       -2228.574          45.600    22164319.207   118647578.233       -2228.574          44.000    22164326.969    92281365.807       -1733.336          41.900    22164327.949    92281325.809       -1733.336          43.200  
C16  36982676.039   192578528.435           4.918          45.600    36982677.777   148913984.959           3.805          46.200    36982668.359   156485831.265           3.996          43.200  
C38  36556472.906   190359142.600       -1208.824          48.600                                                                    36556464.539   154682366.075        -982.266          47.700  
C09  38660137.023   201313533.320         143.012          39.000    38660135.332   155668380.001         110.586          41.700    38660126.160   163583683.948         116.211          39.800  
R14  19654209.273   104768143.828        -648.910          53.000    19654207.141   104768186.829        -648.910          51.400    19654215.344    81486272.062        -504.707          49.500    19654215.012    81486258.065        -504.707          50.300  
J07  37152774.820   195239125.065          -0.055          39.200    37152768.078   195239203.229          -0.055          46.300    37152781.465   152134449.644          -0.043          48.300    37152781.180   145795502.062          -0.043          40.700  
J02  37092482.227   194922268.793         173.387          44.200    37092477.738   194922366.819         173.387          44.800    37092490.871   151887560.479         135.105          47.300    37092490.840   145558886.958         129.477          39.500  
J04  38164515.680   200555858.676         607.254          47.800    38164511.434   200555863.220         607.254          50.300    38164522.320   156277345.596         473.184          52.700    38164521.238   149765755.611         453.469          43.800  
C41  22175870.156   115475654.473        -835.922          50.000                                                                    22175869.770    93833447.288        -679.254          50.300  
R15  20547202.648                        3317.219          51.000    20547200.906                        3317.219          49.300    20547208.871                        2580.059          46.900    20547208.707                        2580.059          47.200  
G24  19824306.656   104177422.100        -258.180          51.600    19824316.230    81177311.654        -201.180          56.300    19824316.492    81177310.657        -201.180          53.300    19824313.551    77794891.237        -192.797          46.500  
G05  23705732.664   124574470.336       -3394.195          39.400    23705741.102    97071053.340       -2644.828          26.700    23705742.547    97071057.334       -2644.828          38.300                                                                  
G15  21050607.922   110621720.045       -1505.043          48.000    21050614.520    86198862.933       -1172.762          42.600    21050614.980    86198869.930       -1172.762          47.000                                                                  
C39  36617769.852   190678485.873         -26.551          47.600                                                                    36617760.469   154941788.941         -21.574          48.800  
R05  21438513.352   114601275.242        2583.883          39.600    21438511.551   114601071.263        2583.883          36.900    21438520.031    89134243.872        2009.688          39.600    21438519.750    89134243.864        2009.688          39.500  
G12  23319609.633   122545237.943        3332.766          37.000    23319617.973    95489949.892        2596.961          22.300    23319617.406    95489944.891        2596.961          37.400                                                                  
C33  25921447.859   134979825.955       -2520.922          35.000                                                                    25921452.285   109682127.830       -2048.457          35.500  
E25  24975525.883   131247323.418        1975.227          48.400    24975531.387   100566163.170        1513.484          50.400    24975532.188    98009390.965        1475.008          39.000    24975521.332   106531909.538        1603.270          49.000    24975532.605    99287785.875        1494.246          51.300  
C23  22179039.977   115492242.721        1206.750          51.200                                                                    22179022.398    93846776.725         980.582          50.800  
C32  22809155.961   118773280.093        1745.918          49.600                                                                    22809147.402    96512961.410        1418.703          48.900  
E24  25936176.313   136295584.163        -714.574          46.400    25936178.852   104434317.050        -547.531          45.000    25936179.949   101779163.465        -533.609          34.200    25936172.137   110629535.336        -580.012          43.700    25936181.031   103106761.567        -540.570          45.700  
E15  25564017.180   134339805.672       -1529.309          44.000    25564022.895   102935713.124       -1171.809          46.800    25564023.066   100318671.500       -1142.016          36.700    25564014.051   109042025.750       -1241.324          44.600    25564024.727   101627197.613       -1156.914          47.700  
C25  23145644.164   120525522.262       -1771.023          46.800                                                                    23145633.871    97936816.565       -1439.102          47.000  
E03  24129228.805   126800008.237         709.070          51.600    24129233.027    97158496.054         543.313          54.000    24129232.930    94688329.101         529.500          43.300    24129223.746   102922102.555         575.543          50.900    24129234.391    95923453.877         536.406          54.900  
E05  24769542.789   130164856.278       -1072.102          48.600    24769547.430    99736761.315        -821.480          49.800    24769547.336    97201061.826        -800.598          39.300    24769537.910   105653280.787        -870.215          47.800    24769549.008    98468936.375        -811.039          51.000  
> 2022 08 25 08 37 32.0000000  0 30                     
G23  20929837.211   109987133.713        1882.996          46.200    20929844.148    85704226.803        1467.270          40.800    20929844.051    85704219.801        1467.270          50.300    20929845.973    82133197.752        1406.133          41.900  
G18  22409969.313   117765304.153       -2403.660          41.800    22409977.648    91765087.791       -1872.980          30.300    22409977.355    91765094.793       -1872.980          44.500    22409977.840    87941546.229       -1794.941          35.800  
R04  19898589.000   106556093.248         208.324          51.000    19898587.473   106556150.261         208.324          49.600    19898593.527    82876955.087         162.031          50.100    19898593.672    82876971.084         162.031          51.200  
C13  36284635.477   188943679.116        -551.480          48.800    36284638.504   146103222.818        -426.441          48.000    36284629.773   153532160.763        -448.125          46.600  
C06  37024550.898   192796624.565         119.559          42.600    37024547.285   149082558.364          92.449          46.500    37024539.422   156662989.593          97.152          42.600  
R03  22164736.227   118649798.868       -2228.750          45.600    22164735.582   118649806.881       -2228.750          44.300    22164743.293    92283099.194       -1733.473          42.100    22164743.859    92283059.193       -1733.473          43.100  
C16  36982675.086   192578523.479           4.887          45.800    36982676.664   148913981.125           3.777          46.000    36982667.465   156485827.240           3.969          43.100  
C38  36556705.047   190360351.415       -1208.938          49.000                                                                    36556696.629   154683348.337        -982.359          47.700  
C09  38660109.570   201313390.336         142.914          39.000    38660107.840   155668269.442         110.508          41.800    38660098.742   163583567.765         116.129          39.800  
R14  19654331.094   104768793.176        -649.805          53.400    19654329.074   104768836.179        -649.805          51.600    19654337.059    81486777.112        -505.402          50.000    19654336.813    81486763.115        -505.402          50.500  
J07  37152774.813   195239125.021                          39.800    37152767.613   195239203.187                          46.100    37152781.418   152134449.612                          48.000    37152781.145   145795502.031                          40.700  
J02  37092449.227   194922095.397         173.305          44.600    37092444.508   194922193.424         173.305          44.700    37092457.719   151887425.368         135.043          46.900    37092457.926   145558757.478         129.414          39.500  
J04  38164400.102   200555251.294         607.402          48.000    38164395.648   200555255.834         607.402          50.500    38164406.727   156276872.312         473.301          52.400    38164405.672   149765302.044         453.578          43.900  
C41  22176030.703   115476490.487        -836.266          50.200                                                                    22176030.289    93834126.617        -679.535          50.100  
R15  20546581.914                        3316.648          51.200    20546580.090                        3316.648          49.000    20546587.984                        2579.617          47.000    20546587.957                        2579.617          46.900  
G24  19824355.828   104177680.478        -258.707          51.400    19824365.445    81177512.988        -201.590          56.300    19824365.617    81177511.991        -201.590          53.300    19824362.754    77795084.181        -193.191          46.400  
G05  23706378.586   124577864.641       -3394.391          39.800    23706387.059    97073698.247       -2644.980          26.700    23706388.277    97073702.239       -2644.980          38.500                                                                  
G15  21050894.336   110623225.163       -1505.250          48.200    21050901.039    86200035.751       -1172.922          42.500    21050901.375    86200042.749       -1172.922          46.700                                                                  
C39  36617774.945   190678512.390         -26.563          47.400                                                                    36617765.613   154941810.485         -21.586          49.200  
R05  21438029.984   114598691.344        2583.656          39.600    21438028.012   114598487.360        2583.656          36.800    21438036.707    89132234.179        2009.508          39.300    21438036.500    89132234.166        2009.508          39.000  
G12  23318975.414   122541905.126        3332.676          37.400    23318983.910    95487352.892        2596.891          22.200    23318983.301    95487347.897        2596.891          37.700                                                                  
C33  25921932.000   134982346.969       -2521.199          34.800                                                                    25921936.453   109684176.358       -2048.680          35.600  
E25  24975150.039   131245348.330        1974.863          48.600    24975155.523   100564649.792        1513.207          50.300    24975156.410    98007916.067        1474.734          38.700    24975145.711   106530306.382        1602.973          48.800    24975156.754    99286291.733        1493.969          51.700  
C23  22178808.266   115491036.185        1206.273          51.800                                                                    22178790.691    93845796.318         980.195          50.900  
C32  22808820.688   118771534.213        1745.770          49.400                                                                    22808812.230    96511542.741        1418.582          48.800  
E24  25936312.328   136296298.967        -715.031          46.000    25936314.832   104434864.757        -547.879          44.900    25936315.824   101779697.248        -533.953          34.200    25936308.273   110630115.532        -580.383          43.800    25936317.039   103107302.310        -540.914          45.900  
E15  25564308.227   134341335.145       -1529.625          44.200    25564313.977   102936885.057       -1172.051          47.100    25564314.066   100319813.636       -1142.254          36.700    25564305.121   109043267.200       -1241.578          44.700    25564315.762   101628354.646       -1157.152          47.900  
C25  23145984.289   120527293.423       -1771.363          47.200                                                                    23145973.988    97938255.776       -1439.379          47.100  
E03  24129093.859   126799299.116         709.047          51.600    24129098.063    97157952.699         543.297          54.200    24129098.000    94687799.563         529.484          43.500    24129089.016   102921526.968         575.523          51.300    24129099.422    95922917.430         536.391          55.400  
E05  24769746.805   130165928.376       -1072.164          48.800    24769751.469    99737582.792        -821.527          49.800    24769751.430    97201862.419        -800.641          39.000    24769741.863   105654150.995        -870.262          48.200    24769753.008    98469747.409        -811.086          50.800  
> 2022 08 25 08 37 33.0000000  0 30                     
G23  20929478.922   109985250.889        1882.629          46.800    20929486.031    85702759.665        1466.984          40.500    20929485.664    85702752.664        1466.984          50.100    20929487.668    82131791.747        1405.859          42.200  
G18  22410426.727   117767707.877       -2403.867          42.000    22410435.031    91766960.818       -1873.141          30.200    22410434.918    91766967.826       -1873.141          44.300    22410435.258    87943341.217       -1795.094          36.000  
R04  19898550.125   106555885.064         208.055          51.400    19898548.531   106555942.077         208.055          49.400    19898554.656    82876793.164         161.820          50.200    19898554.926    82876809.162         161.820          50.900  
C13  36284741.375   188944230.568        -551.461          49.000    36284744.219   146103649.234        -426.426          48.200    36284735.691   153532608.861        -448.105          46.400  
C06  37024527.938   192796505.033         119.621          42.800    37024524.379   149082465.932          92.500          46.300    37024516.402   156662892.458          97.203          42.400  
R03  22165152.609   118652027.803       -2229.031          45.200    22165151.965   118652035.816       -2229.031          44.100    22165159.777    92284832.808       -1733.691          42.100    22165160.160    92284792.808       -1733.691          43.400  
C16  36982674.141   192578518.519           5.020          45.200    36982675.789   148913977.287           3.879          46.000    36982666.547   156485823.200           4.078          42.700  
C38  36556937.211   190361560.374       -1208.984          48.800                                                                    36556928.883   154684330.714        -982.398          47.900  
C09  38660082.117   201313247.380         142.930          39.000    38660080.449   155668158.895         110.523          42.000    38660071.258   163583451.601         116.141          39.900  
R14  19654453.070   104769443.407        -650.613          52.800    19654450.875   104769486.411        -650.613          51.500    19654459.078    81487282.844        -506.031          50.000    19654458.746    81487268.849        -506.031          50.400  
J07  37152774.797   195239124.958           0.121          40.000    37152768.109   195239203.124           0.121          46.100    37152781.340   152134449.564           0.098          48.400    37152781.137   145795501.985           0.094          41.000  
J02  37092416.234   194921922.054         173.375          45.000    37092411.426   194922020.081         173.375          44.800    37092424.828   151887290.295         135.098          46.700    37092424.852   145558628.031         129.469          40.100  
J04  38164284.508   200554643.876         607.555          48.200    38164280.133   200554648.418         607.555          50.300    38164291.094   156276398.998         473.418          52.400    38164290.098   149764848.453         453.695          44.200  
C41  22176191.313   115477326.805        -836.402          49.800                                                                    22176190.891    93834806.192        -679.645          50.300  
R15  20545961.289                        3316.219          50.800    20545959.684                        3316.219          49.200    20545967.477                        2579.281          47.100    20545967.363                        2579.281          47.200  
G24  19824405.094   104177939.407        -259.125          51.400    19824414.727    81177714.750        -201.914          56.300    19824414.879    81177713.753        -201.914          53.400    19824411.984    77795277.537        -193.504          46.500  
G05  23707024.547   124581259.147       -3394.605          38.800    23707033.016    97076343.303       -2645.145          27.200    23707034.039    97076347.304       -2645.145          38.400                                                                  
G15  21051180.797   110624730.519       -1505.414          48.200    21051187.547    86201208.754       -1173.051          42.800    21051187.863    86201215.751       -1173.051          46.800                                                                  
C39  36617780.031   190678538.886         -26.402          47.600                                                                    36617770.660   154941832.017         -21.453          49.300  
R05  21437546.609   114596107.484        2583.930          39.200    21437544.797   114595903.511        2583.930          36.800    21437553.309    89130224.507        2009.723          38.800    21437553.031    89130224.497        2009.723          38.600  
G12  23318341.219   122538572.430        3332.660          37.600    23318349.754    95484755.996        2596.879          22.300    23318349.238    95484750.995        2596.879          37.800                                                                  
C33  25922416.156   134984868.125       -2521.078          34.400                                                                    25922420.699   109686224.996       -2048.586          35.800  
E25  24974774.250   131243373.553        1974.727          48.600    24974779.770   100563136.649        1513.102          50.200    24974780.625    98006441.394        1474.633          38.600    24974769.883   106528703.477        1602.863          48.800    24974780.941    99284797.827        1493.867          51.400  
C23  22178576.656   115489830.128        1205.844          51.600                                                                    22178559.121    93844816.295         979.848          50.700  
C32  22808485.438   118769788.496        1745.711          49.000                                                                    22808476.930    96510124.204        1418.535          49.000  
E24  25936448.438   136297014.219        -715.461          46.000    25936450.910   104435412.809        -548.211          44.700    25936451.957   101780231.369        -534.273          34.400    25936444.410   110630696.096        -580.734          43.800    25936453.164   103107843.395        -541.242          45.900  
E15  25564599.344   134342864.973       -1529.957          44.200    25564605.047   102938057.259       -1172.305          47.200    25564605.203   100320956.033       -1142.500          37.200    25564596.113   109044508.944       -1241.848          44.700    25564606.867   101629511.949       -1157.402          48.100  
C25  23146324.500   120529064.984       -1771.711          47.400                                                                    23146314.258    97939695.314       -1439.660          47.300  
E03  24128958.930   126798590.053         709.082          51.800    24128963.117    97157409.389         543.324          53.800    24128963.117    94687270.068         529.512          43.800    24128953.914   102920951.428         575.555          51.300    24128964.500    95922381.029         536.418          55.200  
E05  24769950.828   130167000.541       -1072.117          48.400    24769955.512    99738404.320        -821.492          49.500    24769955.402    97202663.063        -800.609          39.300    24769945.938   105655021.258        -870.227          48.000    24769957.012    98470558.492        -811.051          51.000  
> 2022 08 25 08 37 34.0000000  0 30                     
G23  20929120.719   109983368.548        1882.156          47.000    20929127.789    85701292.905        1466.613          40.800    20929127.602    85701285.902        1466.613          50.000    20929129.504    82130386.103        1405.504          42.300  
G18  22410884.227   117770112.032       -2404.309          41.600    22410892.625    91768834.187       -1873.488          30.300    22410892.477    91768841.195       -1873.488          43.900    22410892.824    87945136.526       -1795.426          36.400  
R04  19898511.320   106555677.246         207.668          51.200    19898509.898   106555734.259         207.668          49.000    19898515.797    82876631.530         161.520          50.200    19898516.063    82876647.526         161.520          51.000  
C13  36284847.320   188944782.252        -551.703          48.600    36284850.230   146104075.830        -426.613          48.400    36284841.652   153533057.150        -448.305          46.400  
C06  37024505.000   192796385.552         119.516          42.800    37024501.500   149082373.543          92.418          46.400    37024493.480   156662795.372          97.117          42.500  
R03  22165569.063   118654257.089       -2229.359          45.200    22165568.359   118654265.097       -2229.359          44.600    22165576.379    92286566.693       -1733.945          41.900    22165576.730    92286526.695       -1733.945          43.100  
C16  36982673.195   192578513.603           4.945          45.400    36982674.828   148913973.487           3.824          46.000    36982665.547   156485819.206           4.020          43.000  
C38  36557169.422   190362769.524       -1209.156          48.800                                                                    36557161.102   154685313.245        -982.539          47.800  
C09  38660054.680   201313104.494         142.855          39.200    38660052.941   155668048.401         110.465          42.300    38660043.906   163583335.490         116.082          40.200  
R14  19654575.227   104770094.563        -651.547          52.800    19654573.063   104770137.564        -651.547          51.400    19654581.199    81487789.298        -506.758          49.900    19654580.957    81487775.302        -506.758          50.100  
J07  37152774.789   195239124.926           0.098          39.600    37152767.813   195239203.092           0.098          46.200    37152781.332   152134449.535           0.078          48.800    37152781.176   145795501.958           0.074          41.100  
J02  37092383.273   194921748.811         173.258          45.000    37092378.484   194921846.836         173.258          44.300    37092392.000   151887155.299         135.008          47.000    37092391.871   145558498.659         129.383          39.300  
J04  38164168.922   200554036.462         607.492          48.200    38164164.484   200554041.005         607.492          50.300    38164175.449   156275925.687         473.371          52.400    38164174.469   149764394.865         453.648          43.900  
C41  22176351.977   115478163.473        -836.758          50.200                                                                    22176351.637    93835486.052        -679.934          50.400  
R15  20545340.781                        3315.578          50.800    20545339.203                        3315.578          48.900    20545346.984                        2578.785          47.000    20545346.844                        2578.785          47.000  
G24  19824454.484   104178198.918        -259.738          51.400    19824464.055    81177916.966        -202.395          56.600    19824464.180    81177915.969        -202.395          53.500    19824461.336    77795471.329        -193.961          46.600  
G05  23707670.539   124584653.906       -3394.730          38.800    23707679.008    97078988.577       -2645.242          25.500    23707680.250    97078992.573       -2645.242          38.700                                                                  
G15  21051467.313   110626236.146       -1505.703          48.400    21051473.941    86202381.970       -1173.273          43.200    21051474.332    86202388.967       -1173.273          46.700                                                                  
C39  36617785.125   190678565.414         -26.484          47.600                                                                    36617775.750   154941853.570         -21.520          49.400  
R05  21437063.258   114593523.697        2583.855          39.400    21437061.824   114593319.717        2583.855          37.000    21437069.902    89128214.897        2009.664          38.900    21437069.773    89128214.888        2009.664          38.900  
G12  23317707.055   122535239.925        3332.457          37.600    23317715.605    95482159.242        2596.719          22.900    23317714.914    95482154.241        2596.719          37.600                                                                  
C33  25922900.367   134987389.486       -2521.484          34.800                                                                    25922904.938   109688273.804       -2048.914          36.000  
E25  24974398.531   131241399.140        1974.273          48.200    24974403.984   100561623.790        1512.754          50.300    24974404.961    98004967.000        1474.297          38.900    24974394.094   106527100.869        1602.496          48.600    24974405.238    99283304.198        1493.527          51.800  
C23  22178345.148   115488624.590        1205.328          51.800                                                                    22178327.527    93843836.696         979.426          50.900  
C32  22808150.234   118768042.982        1745.480          49.200                                                                    22808141.746    96508705.827        1418.344          49.000  
E24  25936584.641   136297729.952        -715.949          46.600    25936587.098   104435961.228        -548.586          44.200    25936588.105   101780765.843        -534.637          34.400    25936580.766   110631277.048        -581.129          43.800    25936589.367   103108384.842        -541.613          45.200  
E15  25564890.539   134344395.199       -1530.355          44.000    25564896.277   102939229.771       -1172.609          46.900    25564896.422   100322098.740       -1142.797          36.900    25564887.270   109045751.010       -1242.172          44.400    25564898.078   101630669.558       -1157.703          48.200  
C25  23146664.797   120530836.983       -1772.148          47.000                                                                    23146654.527    97941135.206       -1440.016          47.500  
E03  24128824.016   126797881.088         709.020          51.000    24128828.180    97156866.157         543.273          54.200    24128828.160    94686740.645         529.465          44.300    24128819.059   102920375.969         575.504          51.400    24128829.598    95921844.703         536.367          55.400  
E05  24770154.875   130168072.824       -1072.250          48.800    24770159.531    99739225.940        -821.594          49.800    24770159.480    97203463.792        -800.707          39.100    24770149.945   105655891.616        -870.332          47.700    24770161.090    98471369.669        -811.148          50.900  
> 2022 08 25 08 37 35.0000000  0 30                     
G23  20928762.617   109981486.698        1881.563          47.000    20928769.527    85699826.530        1466.152          41.300    20928769.480    85699819.528        1466.152          50.500    20928771.359    82128980.826        1405.063          42.600  
G18  22411341.797   117772516.605       -2404.875          41.800    22411350.164    91770707.878       -1873.930          30.600    22411350.348    91770714.882       -1873.930          44.100    22411350.512    87946932.149       -1795.848          35.400  
R04  19898472.594   106555469.833         207.094          51.200    19898471.117   106555526.845         207.094          49.000    19898477.031    82876470.207         161.070          50.300    19898477.227    82876486.204         161.070          51.200  
C13  36284953.320   188945334.180        -552.152          48.400    36284956.324   146104502.615        -426.957          48.200    36284947.637   153533505.635        -448.668          46.400  
C06  37024482.070   192796266.129         119.328          42.600    37024478.547   149082281.198          92.273          46.100    37024470.543   156662698.328          96.965          42.400  
R03  22165985.586   118656486.720       -2229.875          45.200    22165984.996   118656494.730       -2229.875          44.300    22165992.875    92288300.847       -1734.348          42.100    22165993.203    92288260.847       -1734.348          43.200  
C16  36982672.266   192578508.741           4.738          45.200    36982673.934   148913969.728           3.664          45.900    36982664.629   156485815.257           3.852          42.700  
C38  36557401.664   190363978.870       -1209.523          49.000                                                                    36557393.367   154686295.938        -982.836          47.900  
C09  38660027.250   201312961.669         142.684          39.200    38660025.574   155667937.965         110.332          42.300    38660016.387   163583219.434         115.941          40.200  
R14  19654697.555   104770746.628        -652.590          52.800    19654695.309   104770789.631        -652.590          51.000    19654703.492    81488296.462        -507.570          50.300    19654703.289    81488282.464        -507.570          50.100  
J07  37152774.797   195239124.920          -0.098          40.600    37152767.848   195239203.080          -0.098          46.300    37152781.230   152134449.526          -0.074          48.900    37152781.148   145795501.950          -0.070          41.200  
J02  37092350.328   194921575.666         173.016          44.600    37092345.395   194921673.693         173.016          44.100    37092359.070   151887020.383         134.816          47.200    37092358.902   145558369.370         129.199          39.400  
J04  38164053.344   200553429.060         607.324          48.200    38164049.039   200553433.602         607.324          50.300    38164059.945   156275452.387         473.242          52.800    38164058.855   149763941.284         453.523          43.800  
C41  22176512.727   115479000.486        -837.258          50.200                                                                    22176512.273    93836166.191        -680.340          50.500  
R15  20544720.391                        3314.785          51.000    20544718.691                        3314.785          49.200    20544726.531                        2578.168          46.300    20544726.152                        2578.168          46.900  
G24  19824503.984   104178459.035        -260.500          50.800    19824513.594    81178119.655        -202.988          56.400    19824513.695    81178118.657        -202.988          53.600    19824510.797    77795665.573        -194.531          46.600  
G05  23708316.594   124588048.889       -3395.238          39.200    23708325.051    97081634.001       -2645.641          25.600    23708326.250    97081638.005       -2645.641          38.800                                                                  
G15  21051753.883   110627742.048       -1506.172          48.600    21051760.594    86203555.397       -1173.641          42.900    21051760.816    86203562.396       -1173.641          47.000                                                                  
C39  36617790.234   190678591.973         -26.648          47.600                                                                    36617780.930   154941875.151         -21.652          49.000  
R05  21436579.930   114590939.985        2583.555          39.200    21436578.820   114590736.006        2583.555          36.700    21436586.652    89126205.346        2009.430          38.600    21436586.645    89126205.334        2009.430          39.000  
G12  23317072.922   122531907.588        3332.066          37.800    23317081.555    95479562.612        2596.414          23.200    23317080.641    95479557.617        2596.414          37.500                                                                  
C33  25923384.594   134989911.035       -2521.664          35.200                                                                    25923389.121   109690322.766       -2049.059          36.300  
E25  24974022.891   131239425.099        1973.836          48.000    24974028.387   100560111.213        1512.418          50.100    24974029.215    98003492.879        1473.969          38.700    24974018.492   106525498.565        1602.137          48.400    24974029.586    99281810.852        1493.191          51.200  
C23  22178113.734   115487419.581        1204.664          51.400                                                                    22178096.105    93842857.528         978.891          50.800  
C32  22807815.063   118766297.681        1745.129          49.200                                                                    22807806.563    96507287.629        1418.059          49.100  
E24  25936720.938   136298446.183        -716.613          46.400    25936723.402   104436510.027        -549.094          44.400    25936724.328   101781300.691        -535.133          34.300    25936716.988   110631858.403        -581.668          43.800    25936725.656   103108926.664        -542.113          45.600  
E15  25565181.813   134345925.850       -1530.918          44.000    25565187.508   102940402.607       -1173.039          47.100    25565187.625   100323241.758       -1143.215          36.600    25565178.633   109046993.419       -1242.625          44.300    25565189.320   101631827.482       -1158.129          48.000  
C25  23147005.180   120532609.428       -1772.762          46.800                                                                    23146994.918    97942575.462       -1440.516          47.200  
E03  24128689.133   126797172.228         708.738          51.400    24128693.270    97156323.001         543.059          54.200    24128693.223    94686211.297         529.250          43.800    24128684.227   102919800.592         575.273          51.200    24128694.664    95921308.450         536.156          55.600  
E05  24770358.953   130169145.228       -1072.547          48.600    24770363.629    99740047.652        -821.820          49.800    24770363.570    97204264.612        -800.930          39.000    24770354.125   105656762.074        -870.574          48.200    24770365.164    98472180.934        -811.375          50.900  
> 2022 08 25 08 37 36.0000000  0 30                     
G23  20928404.586   109979605.249        1881.262          47.000    20928411.605    85698360.466        1465.918          40.200    20928411.453    85698353.462        1465.918          50.200    20928413.379    82127575.848        1404.836          42.500  
G18  22411799.438   117774921.515       -2405.008          41.800    22411807.859    91772581.834       -1874.031          30.400    22411807.781    91772588.835       -1874.031          44.300    22411808.047    87948728.020       -1795.949          35.700  
R04  19898433.914   106555262.732         206.992          51.200    19898432.617   106555319.748         206.992          49.200    19898438.324    82876309.127         160.992          50.300    19898438.656    82876325.122         160.992          51.300  
C13  36285059.336   188945886.252        -552.117          48.600    36285062.375   146104929.511        -426.934          48.400    36285053.617   153533954.238        -448.641          46.300  
C06  37024459.125   192796146.680         119.543          42.400    37024455.500   149082188.832          92.438          46.100    37024447.660   156662601.268          97.137          42.500  
R03  22166402.141   118658716.600       -2230.039          45.200    22166401.742   118658724.607       -2230.039          44.200    22166409.246    92290035.196       -1734.477          41.900    22166409.859    92289995.195       -1734.477          43.100  
C16  36982671.320   192578503.846           4.941          45.800    36982672.891   148913965.940           3.820          46.200    36982663.715   156485811.279           4.016          42.700  
C38  36557633.930   190365188.321       -1209.480          49.000                                                                    36557625.621   154687278.715        -982.805          47.800  
C09  38659999.820   201312818.848         142.758          39.200    38659998.004   155667827.528         110.391          42.200    38659988.941   163583103.382         116.004          40.000  
R14  19654820.023   104771399.495        -653.215          53.000    19654817.832   104771442.497        -653.215          50.900    19654826.074    81488804.245        -508.055          49.900    19654825.637    81488790.250        -508.055          50.200  
J07  37152774.781   195239124.865           0.168          40.000    37152767.844   195239203.025           0.168          46.200    37152781.156   152134449.485           0.129          48.100    37152781.129   145795501.910           0.125          41.100  
J02  37092317.375   194921402.542         173.125          44.400    37092312.691   194921500.568         173.125          43.900    37092326.090   151886885.481         134.902          47.200    37092325.941   145558240.086         129.281          39.400  
J04  38163937.734   200552821.582         607.594          48.400    38163933.324   200552826.123         607.594          50.000    38163944.246   156274979.027         473.449          52.500    38163943.246   149763487.647         453.723          44.100  
C41  22176673.516   115479837.763        -837.379          50.000                                                                    22176673.176    93836846.543        -680.438          50.700  
R15  20544100.094                        3314.469          50.800    20544098.395                        3314.469          48.800    20544106.320                        2577.922          46.600    20544105.828                        2577.922          46.600  
G24  19824553.578   104178719.655        -260.828          50.400    19824563.207    81178322.733        -203.242          56.400    19824563.316    81178321.735        -203.242          53.300    19824560.398    77795860.188        -194.773          46.700  
G05  23708962.672   124591444.025       -3395.285          39.000    23708971.156    97084279.565       -2645.680          27.100    23708972.070    97084283.553       -2645.680          38.500                                                                  
G15  21052040.477   110629248.148       -1506.141          49.000    21052047.188    86204728.978       -1173.617          43.100    21052047.531    86204735.978       -1173.617          46.900                                                                  
C39  36617795.320   190678618.485         -26.473          47.800                                                                    36617786.016   154941896.693         -21.512          48.700  
R05  21436096.594   114588356.299        2583.695          39.200    21436095.113   114588152.330        2583.695          36.800    21436103.332    89124195.814        2009.543          39.000    21436103.137    89124195.802        2009.543          38.900  
G12  23316438.805   122528575.344        3332.324          38.200    23316447.371    95476966.067        2596.617          24.800    23316446.426    95476961.068        2596.617          37.300                                                                  
C33  25923868.867   134992432.704       -2521.676          34.800                                                                    25923873.480   109692371.815       -2049.066          36.000  
E25  24973647.289   131237451.346        1973.645          48.000    24973652.766   100558598.856        1512.273          49.900    24973653.563    98002018.973        1473.824          38.800    24973642.957   106523896.493        1601.984          48.100    24973653.953    99280317.719        1493.047          51.300  
C23  22177882.414   115486215.020        1204.355          51.600                                                                    22177864.813    93841878.723         978.637          50.700  
C32  22807479.922   118764552.518        1745.109          49.400                                                                    22807471.434    96505869.540        1418.043          48.800  
E24  25936857.305   136299162.825        -716.844          46.400    25936859.793   104437059.142        -549.270          44.600    25936860.645   101781835.846        -535.305          34.600    25936853.324   110632440.094        -581.855          43.700    25936862.055   103109468.799        -542.289          46.000  
E15  25565473.148   134347456.825       -1531.156          44.200    25565478.824   102941575.690       -1173.223          47.400    25565479.070   100324385.016       -1143.395          37.100    25565470.086   109048236.091       -1242.820          44.400    25565480.680   101632985.654       -1158.309          48.700  
C25  23147345.617   120534382.227       -1772.926          47.000                                                                    23147335.324    97944016.007       -1440.645          47.000  
E03  24128554.242   126796463.379         708.855          51.400    24128558.379    97155779.858         543.148          54.000    24128558.426    94685681.965         529.340          43.600    24128549.301   102919225.227         575.367          51.200    24128559.805    95920772.212         536.242          55.100  
E05  24770563.031   130170217.667       -1072.461          48.200    24770567.742    99740869.387        -821.754          49.900    24770567.531    97205065.459        -800.863          39.100    24770558.250   105657632.556        -870.504          48.000    24770569.223    98472992.224        -811.309          51.200  
> 2022 08 25 08 37 37.0000000  0 30                     
G23  20928046.648   109977724.251        1880.926          46.400    20928053.797    85696894.753        1465.656          40.200    20928053.555    85696887.750        1465.656          50.400    20928055.410    82126171.208        1404.586          41.900  
G18  22412257.148   117777326.810       -2405.387          41.200    22412265.672    91774456.089       -1874.328          30.900    22412265.430    91774463.092       -1874.328          44.400    22412265.727    87950524.181       -1796.230          35.500  
R04  19898395.297   106555055.960         206.730          51.400    19898393.777   106555112.971         206.730          49.100    19898399.879    82876148.306         160.789          50.200    19898399.742    82876164.300         160.789          51.400  
C13  36285165.391   188946438.494        -552.246          48.000    36285168.219   146105356.539        -427.035          48.100    36285159.691   153534402.978        -448.746          46.200  
C06  37024436.195   192796027.261         119.512          42.400    37024432.445   149082096.488          92.414          46.300    37024424.750   156662504.230          97.113          42.400  
R03  22166818.758   118660946.779       -2230.184          45.800    22166818.504   118660954.790       -2230.184          44.100    22166825.906    92291769.776       -1734.590          41.900    22166826.563    92291729.779       -1734.590          42.900  
C16  36982670.383   192578498.960           5.023          45.200    36982672.074   148913962.162           3.883          45.900    36982662.742   156485807.308           4.082          43.100  
C38  36557866.219   190366397.926       -1209.555          49.400                                                                    36557857.852   154688261.619        -982.859          47.400  
C09  38659972.391   201312676.055         142.797          39.200    38659970.563   155667717.111         110.418          42.200    38659961.563   163582987.353         116.035          40.100  
R14  19654942.656   104772053.197        -654.023          52.800    19654940.457   104772096.198        -654.023          51.300    19654948.605    81489312.681        -508.684          50.200    19654948.445    81489298.685        -508.684          50.700  
J07  37152774.766   195239124.794           0.164          40.400    37152767.863   195239202.958           0.164          46.200    37152781.543   152134449.430           0.129          48.100    37152781.063   145795501.857           0.121          41.300  
J02  37092284.445   194921229.476         173.172          44.400    37092279.891   194921327.501         173.172          43.900    37092293.137   151886750.625         134.938          47.600    37092292.992   145558110.848         129.316          39.600  
J04  38163822.133   200552214.074         607.645          48.400    38163817.734   200552218.617         607.645          50.100    38163828.730   156274505.646         473.488          52.500    38163827.699   149763033.991         453.762          44.400  
C41  22176834.367   115480675.346        -837.605          50.000                                                                    22176833.965    93837527.150        -680.621          50.400  
R15  20543479.898                        3313.930          50.600    20543478.242                        3313.930          49.000    20543485.984                        2577.500          46.600    20543485.887                        2577.500          46.800  
G24  19824603.273   104178980.832        -261.344          51.000    19824612.867    81178526.249        -203.645          55.900    19824613.016    81178525.251        -203.645          53.000    19824610.102    77796055.223        -195.160          46.700  
G05  23709608.789   124594839.340       -3395.309          40.000    23709617.426    97086925.247       -2645.695          26.700    23709618.121    97086929.250       -2645.695          38.600                                                                  
G15  21052327.125   110630754.489       -1506.367          48.400    21052333.797    86205902.751       -1173.793          43.000    21052334.273    86205909.749       -1173.793          47.000                                                                  
C39  36617800.406   190678644.984         -26.422          47.600                                                                    36617791.039   154941918.227         -21.473          48.800  
R05  21435613.281   114585772.672        2583.680          39.200    21435611.402   114585568.703        2583.680          37.100    21435620.047    89122186.322        2009.527          38.900    21435619.996    89122186.312        2009.527          39.100  
G12  23315804.734   122525243.239        3332.137          38.200    23315813.273    95474369.617        2596.469          23.000    23315812.645    95474364.624        2596.469          37.600                                                                  
C33  25924353.148   134994954.516       -2521.773          35.200                                                                    25924357.711   109694420.995       -2049.148          35.800  
E25  24973271.758   131235477.919        1973.398          48.400    24973277.340   100557086.751        1512.082          49.500    24973278.063    98000545.313        1473.641          38.900    24973267.324   106522294.686        1601.781          48.500    24973278.434    99278824.835        1492.863          50.900  
C23  22177651.180   115485010.949        1203.934          51.200                                                                    22177633.586    93840900.316         978.293          50.400  
C32  22807144.813   118762807.517        1745.063          49.800                                                                    22807136.258    96504451.580        1418.004          49.000  
E24  25936993.766   136299879.909        -717.156          46.800    25936996.246   104437608.595        -549.508          44.800    25936997.020   101782371.328        -535.539          34.300    25936989.707   110633022.141        -582.105          43.500    25936998.500   103110011.266        -542.523          46.000  
E15  25565764.547   134348988.155       -1531.418          43.600    25565770.242   102942749.045       -1173.422          47.200    25565770.430   100325528.540       -1143.590          37.300    25565761.445   109049479.054       -1243.035          44.700    25565772.070   101634144.093       -1158.508          48.600  
C25  23147686.148   120536155.435       -1773.336          47.400                                                                    23147675.930    97945456.882       -1440.980          47.200  
E03  24128419.359   126795754.612         708.836          51.200    24128423.531    97155236.780         543.133          54.000    24128423.547    94685152.696         529.324          43.600    24128414.422   102918649.931         575.355          51.000    24128424.953    95920236.039         536.230          55.100  
E05  24770767.117   130171290.178       -1072.461          48.200    24770771.750    99741691.182        -821.758          49.500    24770771.504    97205866.361        -800.863          39.500    24770762.227   105658503.102        -870.504          48.100    24770773.320    98473803.573        -811.313          51.300  
> 2022 08 25 08 37 38.0000000  0 30                     
G23  20927688.805   109975843.776        1880.219          46.400    20927695.793    85695429.447        1465.105          40.300    20927695.738    85695422.446        1465.105          50.100    20927697.602    82124766.957        1404.059          41.700  
G18  22412714.953   117779732.544       -2405.965          42.000    22412723.422    91776330.683       -1874.777          30.200    22412723.230    91776337.685       -1874.777          44.100    22412723.500    87952320.666       -1796.660          36.000  
R04  19898356.758   106554849.561         206.184          51.000    19898355.211   106554906.575         206.184          49.400    19898361.277    82875987.772         160.363          50.100    19898361.484    82876003.768         160.363          51.600  
C13  36285271.484   188946990.974        -552.598          48.400    36285274.590   146105783.752        -427.305          48.300    36285265.836   153534851.915        -449.031          45.900  
C06  37024413.281   192795907.912         119.293          42.800    37024409.488   149082004.199          92.246          46.500    37024401.793   156662407.247          96.934          42.300  
R03  22167235.445   118663177.335       -2230.688          46.200    22167234.957   118663185.340       -2230.688          44.500    22167242.551    92293504.652       -1734.980          42.100    22167242.934    92293464.650       -1734.980          43.300  
C16  36982669.461   192578494.145           4.746          45.000    36982671.113   148913958.441           3.672          46.300    36982661.816   156485803.397           3.859          43.000  
C38  36558098.555   190367607.749       -1209.930          49.200                                                                    36558090.219   154689244.699        -983.168          47.400  
C09  38659944.992   201312533.348         142.688          39.800    38659943.137   155667606.764         110.336          42.300    38659934.094   163582871.393         115.945          39.400  
R14  19655065.469   104772707.818        -655.086          52.800    19655063.324   104772750.820        -655.086          51.300    19655071.465    81489821.831        -509.512          50.500    19655071.273    81489807.834        -509.512          50.700  
J07  37152774.766   195239124.784           0.031          40.000    37152767.805   195239202.947           0.031          46.200    37152781.637   152134449.422           0.023          48.100    37152781.121   145795501.850           0.023          41.000  
J02  37092251.539   194921056.542         172.844          44.600    37092247.043   194921154.570         172.844          43.900    37092260.230   151886615.872         134.684          47.400    37092260.105   145557981.710         129.070          39.100  
J04  38163706.539   200551606.599         607.457          49.000    38163702.117   200551611.141         607.457          50.300    38163713.051   156274032.288         473.344          52.300    38163712.113   149762580.355         453.621          44.300  
C41  22176995.289   115481513.305        -838.129          50.000                                                                    22176994.938    93838208.060        -681.047          50.300  
R15  20542859.828                        3313.176          50.600    20542858.141                        3313.176          48.800    20542866.000                        2576.914          46.600    20542865.570                        2576.914          47.000  
G24  19824653.094   104179242.621        -262.055          51.200    19824662.746    81178730.239        -204.199          55.900    19824662.988    81178729.241        -204.199          52.900    19824659.918    77796250.715        -195.688          46.700  
G05  23710254.945   124598234.933       -3395.637          39.800    23710263.559    97089571.162       -2645.953          27.000    23710264.598    97089575.166       -2645.953          38.400                                                                  
G15  21052613.836   110632261.126       -1506.770          48.200    21052620.531    86207076.749       -1174.105          42.600    21052620.824    86207083.750       -1174.105          47.100                                                                  
C39  36617805.508   190678671.546         -26.582          47.600                                                                    36617796.105   154941939.812         -21.598          48.800  
R05  21435129.984   114583189.173        2583.500          39.000    21435128.242   114582985.208        2583.500          37.100    21435136.652    89120176.938        2009.387          39.000    21435136.766    89120176.928        2009.387          38.800  
G12  23315170.688   122521911.332        3331.910          37.600    23315179.254    95471773.326        2596.293          22.600    23315178.660    95471768.339        2596.293          37.800                                                                  
C33  25924837.484   134997476.575       -2522.090          34.800                                                                    25924842.020   109696470.370       -2049.402          36.100  
E25  24972896.305   131233504.890        1972.895          48.600    24972901.836   100555574.950        1511.695          49.500    24972902.582    97999071.949        1473.266          38.600    24972891.820   106520693.202        1601.375          48.600    24972902.992    99277332.254        1492.480          50.700  
C23  22177420.063   115483807.427        1203.277          51.600                                                                    22177402.395    93839922.358         977.762          50.500  
C32  22806809.750   118761062.761        1744.641          49.600                                                                    22806801.219    96503033.830        1417.664          49.300  
E24  25937130.320   136300597.521        -717.816          46.400    25937132.820   104438158.454        -550.016          44.800    25937133.418   101782907.207        -536.031          34.000    25937126.332   110633604.621        -582.641          43.200    25937135.063   103110554.137        -543.023          45.900  
E15  25566056.039   134350519.926       -1531.938          43.600    25566061.684   102943922.739       -1173.820          47.300    25566061.922   100326672.391       -1143.977          37.300    25566053.102   109050722.374       -1243.453          44.600    25566063.574   101635302.868       -1158.898          48.500  
C25  23148026.773   120537929.123       -1773.949          47.600                                                                    23148016.523    97946898.148       -1441.480          47.300  
E03  24128284.516   126795045.978         708.598          51.200    24128288.645    97154693.801         542.949          54.400    24128288.742    94684623.518         529.145          43.500    24128279.598   102918074.740         575.160          50.400    24128290.094    95919699.960         536.047          55.600  
E05  24770971.250   130172362.837       -1072.777          48.000    24770975.953    99742513.088        -821.996          49.500    24770975.668    97206667.372        -801.098          39.100    24770966.355   105659373.765        -870.762          48.100    24770977.457    98474615.032        -811.547          51.200  
> 2022 08 25 08 37 39.0000000  0 30                     
G23  20927331.047   109973963.741        1879.945          46.000    20927338.059    85693964.486        1464.891          39.900    20927337.680    85693957.484        1464.891          50.100    20927339.879    82123363.038        1403.855          41.600  
G18  22413172.820   117782138.655       -2406.164          42.000    22413181.297    91778205.571       -1874.934          30.100    22413181.055    91778212.575       -1874.934          44.500    22413181.359    87954117.436       -1796.809          35.800  
R04  19898318.266   106554643.494         206.051          51.400    19898316.773   106554700.507         206.051          49.500    19898322.746    82875827.499         160.262          50.300    19898322.719    82875843.492         160.262          51.500  
C13  36285377.625   188947543.652        -552.641          48.600    36285380.563   146106211.117        -427.336          47.900    36285371.883   153535301.013        -449.066          45.800  
C06  37024390.359   192795788.595         119.391          42.800    37024386.727   149081911.938          92.320          46.600    37024378.961   156662310.292          97.016          42.200  
R03  22167652.188   118665408.163       -2230.859          45.800    22167651.723   118665416.165       -2230.859          44.500    22167659.332    92295239.738       -1735.113          42.200    22167659.621    92295199.737       -1735.113          43.200  
C16  36982668.531   192578489.334           4.844          44.800    36982670.383   148913954.724           3.746          46.700    36982660.883   156485799.492           3.938          43.100  
C38  36558330.914   190368817.719       -1209.910          49.000                                                                    36558322.547   154690227.901        -983.152          47.100  
C09  38659917.594   201312390.665         142.789          39.200    38659915.699   155667496.433         110.414          42.400    38659906.695   163582755.453         116.027          39.400  
R14  19655188.438   104773363.328        -655.863          53.000    19655186.348   104773406.331        -655.863          51.500    19655194.418    81490331.671        -510.117          50.500    19655194.250    81490317.676        -510.117          50.700  
J07  37152774.758   195239124.749           0.148          39.800    37152768.242   195239202.912           0.148          46.400    37152781.449   152134449.395           0.117          48.000    37152781.121   145795501.824           0.113          40.900  
J02  37092218.633   194920883.656         172.996          44.800    37092213.734   194920981.684         172.996          44.100    37092227.469   151886481.157         134.801          47.100    37092227.102   145557852.608         129.188          39.200  
J04  38163590.930   200550999.084         607.695          49.000    38163586.613   200551003.626         607.695          50.800    38163597.543   156273558.900         473.527          52.100    38163596.555   149762126.693         453.797          44.100  
C41  22177156.266   115482351.561        -838.289          49.800                                                                    22177155.895    93838889.214        -681.180          50.300  
R15  20542239.867                        3312.766          50.600    20542237.949                        3312.766          48.800    20542246.020                        2576.598          46.900    20542245.789                        2576.598          47.100  
G24  19824703.008   104179504.957        -262.457          51.200    19824712.629    81178934.658        -204.512          55.800    19824712.891    81178933.660        -204.512          52.600    19824709.883    77796446.616        -195.992          46.300  
G05  23710901.125   124601630.695       -3395.711          39.200    23710909.777    97092217.218       -2646.008          25.200    23710910.695    97092221.212       -2646.008          38.700                                                                  
G15  21052900.578   110633767.995       -1506.852          48.000    21052907.254    86208250.932       -1174.172          42.800    21052907.344    86208257.934       -1174.172          47.000                                                                  
C39  36617810.602   190678698.093         -26.391          47.600                                                                    36617801.215   154941961.383         -21.445          49.000  
R05  21434646.688   114580605.707        2583.602          38.600    21434644.902   114580401.731        2583.602          36.700    21434653.238    89118167.573        2009.469          38.900    21434653.523    89118167.567        2009.469          39.200  
G12  23314536.664   122518579.558        3331.848          38.400    23314545.059    95469177.139        2596.246          22.900    23314544.621    95469172.158        2596.246          38.100                                                                  
C33  25925321.836   134999998.769       -2522.148          34.800                                                                    25925326.449   109698519.862       -2049.453          36.400  
E25  24972520.906   131231532.175        1972.664          48.600    24972526.387   100554063.390        1511.523          49.500    24972527.016    97997598.816        1473.094          38.900    24972516.473   106519091.973        1601.188          48.900    24972527.578    99275839.908        1492.309          50.700  
C23  22177189.023   115482604.384        1202.906          51.600                                                                    22177171.402    93838944.788         977.461          50.700  
C32  22806474.719   118759318.169        1744.629          49.800                                                                    22806466.152    96501616.204        1417.656          49.500  
E24  25937266.961   136301315.573        -718.160          46.400    25937269.574   104438708.652        -550.277          45.000    25937270.313   101783443.413        -536.289          34.000    25937262.938   110634187.458        -582.922          43.300    25937271.715   103111097.340        -543.285          46.100  
E15  25566347.594   134352052.053       -1532.188          43.600    25566353.301   102945096.704       -1174.016          47.500    25566353.492   100327816.512       -1144.168          36.800    25566344.520   109051965.981       -1243.660          44.600    25566355.145   101636461.911       -1159.090          48.500  
C25  23148367.461   120539703.197       -1774.145          47.800                                                                    23148357.246    97948339.729       -1441.637          47.600  
E03  24128149.680   126794337.389         708.691          51.400    24128153.813    97154150.852         543.023          54.000    24128153.875    94684094.375         529.215          43.800    24128144.750   102917499.588         575.234          50.700    24128155.234    95919163.915         536.121          55.800  
E05  24771175.375   130173435.564       -1072.652          48.000    24771180.105    99743335.043        -821.902          49.700    24771179.906    97207468.430        -801.008          39.600    24771170.574   105660244.482        -870.660          48.200    24771181.566    98475426.539        -811.453          51.200  
> 2022 08 25 08 37 40.0000000  0 30                     
G23  20926973.375   109972084.163        1879.359          46.000    20926980.598    85692499.878        1464.438          40.200    20926980.293    85692492.876        1464.438          50.200    20926982.141    82121959.453        1403.418          41.600  
G18  22413630.766   117784545.161       -2406.602          41.600    22413639.180    91780080.768       -1875.273          30.000    22413638.949    91780087.773       -1875.273          44.200    22413639.340    87955914.498       -1797.137          35.600  
R04  19898279.867   106554437.796         205.574          51.200    19898278.418   106554494.812         205.574          49.700    19898284.438    82875667.508         159.891          50.200    19898284.551    82875683.504         159.891          51.500  
C13  36285483.805   188948096.537        -552.961          48.800    36285486.887   146106638.646        -427.582          48.100    36285478.059   153535750.276        -449.324          45.600  
C06  37024367.453   192795669.295         119.316          42.800    37024363.867   149081819.688          92.262          46.900    37024355.961   156662213.353          96.953          42.400  
R03  22168068.984   118667639.299       -2231.184          45.800    22168068.438   118667647.305       -2231.184          44.300    22168076.055    92296975.061       -1735.363          41.900    22168076.195    92296935.060       -1735.363          43.000  
C16  36982667.617   192578484.547           4.805          44.800    36982669.395   148913951.019           3.715          46.400    36982659.906   156485795.599           3.902          42.800  
C38  36558563.305   190370027.857       -1210.137          49.000                                                                    36558554.957   154691211.233        -983.336          47.300  
C09  38659890.203   201312248.047         142.645          39.400    38659888.426   155667386.151         110.301          42.600    38659879.281   163582639.563         115.910          39.700  
R14  19655311.578   104774019.758        -656.789          52.800    19655309.379   104774062.760        -656.789          51.400    19655317.566    81490842.227        -510.836          50.300    19655317.211    81490828.231        -510.836          50.200  
J07  37152774.758   195239124.715           0.059          39.400    37152767.801   195239202.881           0.059          46.000    37152781.566   152134449.369           0.047          47.800    37152781.172   145795501.800           0.043          40.600  
J02  37092185.750   194920710.840         172.828          44.000    37092180.926   194920808.866         172.828          43.800    37092194.301   151886346.494         134.672          46.600    37092194.223   145557723.560         129.059          38.800  
J04  38163475.320   200550391.551         607.590          48.600    38163471.035   200550396.093         607.590          51.000    38163481.723   156273085.495         473.445          52.400    38163480.902   149761673.013         453.719          44.400  
C41  22177317.305   115483190.145        -838.668          49.800                                                                    22177316.910    93839570.630        -681.484          49.500  
R15  20541620.016                        3312.063          50.600    20541618.270                        3312.063          48.900    20541626.102                        2576.047          47.000    20541626.051                        2576.047          47.400  
G24  19824753.047   104179767.861        -263.164          51.800    19824762.691    81179139.519        -205.063          56.000    19824762.828    81179138.519        -205.063          53.100    19824759.914    77796642.941        -196.520          46.300  
G05  23711547.375   124605026.689       -3396.012          39.200    23711556.051    97094863.445       -2646.242          26.100    23711557.035    97094867.437       -2646.242          38.900                                                                  
G15  21053187.375   110635275.115       -1507.168          48.400    21053194.031    86209425.310       -1174.418          43.100    21053194.355    86209432.309       -1174.418          47.000                                                                  
C39  36617815.703   190678724.646         -26.449          47.600                                                                    36617806.324   154941982.959         -21.492          49.300  
R05  21434163.406   114578022.299        2583.379          38.600    21434161.633   114577818.316        2583.379          36.400    21434169.938    89116158.258        2009.297          38.900    21434170.184    89116158.253        2009.297          39.000  
G12  23313902.672   122515247.932        3331.574          39.000    23313911.109    95466581.074        2596.031          22.600    23313910.887    95466576.083        2596.031          37.600                                                                  
C33  25925806.250   135002521.146       -2522.398          35.400                                                                    25925810.820   109700569.489       -2049.656          36.100  
E25  24972145.578   131229559.805        1972.277          48.400    24972151.059   100552552.096        1511.223          49.700    24972151.625    97996125.944        1472.805          39.000    24972141.160   106517491.023        1600.871          48.800    24972152.254    99274347.826        1492.012          50.900  
C23  22176958.094   115481401.843        1202.352          51.800                                                                    22176940.434    93837967.623         977.012          50.700  
C32  22806139.727   118757573.765        1744.363          49.800                                                                    22806131.180    96500198.727        1417.438          49.600  
E24  25937403.695   136302034.096        -718.691          46.400    25937406.324   104439259.208        -550.684          45.000    25937407.109   101783979.975        -536.684          34.100    25937399.594   110634770.676        -583.352          43.600    25937408.430   103111640.898        -543.684          46.100  
E15  25566639.219   134353584.563       -1532.621          43.600    25566644.938   102946270.966       -1174.348          47.100    25566645.074   100328960.918       -1144.492          37.100    25566636.039   109053209.903       -1244.012          44.900    25566646.762   101637621.244       -1159.418          48.200  
C25  23148708.234   120541477.684       -1774.664          47.600                                                                    23148698.008    97949781.645       -1442.059          47.600  
E03  24128014.852   126793628.881         708.527          51.400    24128019.004    97153607.974         542.895          53.800    24128019.137    94683565.298         529.094          43.500    24128009.898   102916924.501         575.102          51.000    24128020.430    95918627.935         535.996          55.200  
E05  24771379.531   130174508.388       -1072.789          48.000    24771384.223    99744157.077        -822.008          49.900    24771383.949    97208269.563        -801.109          39.900    24771374.605   105661115.281        -870.770          48.100    24771385.719    98476238.123        -811.559          51.400  
> 2022 08 25 08 37 41.0000000  0 30                     
G23  20926615.789   109970205.061        1878.898          46.200    20926623.051    85691035.643        1464.078          40.100    20926622.629    85691028.641        1464.078          50.500    20926624.570    82120556.231        1403.074          41.300  
G18  22414088.789   117786952.070       -2407.121          41.600    22414097.328    91781956.280       -1875.680          29.800    22414096.969    91781963.284       -1875.680          43.800    22414097.344    87957711.864       -1797.523          35.200  
R04  19898241.523   106554232.470         205.152          51.200    19898240.004   106554289.483         205.152          49.700    19898245.984    82875507.812         159.563          50.100    19898246.184    82875523.807         159.563          51.200  
C13  36285590.008   188948649.606        -553.156          48.600    36285593.070   146107066.313        -427.738          48.200    36285584.289   153536199.690        -449.484          45.800  
C06  37024344.547   192795550.032         119.309          42.800    37024340.887   149081727.464          92.258          46.500    37024333.078   156662116.438          96.949          42.300  
R03  22168485.844   118669870.741       -2231.566          45.800    22168485.473   118669878.749       -2231.566          44.500    22168492.840    92298710.625       -1735.664          41.900    22168492.754    92298670.626       -1735.664          43.000  
C16  36982666.703   192578479.792           4.754          44.800    36982668.324   148913947.342           3.676          46.300    36982658.914   156485791.736           3.863          43.000  
C38  36558795.742   190371238.164       -1210.340          49.000                                                                    36558787.395   154692194.705        -983.500          47.100  
C09  38659862.820   201312105.473         142.617          39.200    38659860.922   155667275.905         110.281          42.800    38659851.984   163582523.710         115.891          39.300  
R14  19655434.898   104774677.062        -657.727          52.800    19655432.797   104774720.063        -657.727          51.000    19655440.867    81491353.466        -511.563          49.800    19655440.652    81491339.471        -511.563          50.000  
J07  37152774.750   195239124.695           0.086          39.200    37152767.793   195239202.858           0.086          46.000    37152781.563   152134449.352           0.066          48.000    37152781.129   145795501.786           0.066          40.800  
J02  37092152.883   194920538.117         172.684          43.800    37092147.996   194920636.144         172.684          43.900    37092161.309   151886211.909         134.559          46.900    37092161.348   145557594.579         128.953          38.700  
J04  38163359.711   200549784.009         607.547          48.400    38163355.238   200549788.551         607.547          50.900    38163366.234   156272612.087         473.414          52.400    38163365.266   149761219.331         453.688          44.300  
C41  22177478.414   115484029.060        -839.074          49.600                                                                    22177478.098    93840252.314        -681.816          49.800  
R15  20541000.266                        3311.418          50.600    20540998.297                        3311.418          48.800    20541006.410                        2575.547          46.800    20541006.223                        2575.547          47.600  
G24  19824803.180   104180031.336        -263.750          52.200    19824812.785    81179344.822        -205.520          55.600    19824813.004    81179343.825        -205.520          52.900    19824810.066    77796839.693        -196.957          46.400  
G05  23712193.656   124608422.923       -3396.375          39.400    23712202.344    97097509.852       -2646.523          25.900    23712203.313    97097513.846       -2646.523          38.700                                                                  
G15  21053474.227   110636782.495       -1507.516          49.000    21053480.883    86210599.893       -1174.688          43.200    21053481.211    86210606.891       -1174.688          47.600                                                                  
C39  36617820.805   190678751.213         -26.566          48.200                                                                    36617811.414   154942004.548         -21.586          49.100  
R05  21433680.141   114575438.958        2583.359          39.000    21433678.219   114575234.978        2583.359          36.200    21433686.863    89114148.992        2009.281          38.700    21433686.488    89114148.988        2009.281          38.900  
G12  23313268.711   122511916.455        3331.477          38.800    23313277.180    95463985.127        2595.957          22.800    23313277.129    95463980.132        2595.957          37.600                                                                  
C33  25926290.680   135005043.688       -2522.648          35.000                                                                    25926295.188   109702619.256       -2049.859          35.900  
E25  24971770.313   131227587.789        1971.879          48.200    24971775.770   100551041.071        1510.922          49.800    24971776.500    97994653.337        1472.508          39.000    24971765.910   106515890.362        1600.551          49.000    24971776.980    99272856.009        1491.715          51.200  
C23  22176727.258   115480199.815        1201.809          51.800                                                                    22176709.613    93836990.877         976.566          50.800  
C32  22805804.773   118755829.556        1744.121          49.800                                                                    22805796.191    96498781.417        1417.242          49.400  
E24  25937540.508   136302753.084        -719.258          46.200    25937543.160   104439810.121        -551.121          44.800    25937544.023   101784516.879        -537.109          34.200    25937536.664   110635354.270        -583.813          43.500    25937545.258   103112184.807        -544.113          46.200  
E15  25566930.922   134355117.459       -1533.023          43.800    25566936.633   102947445.521       -1174.656          47.300    25566936.758   100330105.616       -1144.789          36.800    25566927.773   109054454.134       -1244.336          45.300    25566938.469   101638780.869       -1159.723          48.200  
C25  23149049.086   120543252.598       -1775.105          47.600                                                                    23149038.828    97951223.906       -1442.418          47.600  
E03  24127880.047   126792920.464         708.367          50.800    24127884.160    97153065.157         542.773          54.000    24127884.309    94683036.283         528.977          43.400    24127875.211   102916349.488         574.973          51.300    24127885.586    95918092.021         535.875          55.300  
E05  24771583.703   130175581.311       -1072.941          48.200    24771588.363    99744979.185        -822.125          50.100    24771588.035    97209070.771        -801.223          39.600    24771578.832   105661986.158        -870.895          48.300    24771589.891    98477049.781        -811.672          51.300  
> 2022 08 25 08 37 42.0000000  0 30                     
G23  20926258.297   109968326.381        1878.426          46.000    20926265.398    85689571.737        1463.711          40.200    20926265.281    85689564.733        1463.711          50.000    20926267.090    82119153.321        1402.723          41.800  
G18  22414546.875   117789359.328       -2407.512          41.600    22414555.527    91783832.066       -1875.984          29.300    22414555.129    91783839.069       -1875.984          44.100    22414555.398    87959509.491       -1797.816          35.400  
R04  19898203.234   106554027.458         204.805          51.400    19898201.680   106554084.469         204.805          49.300    19898207.672    82875348.357         159.293          50.100    19898207.781    82875364.350         159.293          51.300  
C13  36285696.250   188949202.838        -553.371          48.400    36285699.309   146107494.109        -427.902          48.200    36285690.504   153536649.236        -449.660          45.500  
C06  37024321.648   192795430.765         119.266          42.800    37024318.086   149081635.238          92.223          46.300    37024310.117   156662019.526          96.914          42.000  
R03  22168902.750   118672102.459       -2231.973          45.800    22168902.402   118672110.466       -2231.973          44.500    22168909.809    92300446.407       -1735.980          42.000    22168910.004    92300406.406       -1735.980          42.500  
C16  36982665.789   192578475.021           4.680          45.400    36982667.449   148913943.654           3.617          46.200    36982658.039   156485787.858           3.805          43.400  
C38  36559028.188   190372448.597       -1210.539          48.800                                                                    36559019.855   154693178.282        -983.664          47.200  
C09  38659835.445   201311962.905         142.582          39.200    38659833.594   155667165.659         110.254          42.500    38659824.586   163582407.862         115.859          39.500  
R14  19655558.352   104775335.163        -658.574          53.000    19655556.219   104775378.163        -658.574          51.300    19655564.313    81491865.322        -512.227          49.600    19655564.219    81491851.324        -512.227          49.800  
J07  37152774.742   195239124.639          -0.039          39.800    37152767.719   195239202.805          -0.039          46.200    37152781.332   152134449.309          -0.031          48.400    37152781.168   145795501.742          -0.031          40.800  
J02  37092120.023   194920365.425         172.641          43.600    37092115.137   194920463.453         172.641          43.800    37092128.668   151886077.344         134.523          46.900    37092128.469   145557465.620         128.918          38.900  
J04  38163244.086   200549176.408         607.582          48.600    38163239.977   200549180.950         607.582          50.500    38163250.449   156272138.632         473.441          52.000    38163249.684   149760765.602         453.715          44.100  
C41  22177639.578   115484868.257        -839.379          49.600                                                                    22177639.219    93840934.230        -682.063          50.100  
R15  20540380.625                        3310.855          50.200    20540378.707                        3310.855          48.700    20540386.746                        2575.109          46.500    20540386.547                        2575.109          47.200  
G24  19824853.422   104180295.337        -264.285          51.800    19824863.047    81179550.539        -205.934          55.800    19824863.297    81179549.538        -205.934          53.200    19824860.297    77797036.835        -197.355          46.700  
G05  23712839.984   124611819.326       -3396.609          39.200    23712848.773    97100156.394       -2646.707          26.800    23712849.750    97100160.390       -2646.707          38.300                                                                  
G15  21053761.117   110638290.086       -1507.746          48.800    21053767.840    86211774.636       -1174.867          43.600    21053768.324    86211781.635       -1174.867          47.300                                                                  
C39  36617825.906   190678777.747         -26.547          47.800                                                                    36617816.555   154942026.109         -21.570          49.100  
R05  21433196.891   114572855.660        2583.207          38.600    21433194.699   114572651.688        2583.207          36.200    21433203.516    89112139.760        2009.160          38.800    21433203.160    89112139.753        2009.160          38.600  
G12  23312634.773   122508585.101        3331.359          38.800    23312643.313    95461389.272        2595.867          24.800    23312642.930    95461384.275        2595.867          37.700                                                                  
C33  25926775.133   135007566.364       -2522.836          35.400                                                                    25926779.602   109704669.131       -2050.012          36.000  
E25  24971395.109   131225616.075        1971.527          48.000    24971400.609   100549530.275        1510.652          50.100    24971401.234    97993180.953        1472.246          38.800    24971390.566   106514289.944        1600.266          48.800    24971401.750    99271364.419        1491.449          51.100  
C23  22176496.508   115478998.241        1201.301          52.000                                                                    22176478.879    93836014.500         976.156          50.900  
C32  22805469.844   118754085.499        1743.938          49.600                                                                    22805461.227    96497364.227        1417.094          49.300  
E24  25937677.414   136303472.504        -719.641          46.800    25937680.109   104440361.366        -551.414          44.300    25937681.000   101785054.111        -537.395          34.300    25937673.375   110635938.214        -584.125          43.300    25937682.184   103112729.045        -544.402          45.900  
E15  25567222.695   134356650.700       -1533.492          43.800    25567228.500   102948620.344       -1175.012          46.900    25567228.531   100331250.563       -1145.141          37.000    25567219.582   109055698.649       -1244.719          44.900    25567230.238   101639940.756       -1160.078          48.300  
C25  23149390.016   120545027.890       -1775.480          47.400                                                                    23149379.805    97952666.474       -1442.723          47.400  
E03  24127745.242   126792212.079         708.289          50.800    24127749.383    97152522.373         542.715          53.800    24127749.457    94682507.297         528.918          43.100    24127740.207   102915774.501         574.910          51.000    24127750.832    95917556.136         535.816          54.800  
E05  24771787.891   130176654.287       -1073.066          48.200    24771792.578    99745801.335        -822.219          50.400    24771792.348    97209872.017        -801.316          39.600    24771782.961   105662857.080        -870.996          48.400    24771794.090    98477861.479        -811.770          51.500  
> 2022 08 25 08 37 43.0000000  0 30                     
G23  20925900.883   109966448.192        1877.801          46.400    20925908.039    85688108.212        1463.219          40.500    20925907.563    85688101.210        1463.219          50.000    20925909.695    82117750.779        1402.254          42.100  
G18  22415005.039   117791767.009       -2407.855          41.800    22415013.559    91785708.181       -1876.250          29.700    22415013.371    91785715.181       -1876.250          43.900    22415013.508    87961307.434       -1798.074          35.400  
R04  19898165.023   106553822.824         204.340          51.000    19898163.285   106553879.837         204.340          49.100    19898169.477    82875189.197         158.930          50.300    19898169.691    82875205.193         158.930          51.000  
C13  36285802.539   188949756.290        -553.625          48.000    36285805.641   146107922.073        -428.098          48.000    36285796.820   153537098.961        -449.867          45.600  
C06  37024298.758   192795311.570         119.090          43.200    37024294.957   149081543.071          92.086          46.100    37024287.305   156661922.670          96.770          42.100  
R03  22169319.719   118674334.534       -2232.316          45.400    22169319.238   118674342.543       -2232.316          44.200    22169326.930    92302182.461       -1736.246          42.000    22169327.070    92302142.462       -1736.246          43.000  
C16  36982664.883   192578470.297           4.625          45.600    36982666.477   148913940.001           3.578          46.100    36982657.105   156485784.018           3.758          43.700  
C38  36559260.680   190373659.227       -1210.793          48.800                                                                    36559252.320   154694162.016        -983.871          47.100  
C09  38659808.078   201311820.407         142.352          39.000    38659806.449   155667055.475         110.074          42.700    38659797.258   163582292.070         115.672          39.600  
R14  19655681.977   104775994.153        -659.559          52.800    19655679.953   104776037.154        -659.559          51.200    19655687.902    81492377.871        -512.988          50.000    19655687.566    81492363.874        -512.988          50.000  
J07  37152774.734   195239124.608                          39.600    37152767.852   195239202.770                          46.200    37152781.348   152134449.282                          48.000    37152781.125   145795501.716                          41.400  
J02  37092087.180   194920192.829         172.434          43.600    37092082.363   194920290.855         172.434          44.100    37092095.816   151885942.851         134.363          46.800    37092095.563   145557336.733         128.766          39.600  
J04  38163128.461   200548568.815         607.492          48.400    38163124.027   200548573.358         607.492          50.500    38163134.977   156271665.182         473.371          52.000    38163134.059   149760311.879         453.645          43.900  
C41  22177800.805   115485707.807        -839.805          49.400                                                                    22177800.414    93841616.432        -682.410          49.900  
R15  20539761.094                        3310.148          50.200    20539759.020                        3310.148          48.500    20539767.277                        2574.559          46.300    20539767.180                        2574.559          47.000  
G24  19824903.773   104180559.928        -264.961          51.800    19824913.453    81179756.714        -206.461          56.200    19824913.617    81179755.716        -206.461          53.200    19824910.684    77797234.419        -197.859          46.900  
G05  23713486.344   124615215.956       -3396.746          38.800    23713495.004    97102803.116       -2646.816          25.900    23713495.602    97102807.102       -2646.816          38.300                                                                  
G15  21054048.047   110639797.955       -1508.047          48.600    21054054.695    86212949.597       -1175.102          43.600    21054055.195    86212956.597       -1175.102          47.500                                                                  
C39  36617831.008   190678804.305         -26.711          48.000                                                                    36617821.680   154942047.688         -21.707          49.200  
R05  21432713.648   114570272.467        2583.012          38.400    21432711.301   114570068.490        2583.012          36.300    21432720.332    89110130.606        2009.012          38.500    21432720.195    89110130.603        2009.012          38.300  
G12  23312000.859   122505253.915        3331.012          39.200    23312009.328    95458793.548        2595.594          22.300    23312009.023    95458788.552        2595.594          37.700                                                                  
C33  25927259.625   135010089.236       -2522.980          35.000                                                                    25927264.090   109706719.173       -2050.129          35.800  
E25  24971019.977   131223644.728        1971.043          48.000    24971025.402   100548019.762        1510.277          50.200    24971026.031    97991708.840        1471.883          39.100    24971015.527   106512689.822        1599.871          48.600    24971026.602    99269873.108        1491.078          51.400  
C23  22176265.852   115477797.200        1200.699          51.600                                                                    22176248.246    93835038.556         975.668          50.900  
C32  22805134.953   118752341.647        1743.684          49.200                                                                    22805126.297    96495947.204        1416.887          49.300  
E24  25937814.406   136304192.412        -720.227          46.600    25937817.078   104440912.984        -551.863          44.200    25937818.020   101785591.704        -537.832          34.500    25937810.367   110636522.554        -584.602          43.600    25937819.156   103113273.649        -544.848          45.600  
E15  25567514.531   134358184.346       -1533.918          44.400    25567520.250   102949795.471       -1175.340          47.300    25567520.422   100332395.815       -1145.461          36.700    25567511.285   109056943.488       -1245.066          44.700    25567522.063   101641100.946       -1160.398          48.500  
C25  23149731.031   120546803.620       -1776.063          46.400                                                                    23149720.777    97954109.397       -1443.195          47.200  
E03  24127610.469   126791503.809         708.141          50.400    24127614.570    97151979.672         542.602          53.600    24127614.750    94681978.395         528.809          43.000    24127605.645   102915199.603         574.789          50.700    24127616.027    95917020.333         535.703          54.600  
E05  24771992.086   130177727.376       -1073.246          48.000    24771996.801    99746623.571        -822.355          50.600    24771996.504    97210673.350        -801.449          39.400    24771987.223   105663728.092        -871.141          48.100    24771998.277    98478673.262        -811.902          51.400  
> 2022 08 25 08 37 44.0000000  0 30                     
G23  20925543.555   109964570.423        1877.480          46.600    20925550.746    85686645.014        1462.973          40.900    20925550.355    85686638.010        1462.973          49.700    20925552.383    82116348.545        1402.016          41.900  
G18  22415463.273   117794175.038       -2408.289          41.200    22415471.773    91787584.564       -1876.590          29.500    22415471.438    91787591.566       -1876.590          44.100    22415471.656    87963105.633       -1798.398          36.100  
R04  19898126.859   106553618.483         204.191          50.800    19898125.355   106553675.499         204.191          49.000    19898131.406    82875030.263         158.816          50.100    19898131.352    82875046.257         158.816          51.200  
C13  36285908.852   188950309.900        -553.742          48.200    36285911.820   146108350.155        -428.191          48.000    36285903.145   153537548.812        -449.961          45.900  
C06  37024275.859   192795192.352         119.152          43.400    37024272.105   149081450.883          92.137          46.400    37024264.406   156661825.797          96.820          42.200  
R03  22169736.734   118676566.877       -2232.500          45.200    22169736.465   118676574.891       -2232.500          44.400    22169743.988    92303918.726       -1736.391          42.000    22169744.348    92303878.729       -1736.391          42.400  
C16  36982663.969   192578465.553           4.742          45.600    36982665.563   148913936.332           3.668          46.000    36982656.219   156485780.160           3.855          43.800  
C38  36559493.188   190374869.977       -1210.879          49.200                                                                    36559484.898   154695145.850        -983.938          47.300  
C09  38659780.719   201311677.909         142.336          39.200    38659779.223   155666945.283         110.063          42.700    38659769.898   163582176.276         115.660          39.800  
R14  19655805.750   104776654.001        -660.332          52.800    19655803.504   104776697.003        -660.332          51.300    19655811.734    81492891.089        -513.594          50.000    19655811.246    81492877.089        -513.594          50.000  
J07  37152774.727   195239124.538                          39.200    37152767.734   195239202.698                          46.200    37152781.441   152134449.225                          47.900    37152781.078   145795501.666                          40.700  
J02  37092054.336   194920020.266         172.555          43.800    37092049.391   194920118.291         172.555          44.300    37092062.930   151885808.388         134.457          47.100    37092062.754   145557207.875         128.855          39.200  
J04  38163012.828   200547961.160         607.625          48.200    38163008.508   200547965.699         607.625          50.700    38163019.520   156271191.684         473.473          51.900    38163018.438   149759858.111         453.746          43.800  
C41  22177962.078   115486547.638        -840.031          49.800                                                                    22177961.730    93842298.864        -682.594          50.700  
R15  20539141.656                        3309.781          49.800    20539139.664                        3309.781          48.800    20539147.848                        2574.273          46.800    20539147.512                        2574.273          46.800  
G24  19824954.219   104180825.045        -265.410          51.200    19824963.934    81179963.299        -206.813          56.300    19824963.961    81179962.299        -206.813          52.900    19824961.152    77797432.396        -198.195          46.500  
G05  23714132.727   124618612.759       -3396.887          39.200    23714141.254    97105449.975       -2646.926          26.200    23714142.012    97105453.960       -2646.926          38.200                                                                  
G15  21054335.023   110641306.031       -1508.211          48.400    21054341.547    86214124.721       -1175.230          43.500    21054341.965    86214131.721       -1175.230          47.500                                                                  
C39  36617836.094   190678830.834         -26.543          48.000                                                                    36617826.762   154942069.245         -21.566          49.100  
R05  21432230.406   114567689.295        2583.117          37.800    21432228.348   114567485.319        2583.117          36.500    21432237.000    89108121.480        2009.090          38.900    21432236.902    89108121.475        2009.090          38.900  
G12  23311366.969   122501922.834        3331.023          39.800    23311375.473    95456197.894        2595.602          23.000    23311374.906    95456192.905        2595.602          36.900                                                                  
C33  25927744.141   135012612.230       -2522.879          35.000                                                                    25927748.648   109708769.306       -2050.047          35.800  
E25  24970644.898   131221673.675        1970.887          48.200    24970650.367   100546509.474        1510.160          49.900    24970650.977    97990236.952        1471.766          39.200    24970640.508   106511089.940        1599.746          48.100    24970651.527    99268382.019        1490.961          51.300  
C23  22176035.289   115476596.615        1200.328          51.800                                                                    22176017.641    93834062.983         975.363          50.700  
C32  22804800.094   118750597.935        1743.602          49.200                                                                    22804791.426    96494530.295        1416.816          49.300  
E24  25937951.477   136304912.743        -720.590          46.400    25937954.121   104441464.924        -552.141          44.500    25937954.973   101786129.613        -538.102          34.600    25937947.605   110637107.240        -584.895          43.600    25937956.230   103113818.574        -545.121          45.700  
E15  25567806.438   134359718.326       -1534.188          44.200    25567812.203   102950970.857       -1175.547          47.300    25567812.375   100333541.322       -1145.660          36.500    25567803.035   109058188.602       -1245.281          44.900    25567813.980   101642261.390       -1160.602          48.300  
C25  23150072.109   120548579.724       -1776.367          46.800                                                                    23150061.773    97955552.630       -1443.441          47.300  
E03  24127475.688   126790795.567         708.199          50.600    24127479.805    97151436.995         542.648          53.800    24127479.988    94681449.514         528.852          43.100    24127470.977   102914624.732         574.836          50.500    24127481.250    95916484.554         535.750          54.700  
E05  24772196.297   130178800.515       -1073.156          48.200    24772201.035    99747445.849        -822.289          50.500    24772200.770    97211474.721        -801.383          39.600    24772191.453   105664599.147        -871.070          48.000    24772202.520    98479485.087        -811.836          51.300  
> 2022 08 25 08 37 45.0000000  0 30                     
G23  20925186.305   109962693.050        1877.078          46.400    20925193.570    85685182.127        1462.660          40.400    20925193.090    85685175.124        1462.660          50.000    20925195.070    82114946.612        1401.715          42.100  
G18  22415921.570   117796583.396       -2408.703          41.400    22415929.898    91789461.202       -1876.910          29.700    22415929.813    91789468.206       -1876.910          43.900    22415930.090    87964904.079       -1798.707          36.000  
R04  19898088.750   106553414.425         203.785          50.800    19898087.148   106553471.439         203.785          49.400    19898093.234    82874871.553         158.500          50.100    19898093.500    82874887.547         158.500          51.000  
C13  36286015.195   188950863.669        -553.918          48.200    36286018.191   146108778.368        -428.324          47.900    36286009.523   153537998.798        -450.105          46.000  
C06  37024252.961   192795073.109         119.184          42.800    37024249.129   149081358.677          92.160          46.300    37024241.551   156661728.900          96.844          42.300  
R03  22170153.797   118678799.456       -2232.766          45.200    22170153.406   118678807.466       -2232.766          44.200    22170160.918    92305655.177       -1736.598          42.100    22170161.137    92305615.181       -1736.598          42.600  
C16  36982663.047   192578460.762           4.742          45.800    36982664.680   148913932.628           3.668          45.700    36982655.332   156485776.264           3.855          43.300  
C38  36559725.719   190376080.828       -1210.969          49.200                                                                    36559717.344   154696129.765        -984.012          47.500  
C09  38659753.344   201311535.387         142.375          39.200    38659751.988   155666835.083         110.094          42.300    38659742.461   163582060.466         115.691          39.600  
R14  19655929.695   104777314.691        -661.215          52.600    19655927.461   104777357.692        -661.215          51.000    19655935.609    81493404.958        -514.277          49.800    19655935.570    81493390.961        -514.277          49.800  
J07  37152774.695   195239124.407           0.090          39.800    37152767.719   195239202.569           0.090          46.300    37152781.434   152134449.126           0.070          47.900    37152781.035   145795501.572           0.066          40.900  
J02  37092021.500   194919847.704         172.492          43.800    37092016.594   194919945.730         172.492          44.300    37092030.148   151885673.923         134.410          47.400    37092029.801   145557079.016         128.809          39.200  
J04  38162897.180   200547353.420         607.656          48.600    38162892.746   200547357.965         607.656          50.300    38162903.770   156270718.122         473.496          52.000    38162902.766   149759404.280         453.770          43.900  
C41  22178123.414   115487387.718        -840.289          49.800                                                                    22178123.063    93842981.494        -682.805          50.700  
R15  20538522.328                        3309.199          49.800    20538520.336                        3309.199          48.900    20538528.484                        2573.820          46.800    20538528.309                        2573.820          46.600  
G24  19825004.766   104181090.658        -265.938          51.600    19825014.426    81180170.269        -207.227          56.400    19825014.563    81180169.271        -207.227          52.800    19825011.668    77797630.745        -198.590          46.600  
G05  23714779.156   124622009.708       -3397.117          39.200    23714787.707    97108096.933       -2647.102          25.700    23714788.652    97108100.935       -2647.102          38.300                                                                  
G15  21054622.039   110642814.293       -1508.465          48.200    21054628.664    86215299.988       -1175.426          42.700    21054629.055    86215306.987       -1175.426          47.600                                                                  
C39  36617841.180   190678857.297         -26.527          48.000                                                                    36617831.867   154942090.748         -21.555          49.100  
R05  21431747.172   114565106.108        2583.090          37.800    21431745.188   114564902.133        2583.090          36.800    21431753.875    89106112.330        2009.070          38.300    21431753.879    89106112.328        2009.070          38.400  
G12  23310733.102   122498591.831        3330.910          39.800    23310741.590    95453602.297        2595.516          24.500    23310741.004    95453597.318        2595.516          37.300                                                                  
C33  25928228.680   135015135.341       -2523.309          35.000                                                                    25928233.227   109710819.532       -2050.395          35.900  
E25  24970269.875   131219702.902        1970.520          48.200    24970275.309   100544999.402        1509.879          50.100    24970275.996    97988765.271        1471.492          38.500    24970265.402   106509490.289        1599.449          48.200    24970276.500    99266891.143        1490.688          51.400  
C23  22175804.820   115475396.467        1199.809          51.600                                                                    22175787.113    93833087.764         974.941          50.800  
C32  22804465.258   118748854.356        1743.426          49.200                                                                    22804456.668    96493113.492        1416.676          49.600  
E24  25938088.633   136305633.472        -721.074          46.600    25938091.293   104442017.171        -552.512          44.500    25938092.063   101786667.816        -538.465          34.300    25938084.648   110637692.244        -585.289          43.800    25938093.410   103114363.802        -545.488          45.600  
E15  25568098.406   134361252.616       -1534.598          44.600    25568104.246   102952146.483       -1175.859          47.300    25568104.363   100334687.059       -1145.965          36.600    25568095.145   109059433.967       -1245.613          44.600    25568105.961   101643422.073       -1160.910          48.600  
C25  23150413.258   120550356.184       -1776.754          46.800                                                                    23150403.016    97956996.147       -1443.758          47.400  
E03  24127340.914   126790087.346         708.117          50.400    24127345.031    97150894.330         542.586          53.900    24127345.227    94680920.646         528.789          42.600    24127335.980   102914049.878         574.773          50.800    24127346.469    95915948.789         535.688          54.900  
E05  24772400.516   130179873.682       -1073.273          48.400    24772405.301    99748268.142        -822.379          50.100    24772404.922    97212276.110        -801.469          39.000    24772395.637   105665470.221        -871.164          48.000    24772406.711    98480296.928        -811.926          51.000  
> 2022 08 25 08 37 46.0000000  0 30                     
G23  20924829.117   109960816.010        1876.586          46.400    20924836.305    85683719.500        1462.277          40.200    20924835.859    85683712.496        1462.277          49.900    20924837.879    82113544.927        1401.348          42.200  
G18  22416379.922   117798992.011       -2408.992          41.200    22416388.203    91791338.044       -1877.137          29.700    22416387.949    91791345.045       -1877.137          43.900    22416388.438    87966702.718       -1798.926          36.500  
R04  19898050.695   106553210.592         203.492          51.000    19898049.109   106553267.605         203.492          49.400    19898055.277    82874713.016         158.270          49.900    19898055.477    82874729.010         158.270          51.200  
C13  36286121.555   188951417.491        -554.102          48.400    36286124.512   146109206.615        -428.469          48.100    36286115.879   153538448.822        -450.254          46.200  
C06  37024230.039   192794953.762         119.238          43.000    37024226.328   149081266.390          92.203          46.600    37024218.633   156661631.921          96.891          42.300  
R03  22170570.898   118681032.197       -2233.016          45.600    22170570.430   118681040.204       -2233.016          44.300    22170578.055    92307391.751       -1736.789          41.900    22170578.727    92307351.754       -1736.789          42.800  
C16  36982662.109   192578455.862           4.746          45.600    36982663.660   148913928.838           3.668          46.000    36982654.336   156485772.286           3.855          43.100  
C38  36559958.258   190377291.713       -1211.148          49.400                                                                    36559949.969   154697113.706        -984.156          47.500  
C09  38659725.953   201311392.780         142.441          39.200    38659724.496   155666724.812         110.145          42.300    38659715.145   163581944.591         115.742          39.700  
R14  19656053.781   104777976.144        -662.059          52.400    19656051.582   104778019.147        -662.059          50.800    19656059.652    81493919.426        -514.938          49.700    19656059.738    81493905.429        -514.938          50.100  
J07  37152774.648   195239124.146           0.113          39.800    37152767.613   195239202.307           0.113          46.200    37152781.453   152134448.922           0.086          48.100    37152780.957   145795501.371           0.086          40.600  
J02  37091988.656   194919675.091         172.379          44.000    37091983.785   194919773.117         172.379          44.200    37091997.348   151885539.423         134.320          47.500    37091997.000   145556950.114         128.723          39.400  
J04  38162781.508   200546745.527         607.707          48.600    38162777.133   200546750.070         607.707          50.000    38162788.105   156270244.438         473.535          51.900    38162787.082   149758950.332         453.805          43.800  
C41  22178284.781   115488227.992        -840.574          49.600                                                                    22178284.445    93843664.284        -683.035          50.800  
R15  20537903.078                        3308.637          50.000    20537900.965                        3308.637          48.800    20537909.289                        2573.383          46.900    20537909.352                        2573.383          46.600  
G24  19825055.391   104181356.711        -266.488          51.600    19825065.074    81180377.586        -207.652          56.500    19825065.230    81180376.586        -207.652          52.800    19825062.266    77797829.423        -199.000          46.600  
G05  23715425.594   124625406.739       -3397.230          39.400    23715434.105    97110743.971       -2647.191          26.800    23715435.234    97110747.961       -2647.191          38.400                                                                  
G15  21054909.078   110644322.670       -1508.691          48.200    21054915.805    86216475.349       -1175.605          42.800    21054916.137    86216482.346       -1175.605          47.200                                                                  
C39  36617846.242   190678883.639         -26.473          48.200                                                                    36617836.871   154942112.150         -21.512          49.200  
R05  21431263.930   114562522.852        2583.074          37.600    21431261.453   114562318.866        2583.074          36.400    21431270.621    89104103.125        2009.059          38.300    21431270.578    89104103.127        2009.059          38.700  
G12  23310099.227   122495260.856        3330.719          40.000    23310107.746    95451006.754        2595.363          24.100    23310107.129    95451001.760        2595.363          37.700                                                                  
C33  25928713.227   135017658.485       -2523.418          34.800                                                                    25928717.805   109712869.794       -2050.484          36.000  
E25  24969894.883   131217732.344        1970.234          48.800    24969900.352   100543489.494        1509.660          50.000    24969901.078    97987293.753        1471.277          39.000    24969890.516   106507890.808        1599.215          48.300    24969901.500    99265400.429        1490.469          51.300  
C23  22175574.414   115474196.683        1199.340          51.800                                                                    22175556.770    93832112.840         974.563          50.500  
C32  22804130.430   118747110.826        1743.289          49.400                                                                    22804121.863    96491696.733        1416.566          49.900  
E24  25938225.844   136306354.532        -721.387          47.000    25938228.469   104442569.670        -552.750          44.400    25938229.277   101787206.274        -538.699          34.200    25938221.969   110638277.519        -585.539          43.500    25938230.609   103114909.276        -545.723          45.900  
E15  25568390.414   134362787.161       -1534.871          44.400    25568396.250   102953322.305       -1176.070          47.500    25568396.477   100335832.987       -1146.172          36.900    25568387.082   109060679.542       -1245.840          44.600    25568397.988   101644582.947       -1161.121          48.200  
C25  23150754.469   120552132.934       -1777.148          46.800                                                                    23150744.219    97958439.902       -1444.078          47.500  
E03  24127206.133   126789379.064         708.082          50.200    24127210.293    97150351.624         542.555          53.800    24127210.535    94680391.735         528.762          42.400    24127201.246   102913474.976         574.742          50.800    24127211.707    95915412.981         535.660          54.900  
E05  24772604.727   130180946.803       -1073.320          48.600    24772609.410    99749090.404        -822.414          50.200    24772609.191    97213077.466        -801.504          39.500    24772599.777   105666341.262        -871.203          48.200    24772610.914    98481108.737        -811.961          51.100  
> 2022 08 25 08 37 47.0000000  0 30                     
G23  20924472.023   109958939.491        1876.199          46.400    20924479.215    85682257.279        1461.973          40.600    20924479.047    85682250.274        1461.973          50.100    20924480.816    82112143.631        1401.059          41.800  
G18  22416838.352   117801401.076       -2409.398          41.600    22416846.781    91793215.240       -1877.453          30.400    22416846.461    91793222.241       -1877.453          44.100    22416846.781    87968501.693       -1799.227          36.100  
R04  19898012.703   106553007.171         203.184          50.600    19898011.191   106553064.185         203.184          49.500    19898017.195    82874554.798         158.031          50.100    19898017.227    82874570.794         158.031          51.500  
C13  36286227.969   188951971.598        -554.266          48.400    36286230.969   146109635.084        -428.594          48.000    36286222.309   153538899.078        -450.387          46.000  
C06  37024207.141   192794834.514         119.125          43.400    37024203.488   149081174.184          92.113          46.800    37024195.699   156661535.025          96.797          42.100  
R03  22170988.063   118683265.313       -2233.383          45.800    22170988.000   118683273.323       -2233.383          44.400    22170995.273    92309128.618       -1737.074          41.900    22170995.816    92309088.621       -1737.074          42.900  
C16  36982661.180   192578451.046           4.707          45.800    36982662.797   148913925.115           3.637          46.000    36982653.449   156485768.378           3.824          43.400  
C38  36560190.836   190378502.824       -1211.328          48.600                                                                    36560182.477   154698097.834        -984.305          47.800  
C09  38659698.594   201311250.295         142.387          39.200    38659697.148   155666614.635         110.102          42.500    38659687.723   163581828.816         115.699          39.800  
R14  19656178.047   104778638.533        -662.914          53.000    19656176.070   104778681.536        -662.914          51.100    19656183.988    81494434.618        -515.602          49.600    19656183.828    81494420.621        -515.602          50.000  
J07  37152774.609   195239123.952           0.180          40.200    37152767.934   195239202.120           0.180          46.100    37152781.313   152134448.776           0.137          48.200    37152780.949   145795501.232           0.133          40.700  
J02  37091955.828   194919502.614         172.348          43.800    37091951.121   194919600.642         172.348          44.400    37091964.457   151885405.027         134.297          47.000    37091964.215   145556821.320         128.699          39.600  
J04  38162665.836   200546137.678         607.836          48.000    38162661.656   200546142.223         607.836          50.100    38162672.313   156269770.791         473.637          51.900    38162671.402   149758496.422         453.902          43.700  
C41  22178446.219   115489068.641        -840.879          49.000                                                                    22178445.852    93844347.382        -683.285          50.700  
R15  20537283.945                        3308.035          50.200    20537281.949                        3308.035          48.300    20537290.109                        2572.918          46.600    20537290.020                        2572.918          46.600  
G24  19825106.133   104181623.385        -267.047          52.000    19825115.891    81180585.383        -208.090          56.400    19825116.004    81180584.385        -208.090          53.200    19825113.031    77798028.561        -199.418          46.800  
G05  23716072.078   124628804.030       -3397.590          39.400    23716080.570    97113391.210       -2647.473          26.600    23716081.543    97113395.196       -2647.473          38.400                                                                  
G15  21055196.172   110645831.359       -1508.895          48.600    21055202.813    86217650.948       -1175.762          42.500    21055203.152    86217657.946       -1175.762          47.200                                                                  
C39  36617851.313   190678910.044         -26.535          47.600                                                                    36617841.969   154942133.610         -21.563          48.900  
R05  21430780.703   114559939.719        2582.992          37.800    21430778.578   114559735.732        2582.992          36.300    21430787.406    89102094.021        2008.992          38.400    21430787.359    89102094.026        2008.992          37.900  
G12  23309465.406   122491930.083        3330.563          39.800    23309473.898    95448411.343        2595.246          23.000    23309473.633    95448406.357        2595.246          37.600                                                                  
C33  25929197.813   135020181.873       -2523.625          34.800                                                                    25929202.375   109714920.251       -2050.652          36.100  
E25  24969519.977   131215762.179        1969.926          48.800    24969525.434   100541979.888        1509.422          49.800    24969526.234    97985822.528        1471.047          38.600    24969515.547   106506291.649        1598.965          48.600    24969526.621    99263910.015        1490.234          51.300  
C23  22175344.117   115472997.462        1198.855          51.200                                                                    22175326.461    93831138.377         974.168          50.500  
C32  22803795.648   118745367.540        1743.113          49.400                                                                    22803787.039    96490280.170        1416.422          49.800  
E24  25938363.156   136307076.104        -721.824          46.600    25938365.855   104443122.568        -553.086          44.600    25938366.516   101787745.107        -539.023          34.900    25938359.023   110638863.214        -585.895          43.900    25938367.945   103115455.144        -546.055          45.900  
E15  25568682.516   134364322.139       -1535.270          44.600    25568688.262   102954498.456       -1176.375          47.600    25568688.516   100336979.237       -1146.469          37.000    25568679.145   109061925.465       -1246.160          44.700    25568690.090   101645744.147       -1161.422          48.400  
C25  23151095.766   120553910.155       -1777.520          46.800                                                                    23151085.516    97959884.039       -1444.383          47.300  
E03  24127071.383   126788670.934         707.992          50.600    24127075.527    97149809.037         542.484          54.000    24127075.906    94679862.943         528.695          42.800    24127066.566   102912900.201         574.668          50.900    24127077.004    95914877.290         535.590          55.100  
E05  24772808.961   130182020.079       -1073.375          49.000    24772813.672    99749912.784        -822.457          49.900    24772813.512    97213878.939        -801.547          39.700    24772804.055   105667212.427        -871.246          48.800    24772815.176    98481920.664        -812.004          51.000  
> 2022 08 25 08 37 48.0000000  0 30                     
G23  20924115.016   109957063.382        1875.625          46.400    20924122.164    85680795.375        1461.523          40.600    20924121.883    85680788.370        1461.523          49.800    20924123.668    82110742.638        1400.629          42.000  
G18  22417296.852   117803810.488       -2409.805          41.000    22417305.184    91795092.700       -1877.770          29.700    22417305.070    91795099.699       -1877.770          44.100    22417305.180    87970300.923       -1799.531          36.200  
R04  19897974.773   106552804.037         202.691          50.800    19897973.090   106552861.051         202.691          49.600    19897979.195    82874396.804         157.648          50.100    19897979.508    82874412.800         157.648          51.200  
C13  36286334.398   188952525.830        -554.582          49.000    36286337.477   146110063.651        -428.836          47.900    36286328.746   153539349.436        -450.641          45.600  
C06  37024184.234   192794715.248         118.934          42.400    37024180.535   149081081.957          91.969          47.100    37024172.836   156661438.111          96.645          42.600  
R03  22171405.281   118685498.696       -2233.848          45.600    22171405.133   118685506.706       -2233.848          44.500    22171412.422    92310865.687       -1737.438          41.900    22171412.953    92310825.688       -1737.438          42.700  
C16  36982660.250   192578446.199           4.598          45.600    36982661.895   148913921.368           3.555          46.000    36982652.465   156485764.440           3.738          43.200  
C38  36560423.445   190379714.050       -1211.563          48.800                                                                    36560415.133   154699082.054        -984.496          47.300  
C09  38659671.227   201311107.792         142.230          38.800    38659669.766   155666504.438         109.980          42.000    38659660.387   163581713.016         115.574          39.400  
R14  19656302.469   104779301.752        -663.941          53.000    19656300.191   104779344.755        -663.941          50.900    19656308.441    81494950.453        -516.398          49.700    19656307.969    81494936.456        -516.398          50.000  
J07  37152774.563   195239123.708          -0.035          40.600    37152767.625   195239201.871          -0.035          46.100    37152781.273   152134448.583          -0.027          48.200    37152780.828   145795501.049          -0.027          40.900  
J02  37091923.008   194919330.158         172.125          44.000    37091918.250   194919428.183         172.125          44.100    37091931.703   151885270.646         134.121          46.700    37091931.375   145556692.536         128.535          39.500  
J04  38162550.156   200545529.759         607.691          47.800    38162545.973   200545534.300         607.691          50.200    38162556.836   156269297.085         473.523          51.900    38162555.660   149758042.452         453.793          43.600  
C41  22178607.711   115489909.562        -841.359          49.400                                                                    22178607.313    93845030.699        -683.672          50.500  
R15  20536664.930                        3307.313          50.200    20536662.664                        3307.313          48.600    20536671.055                        2572.352          46.700    20536670.680                        2572.352          46.800  
G24  19825156.977   104181890.571        -267.711          51.800    19825166.727    81180793.581        -208.605          56.700    19825166.777    81180792.581        -208.605          53.200    19825163.926    77798228.083        -199.914          46.600  
G05  23716718.594   124632201.476       -3397.754          39.600    23716727.059    97116038.554       -2647.602          25.800    23716727.836    97116042.551       -2647.602          38.400                                                                  
G15  21055483.305   110647340.240       -1509.281          48.400    21055489.914    86218826.695       -1176.066          42.700    21055490.223    86218833.692       -1176.066          47.200                                                                  
C39  36617856.367   190678936.406         -26.574          48.000                                                                    36617847.082   154942155.028         -21.594          48.900  
R05  21430297.477   114557356.589        2582.828          37.800    21430296.109   114557152.608        2582.828          36.300    21430304.090    89100084.918        2008.867          38.500    21430304.301    89100084.923        2008.867          38.600  
G12  23308831.594   122488599.417        3330.301          39.600    23308840.141    95445816.022        2595.039          24.300    23308839.641    95445811.032        2595.039          37.400                                                                  
C33  25929682.430   135022705.358       -2523.965          34.800                                                                    25929686.988   109716970.787       -2050.930          35.900  
E25  24969145.125   131213792.307        1969.422          49.000    24969150.551   100540470.507        1509.039          49.800    24969151.316    97984351.520        1470.672          38.700    24969140.629   106504692.727        1598.559          48.600    24969151.730    99262419.819        1489.855          51.000  
C23  22175113.906   115471798.695        1198.242          51.200                                                                    22175096.266    93830164.278         973.668          50.700  
C32  22803460.898   118743624.394        1742.816          49.000                                                                    22803452.305    96488863.721        1416.180          49.700  
E24  25938500.555   136307798.125        -722.477          46.400    25938503.227   104443675.804        -553.586          44.600    25938503.910   101788284.280        -539.512          35.100    25938496.234   110639449.271        -586.426          43.900    25938505.332   103116001.348        -546.547          45.900  
E15  25568974.680   134365857.453       -1535.770          44.800    25568980.453   102955674.867       -1176.758          47.000    25568980.621   100338125.735       -1146.840          36.800    25568971.426   109063171.661       -1246.566          44.700    25568982.238   101646905.601       -1161.797          48.200  
C25  23151437.133   120555687.746       -1778.027          46.800                                                                    23151426.863    97961328.478       -1444.793          46.900  
E03  24126936.633   126787962.832         707.809          51.200    24126940.723    97149266.458         542.344          54.700    24126941.051    94679334.156         528.559          42.800    24126931.840   102912325.436         574.520          50.900    24126942.117    95914341.610         535.449          55.400  
E05  24773013.211   130183093.395       -1073.617          49.000    24773017.922    99750735.191        -822.645          50.100    24773017.809    97214680.439        -801.730          39.200    24773008.211   105668083.622        -871.445          48.300    24773019.391    98482732.618        -812.188          51.300  
> 2022 08 25 08 37 49.0000000  0 30                     
G23  20923758.086   109955187.739        1875.199          46.200    20923765.305    85679333.834        1461.195          40.800    20923764.953    85679326.830        1461.195          49.600    20923766.758    82109341.996        1400.313          41.800  
G18  22417755.422   117806220.284       -2410.191          41.400    22417763.785    91796970.462       -1878.070          30.600    22417763.734    91796977.462       -1878.070          43.900    22417763.813    87972100.444       -1799.816          35.500  
R04  19897936.906   106552601.278         202.375          51.000    19897935.250   106552658.291         202.375          49.400    19897941.457    82874239.102         157.402          49.800    19897941.426    82874255.097         157.402          51.100  
C13  36286440.875   188953080.257        -554.746          48.800    36286444.000   146110492.370        -428.965          48.100    36286435.129   153539799.952        -450.777          46.000  
C06  37024161.336   192794596.008         119.043          42.400    37024157.777   149080989.751          92.051          46.700    37024149.961   156661341.215          96.730          42.800  
R03  22171822.555   118687732.384       -2234.051          45.600    22171822.359   118687740.392       -2234.051          44.900    22171829.660    92312603.001       -1737.594          42.300    22171830.027    92312563.000       -1737.594          42.600  
C16  36982659.320   192578441.379           4.641          46.200    36982661.164   148913917.641           3.590          46.200    36982651.629   156485760.521           3.773          43.400  
C38  36560656.078   190380925.443       -1211.691          48.400                                                                    36560647.824   154700066.410        -984.598          47.500  
C09  38659643.867   201310965.337         142.254          38.800    38659642.457   155666394.283         110.000          42.300    38659633.035   163581597.257         115.594          39.400  
R14  19656427.047   104779965.834        -664.695          52.800    19656424.906   104780008.839        -664.695          51.100    19656432.910    81495466.961        -516.984          49.700    19656432.668    81495452.966        -516.984          49.700  
J07  37152774.516   195239123.463           0.082          40.400    37152767.387   195239201.624           0.082          46.100    37152781.195   152134448.391           0.063          48.100    37152780.754   145795500.860           0.063          40.700  
J02  37091890.203   194919157.770         172.172          44.200    37091885.313   194919255.796         172.172          44.300    37091898.656   151885136.319         134.160          46.600    37091898.656   145556563.806         128.570          39.500  
J04  38162434.461   200544921.820         607.758          47.800    38162430.027   200544926.363         607.758          50.400    38162440.969   156268823.366         473.578          51.900    38162440.035   149757588.474         453.844          43.900  
C41  22178769.266   115490750.813        -841.602          49.400                                                                    22178768.922    93845714.281        -683.871          50.200  
R15  20536046.008                        3306.781          50.000    20536043.973                        3306.781          48.500    20536052.203                        2571.941          46.900    20536051.824                        2571.941          46.900  
G24  19825207.930   104182158.323        -268.199          51.600    19825217.609    81181002.217        -208.984          56.800    19825217.793    81181001.218        -208.984          53.500    19825214.914    77798428.027        -200.277          46.600  
G05  23717365.148   124635599.145       -3397.984          39.200    23717373.523    97118686.097       -2647.781          25.000    23717374.500    97118690.080       -2647.781          38.300                                                                  
G15  21055770.484   110648849.379       -1509.426          48.200    21055777.141    86220002.646       -1176.176          42.600    21055777.621    86220009.644       -1176.176          47.100                                                                  
C39  36617861.438   190678962.769         -26.578          48.200                                                                    36617852.105   154942176.450         -21.598          49.200  
R05  21429814.266   114554773.542        2582.844          37.600    21429812.297   114554569.553        2582.844          36.100    21429820.863    89098075.878        2008.879          38.500    21429820.598    89098075.881        2008.879          38.300  
G12  23308197.813   122485268.900        3330.316          39.600    23308206.328    95443220.819        2595.051          24.500    23308205.754    95443215.825        2595.051          37.600                                                                  
C33  25930167.063   135025229.015       -2523.926          35.000                                                                    25930171.613   109719021.461       -2050.898          36.400  
E25  24968770.328   131211822.781        1969.180          49.000    24968775.734   100538961.391        1508.852          50.200    24968776.609    97982880.772        1470.492          39.100    24968765.969   106503094.087        1598.359          48.700    24968776.957    99260929.886        1489.672          51.000  
C23  22174883.789   115470600.424        1197.840          51.000                                                                    22174866.141    93829190.585         973.344          50.800  
C32  22803126.180   118741881.430        1742.684          49.400                                                                    22803117.598    96487447.418        1416.074          49.400  
E24  25938638.031   136308520.591        -722.949          46.200    25938640.680   104444229.382        -553.949          44.900    25938641.461   101788823.781        -539.867          34.600    25938633.848   110640035.687        -586.809          43.700    25938642.824   103116547.890        -546.906          45.900  
E15  25569266.914   134367393.142       -1536.094          44.600    25569272.758   102956851.559       -1177.008          47.000    25569272.906   100339272.509       -1147.082          36.800    25569263.723   109064418.159       -1246.828          44.400    25569274.453   101648067.338       -1162.047          48.000  
C25  23151778.578   120557465.739       -1778.410          47.200                                                                    23151768.340    97962773.242       -1445.102          47.200  
E03  24126801.906   126787254.808         707.809          51.800    24126805.945    97148723.937         542.344          55.100    24126806.309    94678805.429         528.559          43.200    24126796.984   102911750.731         574.520          51.400    24126807.359    95913805.988         535.453          55.800  
E05  24773217.469   130184166.802       -1073.633          49.000    24773222.195    99751557.673        -822.652          50.000    24773222.043    97215482.010        -801.738          39.100    24773212.543   105668954.891        -871.457          48.100    24773223.676    98483544.643        -812.195          51.400  
> 2022 08 25 08 37 50.0000000  0 30                     
G23  20923401.258   109953312.587        1874.758          46.600    20923408.523    85677872.676        1460.852          40.900    20923408.016    85677865.674        1460.852          49.600    20923409.906    82107941.723        1399.980          41.400  
G18  22418214.070   117808630.507       -2410.531          41.000    22418222.383    91798848.555       -1878.336          29.000    22418222.199    91798855.557       -1878.336          43.900    22418222.414    87973900.288       -1800.070          35.500  
R04  19897899.117   106552398.909         202.039          50.600    19897897.500   106552455.924         202.039          49.500    19897903.578    82874081.705         157.141          50.300    19897903.566    82874097.700         157.141          51.300  
C13  36286547.383   188953634.912        -554.867          48.800    36286550.430   146110921.265        -429.059          48.000    36286541.645   153540250.656        -450.875          45.500  
C06  37024138.453   192794476.831         118.945          42.600    37024134.965   149080897.599          91.977          46.500    37024126.980   156661244.372          96.652          43.000  
R03  22172239.891   118689966.401       -2234.266          46.000    22172239.809   118689974.408       -2234.266          44.700    22172247.051    92314340.568       -1737.762          41.800    22172247.285    92314300.569       -1737.762          42.800  
C16  36982658.406   192578436.613           4.598          45.600    36982660.199   148913913.957           3.555          46.300    36982650.730   156485756.647           3.734          43.400  
C38  36560888.750   190382137.028       -1211.828          48.600                                                                    36560880.484   154701050.920        -984.711          47.500  
C09  38659616.531   201310822.957         142.297          39.600    38659615.090   155666284.182         110.031          41.800    38659605.730   163581481.562         115.629          39.600  
R14  19656551.789   104780630.800        -665.531          53.000    19656549.789   104780673.805        -665.531          50.800    19656557.633    81495984.160        -517.633          49.500    19656557.270    81495970.166        -517.633          49.100  
J07  37152774.484   195239123.252           0.023          40.200    37152767.496   195239201.414           0.023          46.200    37152781.227   152134448.225           0.016          48.400    37152780.738   145795500.704           0.016          41.300  
J02  37091857.422   194918985.495         172.078          44.600    37091852.793   194919083.523         172.078          44.400    37091866.020   151885002.080         134.086          46.600    37091865.895   145556435.160         128.500          39.600  
J04  38162318.781   200544313.890         607.809          47.800    38162314.383   200544318.435         607.809          50.500    38162325.434   156268349.655         473.617          51.700    38162324.320   149757134.498         453.883          44.000  
C41  22178930.883   115491592.405        -841.879          49.800                                                                    22178930.566    93846398.145        -684.094          50.100  
R15  20535427.211                        3306.230          50.000    20535425.125                        3306.230          48.600    20535433.418                        2571.512          46.800    20535433.367                        2571.512          47.100  
G24  19825258.992   104182426.670        -268.785          51.800    19825268.711    81181211.321        -209.445          56.900    19825268.863    81181210.323        -209.445          53.500    19825265.973    77798628.419        -200.719          46.700  
G05  23718011.758   124638997.049       -3398.090          39.000    23718020.078    97121333.794       -2647.859          25.500    23718021.336    97121337.790       -2647.859          38.400                                                                  
G15  21056057.719   110650358.792       -1509.719          48.600    21056064.449    86221178.815       -1176.406          43.000    21056064.785    86221185.810       -1176.406          46.900                                                                  
C39  36617866.508   190678989.171         -26.574          48.000                                                                    36617857.148   154942197.905         -21.594          48.700  
R05  21429331.070   114552190.581        2582.863          37.600    21429329.191   114551986.595        2582.863          36.000    21429337.727    89096066.904        2008.895          38.000    21429337.363    89096066.910        2008.895          38.100  
G12  23307564.063   122481938.562        3330.203          40.400    23307572.574    95440625.746        2594.965          24.200    23307572.012    95440620.760        2594.965          38.100                                                                  
C33  25930651.742   135027752.884       -2524.016          34.400                                                                    25930656.313   109721072.306       -2050.969          35.900  
E25  24968395.617   131209853.623        1968.836          48.800    24968401.004   100537452.556        1508.590          50.000    24968401.770    97981410.295        1470.234          39.100    24968391.242   106501495.744        1598.082          48.600    24968402.211    99259440.231        1489.410          51.300  
C23  22174653.773   115469402.686        1197.332          51.400                                                                    22174636.125    93828217.325         972.930          50.700  
C32  22802791.500   118740138.683        1742.469          49.000                                                                    22802782.910    96486031.296        1415.898          49.100  
E24  25938775.609   136309243.550        -723.410          47.000    25938778.254   104444783.337        -554.301          44.700    25938778.992   101789363.651        -540.207          34.700    25938771.445   110640622.503        -587.184          43.600    25938780.395   103117094.803        -547.254          45.700  
E15  25569559.227   134368929.243       -1536.453          44.600    25569565.098   102958028.572       -1177.281          47.100    25569565.156   100340419.596       -1147.352          37.000    25569555.941   109065664.992       -1247.121          44.400    25569566.758   101649229.389       -1162.316          48.300  
C25  23152120.109   120559244.187       -1778.797          47.000                                                                    23152109.836    97964218.376       -1445.418          47.200  
E03  24126667.195   126786546.894         707.707          52.000    24126671.332    97148181.511         542.270          55.300    24126671.625    94678276.792         528.484          43.900    24126662.402   102911176.128         574.438          51.500    24126672.699    95913270.457         535.375          56.200  
E05  24773421.758   130185240.329       -1073.699          49.000    24773426.504    99752380.246        -822.703          50.200    24773426.352    97216283.670        -801.789          38.900    24773416.848   105669826.262        -871.508          48.000    24773427.961    98484356.760        -812.246          51.500  
> 2022 08 25 08 37 51.0000000  0 30                     
G23  20923044.516   109951437.906        1874.277          46.600    20923051.797    85676411.889        1460.477          40.500    20923051.293    85676404.886        1460.477          49.800    20923053.191    82106541.800        1399.621          41.700  
G18  22418672.797   117811041.129       -2410.973          41.200    22418681.043    91800726.958       -1878.680          29.300    22418680.938    91800733.963       -1878.680          43.900    22418681.156    87975700.424       -1800.402          35.700  
R04  19897861.391   106552196.896         201.695          50.600    19897859.750   106552253.911         201.695          49.000    19897865.758    82873924.583         156.875          50.300    19897866.000    82873940.577         156.875          51.900  
C13  36286653.938   188954189.766        -555.141          48.800    36286656.910   146111350.314        -429.270          47.800    36286648.309   153540701.522        -451.098          45.700  
C06  37024115.570   192794357.691         118.988          42.400    37024111.941   149080805.472          92.008          46.400    37024104.102   156661147.563          96.688          42.800  
R03  22172657.281   118692200.724       -2234.660          46.000    22172656.910   118692208.730       -2234.660          45.000    22172664.453    92316078.372       -1738.070          42.000    22172664.840    92316038.372       -1738.070          42.500  
C16  36982657.492   192578431.865           4.617          45.600    36982659.160   148913910.284           3.570          46.200    36982649.824   156485752.787           3.750          43.600  
C38  36561121.453   190383348.786       -1212.039          49.000                                                                    36561113.156   154702035.575        -984.883          47.700  
C09  38659589.195   201310680.623         142.141          39.200    38659587.840   155666174.125         109.914          42.200    38659578.375   163581365.910         115.500          39.800  
R14  19656676.695   104781296.634        -666.434          53.000    19656674.449   104781339.639        -666.434          50.700    19656682.582    81496502.030        -518.340          50.100    19656682.055    81496488.036        -518.340          49.100  
J07  37152774.438   195239123.050           0.094          40.400    37152767.504   195239201.216           0.094          46.000    37152781.219   152134448.071           0.070          48.200    37152780.738   145795500.555           0.070          40.500  
J02  37091824.648   194918813.293         171.988          44.600    37091819.895   194918911.321         171.988          44.600    37091833.387   151884867.896         134.016          46.600    37091833.070   145556306.569         128.434          39.700  
J04  38162203.094   200543705.947         607.754          48.000    38162198.758   200543710.492         607.754          50.600    38162209.727   156267875.934         473.574          51.900    38162208.594   149756680.518         453.844          44.000  
C41  22179092.563   115492434.329        -842.258          49.200                                                                    22179092.219    93847082.278        -684.402          50.300  
R15  20534808.508                        3305.688          50.000    20534806.273                        3305.688          48.800    20534814.684                        2571.090          46.600    20534814.438                        2571.090          46.700  
G24  19825310.172   104182695.582        -269.391          51.200    19825319.852    81181420.863        -209.914          56.100    19825319.918    81181419.865        -209.914          53.600    19825317.207    77798829.230        -201.168          46.400  
G05  23718658.414   124642395.154       -3398.617          39.400    23718666.785    97123981.657       -2648.273          26.700    23718667.922    97123985.660       -2648.273          38.400                                                                  
G15  21056345.000   110651868.470       -1509.965          48.800    21056351.645    86222355.186       -1176.598          43.000    21056351.996    86222362.180       -1176.598          47.200                                                                  
C39  36617871.578   190679015.574         -26.590          48.000                                                                    36617862.184   154942219.360         -21.605          48.900  
R05  21428847.883   114549607.695        2582.645          37.600    21428846.512   114549403.709        2582.645          36.600    21428854.516    89094057.999        2008.723          38.200    21428854.023    89094058.002        2008.723          38.100  
G12  23306930.352   122478608.377        3329.887          40.600    23306938.645    95438030.798        2594.719          25.500    23306938.457    95438025.812        2594.719          38.400                                                                  
C33  25931136.461   135030276.933       -2524.406          35.200                                                                    25931141.090   109723123.293       -2051.289          36.000  
E25  24968020.961   131207884.816        1968.453          48.800    24968026.406   100535943.989        1508.293          49.800    24968027.137    97979940.087        1469.949          39.000    24968016.563   106499897.691        1597.770          48.600    24968027.590    99257950.844        1489.121          50.700  
C23  22174423.859   115468205.451        1196.824          51.600                                                                    22174406.164    93827244.473         972.516          50.800  
C32  22802456.859   118738396.127        1742.313          49.400                                                                    22802448.203    96484615.325        1415.770          49.300  
E24  25938913.273   136309966.981        -723.824          46.800    25938915.988   104445337.657        -554.617          44.700    25938916.680   101789903.882        -540.516          34.500    25938909.176   110641209.708        -587.520          43.500    25938918.078   103117642.074        -547.566          45.700  
E15  25569851.609   134370465.730       -1536.891          44.800    25569857.496   102959205.880       -1177.617          47.000    25569857.547   100341566.974       -1147.676          37.300    25569848.543   109066912.143       -1247.477          44.500    25569859.145   101650391.732       -1162.648          48.300  
C25  23152461.719   120561023.055       -1779.223          46.800                                                                    23152451.504    97965663.852       -1445.762          47.300  
E03  24126532.500   126785839.060         707.656          51.800    24126536.660    97147639.147         542.230          55.000    24126536.914    94677748.216         528.445          43.800    24126527.527   102910601.588         574.395          51.400    24126538.051    95912734.987         535.336          55.900  
E05  24773626.063   130186313.954       -1073.824          48.800    24773630.781    99753202.893        -822.801          50.300    24773630.613    97217085.402        -801.883          39.100    24773621.078   105670697.711        -871.609          48.000    24773632.277    98485168.950        -812.340          51.300  
> 2022 08 25 08 37 52.0000000  0 30                     
G23  20922687.867   109949563.678        1873.855          46.600    20922695.262    85674951.449        1460.148          40.200    20922694.898    85674944.446        1460.148          50.000    20922696.563    82105142.212        1399.309          41.700  
G18  22419131.602   117813452.130       -2411.406          41.400    22419139.633    91802605.659       -1879.020          29.600    22419139.945    91802612.662       -1879.020          44.000    22419139.996    87977500.844       -1800.727          36.100  
R04  19897823.727   106551995.208         201.375          50.600    19897822.125   106552052.225         201.375          48.600    19897828.152    82873767.716         156.625          49.900    19897828.324    82873783.711         156.625          51.600  
C13  36286760.531   188954744.806        -555.242          48.600    36286763.590   146111779.504        -429.348          47.900    36286754.828   153541152.533        -451.180          45.800  
C06  37024092.695   192794238.573         118.965          42.400    37024089.063   149080713.363          91.992          46.500    37024081.234   156661050.768          96.668          42.800  
R03  22173074.734   118694435.356       -2234.926          45.800    22173074.523   118694443.361       -2234.926          45.000    22173082.000    92317816.417       -1738.273          42.100    22173082.660    92317776.417       -1738.273          42.500  
C16  36982656.586   192578427.136           4.590          45.400    36982658.488   148913906.628           3.551          46.000    36982648.898   156485748.945           3.730          43.100  
C38  36561354.195   190384560.693       -1212.098          49.000                                                                    36561345.887   154703020.345        -984.930          47.600  
C09  38659561.859   201310538.330         142.148          39.400    38659560.414   155666064.099         109.918          42.700    38659551.016   163581250.287         115.508          39.900  
R14  19656801.773   104781963.341        -667.277          52.800    19656799.816   104782006.345        -667.277          51.000    19656807.660    81497020.578        -518.996          49.800    19656807.055    81497006.585        -518.996          49.300  
J07  37152774.398   195239122.840           0.172          40.000    37152767.309   195239201.002           0.172          46.300    37152781.012   152134447.905           0.133          48.100    37152780.727   145795500.397           0.129          40.500  
J02  37091791.891   194918641.155         172.039          44.400    37091787.148   194918739.179         172.039          43.900    37091800.523   151884733.761         134.059          46.800    37091800.367   145556178.024         128.473          39.300  
J04  38162087.398   200543097.975         607.887          47.400    38162083.070   200543102.517         607.887          49.900    38162093.961   156267402.187         473.676          52.100    38162092.832   149756226.511         453.941          44.000  
C41  22179254.313   115493276.565        -842.516          49.600                                                                    22179253.973    93847766.659        -684.613          50.700  
R15  20534189.930                        3305.082          50.600    20534188.109                        3305.082          48.700    20534196.117                        2570.621          46.500    20534195.785                        2570.621          47.000  
G24  19825361.445   104182965.046        -269.918          50.600    19825371.129    81181630.833        -210.324          56.200    19825371.313    81181629.834        -210.324          53.800    19825368.375    77799030.451        -201.563          46.600  
G05  23719305.086   124645793.487       -3398.613          39.200    23719313.508    97126629.717       -2648.270          27.000    23719314.578    97126633.712       -2648.270          38.200                                                                  
G15  21056632.328   110653378.381       -1510.148          48.800    21056638.938    86223531.737       -1176.738          42.900    21056639.508    86223538.732       -1176.738          47.300                                                                  
C39  36617876.648   190679041.979         -26.473          48.000                                                                    36617867.285   154942240.816         -21.512          48.900  
R05  21428364.719   114547024.844        2582.715          38.200    21428363.191   114546820.860        2582.715          36.700    21428371.320    89092049.109        2008.777          38.300    21428371.141    89092049.113        2008.777          38.100  
G12  23306296.656   122475278.328        3329.930          40.600    23306305.203    95435435.963        2594.750          25.600    23306304.781    95435430.971        2594.750          38.600                                                                  
C33  25931621.203   135032801.126       -2524.363          34.600                                                                    25931625.832   109725174.410       -2051.254          36.400  
E25  24967646.367   131205916.334        1968.184          48.600    24967651.777   100534435.672        1508.090          49.600    24967652.453    97978470.117        1469.746          39.100    24967641.969   106498299.893        1597.551          48.300    24967652.980    99256461.699        1488.918          50.900  
C23  22174194.039   115467008.701        1196.367          51.400                                                                    22174176.418    93826272.016         972.148          50.800  
C32  22802122.266   118736653.747        1742.203          49.400                                                                    22802113.785    96483199.492        1415.684          49.200  
E24  25939051.023   136310690.859        -724.238          46.800    25939053.688   104445892.317        -554.938          44.800    25939054.355   101790444.440        -540.828          34.600    25939046.996   110641797.269        -587.855          43.200    25939055.828   103118189.684        -547.883          45.800  
E15  25570144.063   134372002.579       -1537.148          44.800    25570149.969   102960383.464       -1177.816          46.700    25570150.043   100342714.621       -1147.871          36.700    25570140.766   109068159.584       -1247.688          44.800    25570151.578   101651554.346       -1162.844          48.500  
C25  23152803.414   120562802.328       -1779.578          47.000                                                                    23152793.242    97967109.655       -1446.055          47.100  
E03  24126397.813   126785131.278         707.598          51.800    24126401.898    97147096.823         542.184          54.400    24126402.266    94677219.680         528.398          43.600    24126392.789   102910027.091         574.348          51.800    24126403.359    95912199.553         535.293          55.700  
E05  24773830.383   130187387.654       -1073.848          48.800    24773835.055    99754025.598        -822.820          50.100    24773834.934    97217887.192        -801.898          39.300    24773825.414   105671569.218        -871.629          47.800    24773836.582    98485981.196        -812.359          51.000  
> 2022 08 25 08 37 53.0000000  0 30                     
G23  20922331.289   109947689.868        1873.621          46.000    20922338.645    85673491.339        1459.965          40.100    20922338.070    85673484.336        1459.965          50.200    20922339.934    82103742.941        1399.133          41.800  
G18  22419590.461   117815863.483       -2411.531          41.200    22419598.473    91804484.638       -1879.117          29.300    22419598.730    91804491.634       -1879.117          43.600    22419598.789    87979301.527       -1800.820          35.900  
R04  19897786.117   106551793.843         201.293          50.400    19897784.535   106551850.857         201.293          48.800    19897790.691    82873611.097         156.559          50.100    19897790.941    82873627.092         156.559          51.300  
C13  36286867.156   188955300.012        -555.293          48.800    36286870.055   146112208.826        -429.387          47.800    36286861.441   153541603.687        -451.219          46.000  
C06  37024069.828   192794119.445         119.172          42.400    37024066.148   149080621.242          92.152          46.500    37024058.309   156660953.965          96.836          42.800  
R03  22173492.234   118696670.267       -2235.008          46.200    22173492.145   118696678.273       -2235.008          45.200    22173499.531    92319554.679       -1738.340          42.200    22173500.016    92319514.679       -1738.340          42.600  
C16  36982655.672   192578422.370           4.859          45.400    36982657.453   148913902.945           3.758          45.800    36982647.930   156485745.076           3.949          43.100  
C38  36561586.953   190385772.727       -1212.051          49.000                                                                    36561578.664   154704005.223        -984.891          47.500  
C09  38659534.531   201310396.023         142.273          39.200    38659532.984   155665954.058         110.016          42.900    38659523.668   163581134.651         115.609          39.800  
R14  19656927.000   104782630.911        -667.934          52.800    19656924.766   104782673.915        -667.934          50.800    19656932.918    81497539.801        -519.504          49.800    19656932.223    81497525.806        -519.504          49.400  
J07  37152774.352   195239122.584           0.328          40.400    37152767.375   195239200.746           0.328          46.400    37152781.172   152134447.705           0.258          48.300    37152780.684   145795500.204           0.246          40.600  
J02  37091759.141   194918469.056         172.184          44.400    37091754.426   194918567.083         172.184          44.100    37091767.797   151884599.661         134.168          46.300    37091767.711   145556049.510         128.578          39.100  
J04  38161971.695   200542489.937         608.121          48.200    38161967.391   200542494.480         608.121          50.000    38161978.336   156266928.392         473.859          52.100    38161977.191   149755772.456         454.117          43.700  
C41  22179416.102   115494119.080        -842.648          49.200                                                                    22179415.793    93848451.274        -684.723          51.200  
R15  20533571.445                        3304.770          50.800    20533569.465                        3304.770          48.600    20533577.590                        2570.375          46.300    20533577.414                        2570.375          46.900  
G24  19825412.820   104183235.035        -270.215          51.200    19825422.543    81181841.215        -210.555          56.900    19825422.750    81181840.215        -210.555          53.200    19825419.773    77799232.067        -201.781          46.800  
G05  23719951.797   124649191.968       -3398.563          39.200    23719960.129    97129277.875       -2648.230          27.900    23719961.199    97129281.870       -2648.230          38.300                                                                  
G15  21056919.688   110654888.495       -1510.199          48.800    21056926.422    86224708.451       -1176.777          42.800    21056926.758    86224715.446       -1176.777          47.400                                                                  
C39  36617881.711   190679068.345         -26.309          48.400                                                                    36617872.344   154942262.241         -21.375          48.800  
R05  21427881.555   114544442.024        2582.852          38.200    21427879.785   114544238.043        2582.852          36.800    21427888.086    89090040.248        2008.883          38.200    21427887.930    89090040.254        2008.883          38.100  
G12  23305662.984   122471948.392        3329.957          40.400    23305671.641    95432841.214        2594.773          26.100    23305671.234    95432836.219        2594.773          38.100                                                                  
C33  25932105.977   135035325.455       -2524.301          35.000                                                                    25932110.648   109727225.627       -2051.199          36.500  
E25  24967271.836   131203948.155        1968.043          48.000    24967277.242   100532927.587        1507.980          49.400    24967277.949    97977000.374        1469.645          38.700    24967267.563   106496702.349        1597.438          48.300    24967278.449    99254972.785        1488.813          50.500  
C23  22173964.297   115465812.416        1196.094          51.400                                                                    22173946.609    93825299.937         971.926          50.800  
C32  22801787.680   118734911.509        1742.199          49.200                                                                    22801779.043    96481783.788        1415.680          49.300  
E24  25939188.852   136311415.164        -724.480          47.000    25939191.492   104446447.301        -555.121          44.900    25939192.223   101790985.312        -541.008          34.500    25939184.793   110642385.178        -588.051          43.200    25939193.660   103118737.613        -548.066          46.100  
E15  25570436.578   134373539.764       -1537.285          45.000    25570442.531   102961561.304       -1177.918          47.200    25570442.621   100343862.517       -1147.973          36.200    25570433.313   109069407.296       -1247.797          44.800    25570444.098   101652717.214       -1162.945          48.600  
C25  23153145.180   120564581.974       -1779.836          46.600                                                                    23153134.875    97968555.763       -1446.266          47.100  
E03  24126263.133   126784423.540         707.750          52.000    24126267.258    97146554.534         542.301          54.000    24126267.613    94676691.180         528.516          43.800    24126258.180   102909452.632         574.473          51.500    24126268.742    95911664.159         535.410          55.300  
E05  24774034.703   130188461.408       -1073.781          49.000    24774039.461    99754848.344        -822.770          50.300    24774039.184    97218689.019        -801.852          38.600    24774029.758   105672440.775        -871.578          47.900    24774040.926    98486793.484        -812.309          51.200  
> 2022 08 25 08 37 54.0000000  0 30                     
G23  20921974.852   109945816.774        1872.809          46.200    20921982.102    85672031.784        1459.332          40.500    20921981.637    85672024.783        1459.332          49.900    20921983.426    82102344.203        1398.523          42.100  
G18  22420049.453   117818275.470       -2412.309          41.400    22420057.488    91806364.103       -1879.723          28.700    22420057.672    91806371.103       -1879.723          43.500    22420057.859    87981102.681       -1801.398          35.900  
R04  19897748.633   106551593.086         200.496          50.600    19897747.145   106551650.100         200.496          48.900    19897753.137    82873454.954         155.941          50.000    19897753.188    82873470.947         155.941          51.000  
C13  36286973.859   188955855.678        -555.887          48.800    36286976.895   146112638.502        -429.844          48.100    36286968.105   153542055.214        -451.703          45.900  
C06  37024047.000   192794000.613         118.723          42.200    37024043.301   149080529.353          91.805          46.200    37024035.488   156660857.403          96.473          42.900  
R03  22173909.844   118698905.752       -2235.762          46.200    22173909.469   118698913.762       -2235.762          45.200    22173917.094    92321293.389       -1738.926          42.100    22173917.367    92321253.390       -1738.926          42.400  
C16  36982654.813   192578417.891           4.379          45.800    36982656.480   148913899.484           3.387          45.600    36982647.047   156485741.439           3.559          43.000  
C38  36561819.789   190386985.173       -1212.668          49.400                                                                    36561811.484   154704990.434        -985.391          47.600  
C09  38659507.266   201310253.997         141.938          39.200    38659505.598   155665844.233         109.754          42.900    38659496.469   163581019.239         115.336          39.900  
R14  19657052.453   104783299.640        -669.254          53.000    19657050.469   104783342.643        -669.254          50.700    19657058.426    81498059.923        -520.531          50.100    19657058.059    81498045.929        -520.531          49.500  
J07  37152774.352   195239122.589          -0.180          40.000    37152767.402   195239200.750          -0.180          46.200    37152780.848   152134447.708          -0.141          48.000    37152780.715   145795500.207          -0.137          40.400  
J02  37091726.461   194918297.280         171.664          44.200    37091721.531   194918395.306         171.664          44.100    37091735.109   151884465.810         133.766          46.300    37091734.973   145555921.234         128.191          39.000  
J04  38161856.031   200541882.136         607.688          48.400    38161851.852   200541886.680         607.688          50.000    38161862.629   156266454.782         473.520          52.800    38161861.555   149755318.580         453.793          43.900  
C41  22179578.008   115494962.168        -843.371          49.400                                                                    22179577.672    93849136.352        -685.309          51.100  
R15  20532953.109                        3303.770          50.800    20532950.996                        3303.770          48.700    20532959.188                        2569.598          46.600    20532959.090                        2569.598          46.900  
G24  19825464.352   104183505.839        -271.234          51.400    19825474.141    81182052.233        -211.352          56.000    19825474.172    81182051.233        -211.352          53.200    19825471.297    77799434.292        -202.547          46.600  
G05  23720598.602   124652590.917       -3399.063          39.400    23720606.969    97131926.403       -2648.621          25.800    23720608.109    97131930.400       -2648.621          38.200                                                                  
G15  21057207.156   110656399.117       -1510.824          49.000    21057213.902    86225885.557       -1177.266          42.600    21057214.352    86225892.552       -1177.266          47.400                                                                  
C39  36617886.820   190679094.968         -26.734          48.000                                                                    36617877.414   154942283.875         -21.723          49.000  
R05  21427398.453   114541859.519        2582.367          38.200    21427396.828   114541655.539        2582.367          37.000    21427405.051    89088031.631        2008.508          38.500    21427404.539    89088031.636        2008.508          38.300  
G12  23305029.391   122468618.853        3329.320          40.000    23305037.965    95430246.771        2594.277          25.800    23305037.637    95430241.777        2594.277          38.000                                                                  
C33  25932590.836   135037850.190       -2524.777          34.800                                                                    25932595.488   109729277.174       -2051.586          36.100  
E25  24966897.422   131201980.568        1967.355          48.600    24966902.914   100531419.957        1507.453          49.500    24966903.523    97975531.072        1469.129          38.900    24966892.949   106495105.282        1596.879          48.400    24966904.047    99253484.321        1488.289          50.600  
C23  22173734.711   115464616.887        1195.156          51.400                                                                    22173717.035    93824328.471         971.160          50.800  
C32  22801453.188   118733169.720        1741.613          49.600                                                                    22801444.609    96480368.445        1415.203          49.400  
E24  25939326.820   136312140.187        -725.367          47.200    25939329.500   104447002.841        -555.801          45.000    25939330.234   101791526.726        -541.668          34.700    25939322.738   110642973.672        -588.770          43.100    25939331.641   103119286.091        -548.734          45.900  
E15  25570729.219   134375077.588       -1538.145          45.000    25570735.129   102962739.636       -1178.578          47.600    25570735.223   100345010.894       -1148.613          36.400    25570725.895   109070655.531       -1248.492          44.600    25570736.750   101653880.570       -1163.598          48.800  
C25  23153487.070   120566362.289       -1780.641          46.800                                                                    23153476.789    97970002.414       -1446.918          47.100  
E03  24126128.516   126783716.142         707.250          51.600    24126132.617    97146012.500         541.918          54.200    24126133.043    94676162.926         528.141          43.900    24126123.551   102908878.445         574.066          51.400    24126134.098    95911129.014         535.031          55.700  
E05  24774239.102   130189535.502       -1074.234          48.800    24774243.848    99755671.350        -823.113          50.300    24774243.539    97219491.102        -802.188          39.100    24774234.027   105673312.603        -871.941          48.200    24774245.301    98487606.029        -812.652          51.200  
> 2022 08 25 08 37 55.0000000  0 30                     
G23  20921618.500   109943944.129        1872.371          46.200    20921625.758    85670572.580        1458.988          40.800    20921625.352    85670565.577        1458.988          50.000    20921627.117    82100945.797        1398.199          42.000  
G18  22420508.508   117820687.838       -2412.586          41.200    22420516.563    91808243.870       -1879.938          28.500    22420516.590    91808250.871       -1879.938          43.600    22420516.902    87982904.123       -1801.605          35.800  
R04  19897711.211   106551392.660         200.180          51.000    19897709.480   106551449.672         200.180          49.100    19897715.684    82873299.064         155.695          50.200    19897715.902    82873315.059         155.695          50.700  
C13  36287080.602   188956411.509        -555.996          49.000    36287083.582   146113068.306        -429.930          47.900    36287074.805   153542506.870        -451.793          45.700  
C06  37024024.188   192793881.788         118.750          42.000    37024020.582   149080437.471          91.824          46.100    37024012.773   156660760.852          96.496          43.000  
R03  22174327.508   118701141.533       -2236.063          46.000    22174327.168   118701149.539       -2236.063          45.000    22174334.863    92323032.330       -1739.160          42.000    22174335.094    92322992.331       -1739.160          42.900  
C16  36982653.945   192578413.413           4.488          46.000    36982655.582   148913896.021           3.469          45.800    36982646.250   156485737.801           3.648          42.700  
C38  36562052.656   190388197.770       -1212.680          49.200                                                                    36562044.434   154705975.767        -985.402          47.600  
C09  38659479.992   201310112.022         141.930          39.600    38659478.473   155665734.451         109.750          42.500    38659469.246   163580903.876         115.328          39.300  
R14  19657178.078   104783969.253        -670.098          52.600    19657175.910   104784012.255        -670.098          51.200    19657184.039    81498580.729        -521.188          50.100    19657184.121    81498566.737        -521.188          49.700  
J07  37152774.352   195239122.575          -0.004          40.000    37152767.410   195239200.736          -0.004          46.400    37152780.941   152134447.696          -0.004          47.800    37152780.723   145795500.197          -0.004          40.800  
J02  37091693.781   194918125.559         171.625          44.400    37091688.949   194918223.584         171.625          44.700    37091702.410   151884332.002         133.730          46.600    37091702.273   145555793.001         128.160          39.200  
J04  38161740.367   200541274.298         607.766          47.800    38161736.004   200541278.842         607.766          50.000    38161747.012   156265981.140         473.582          52.700    38161745.895   149754864.675         453.852          43.900  
C41  22179739.977   115495805.563        -843.578          49.200                                                                    22179739.715    93849821.676        -685.477          51.100  
R15  20532334.891                        3303.238          51.000    20532332.781                        3303.238          48.600    20532341.008                        2569.188          46.800    20532340.730                        2569.188          46.800  
G24  19825515.992   104183777.191        -271.711          51.200    19825525.758    81182263.675        -211.723          55.900    19825525.789    81182262.678        -211.723          53.400    19825522.988    77799636.926        -202.902          46.400  
G05  23721245.445   124655990.077       -3399.316          39.600    23721253.891    97134575.092       -2648.816          26.900    23721255.055    97134579.089       -2648.816          38.300                                                                  
G15  21057494.664   110657909.973       -1511.059          48.600    21057501.352    86227062.843       -1177.449          42.400    21057501.699    86227069.839       -1177.449          47.400                                                                  
C39  36617891.930   190679121.575         -26.699          48.000                                                                    36617882.508   154942305.495         -21.695          48.800  
R05  21426915.344   114539277.062        2582.453          38.000    21426914.195   114539073.090        2582.453          37.100    21426921.891    89086023.055        2008.574          38.900    21426921.895    89086023.057        2008.574          38.200  
G12  23304395.820   122465289.458        3329.297          40.400    23304404.480    95427652.446        2594.258          23.400    23304403.730    95427647.443        2594.258          38.300                                                                  
C33  25933075.711   135040375.085       -2524.941          34.400                                                                    25933080.328   109731328.855       -2051.723          36.300  
E25  24966523.063   131200013.313        1967.039          48.600    24966528.488   100529912.581        1507.211          49.700    24966529.129    97974062.021        1468.891          38.500    24966518.723   106493508.485        1596.621          48.500    24966529.676    99251996.105        1488.051          50.900  
C23  22173505.219   115463421.838        1194.766          51.200                                                                    22173487.492    93823357.397         970.844          50.900  
C32  22801118.727   118731428.093        1741.477          49.400                                                                    22801110.180    96478953.223        1415.090          49.100  
E24  25939464.867   136312865.654        -725.750          46.400    25939467.551   104447558.717        -556.094          44.700    25939468.273   101792068.467        -541.957          34.300    25939460.746   110643562.523        -589.082          43.200    25939469.680   103119834.900        -549.023          45.900  
E15  25571021.922   134376615.769       -1538.414          44.800    25571027.805   102963918.241       -1178.785          47.400    25571027.910   100346159.532       -1148.816          36.900    25571018.629   109071904.055       -1248.715          44.600    25571029.426   101655044.192       -1163.801          48.700  
C25  23153829.031   120568142.998       -1780.980          47.000                                                                    23153818.746    97971449.386       -1447.191          47.000  
E03  24125993.922   126783008.801         707.336          51.800    24125997.957    97145470.506         541.984          54.200    24125998.324    94675634.712         528.207          44.200    24125989.102   102908304.300         574.137          51.500    24125999.434    95910593.911         535.094          55.600  
E05  24774443.516   130190609.674       -1074.281          49.400    24774448.238    99756494.416        -823.148          50.500    24774447.957    97220293.241        -802.223          39.600    24774438.582   105674184.494        -871.980          48.400    24774449.707    98488418.631        -812.688          51.300  
> 2022 08 25 08 37 56.0000000  0 30                     
G23  20921262.227   109942071.927        1872.117          46.200    20921269.367    85669113.718        1458.793          40.600    20921269.195    85669106.718        1458.793          49.600    20921270.867    82099547.723        1398.008          41.800  
G18  22420967.641   117823100.568       -2412.859          41.000    22420975.633    91810123.919       -1880.148          29.600    22420975.488    91810130.919       -1880.148          43.500    22420976.051    87984705.836       -1801.813          36.100  
R04  19897673.844   106551192.580         200.008          51.200    19897672.164   106551249.593         200.008          49.200    19897678.367    82873143.446         155.563          50.300    19897678.406    82873159.440         155.563          50.700  
C13  36287187.375   188956967.533        -556.016          48.400    36287190.402   146113498.258        -429.945          47.300    36287181.621   153542958.683        -451.809          45.900  
C06  37024001.359   192793762.976         118.895          42.400    37023997.762   149080345.598          91.938          46.000    37023989.922   156660664.312          96.613          43.000  
R03  22174745.219   118703377.593       -2236.086          46.600    22174745.156   118703385.598       -2236.086          45.400    22174752.551    92324771.488       -1739.180          41.900    22174752.723    92324731.490       -1739.180          42.900  
C16  36982653.086   192578408.942           4.547          46.200    36982654.824   148913892.565           3.516          45.500    36982645.406   156485734.166           3.695          43.000  
C38  36562285.539   190389410.512       -1212.680          49.400                                                                    36562277.254   154706961.223        -985.402          47.700  
C09  38659452.727   201309970.068         142.070          40.000    38659451.234   155665624.680         109.859          42.400    38659441.965   163580788.526         115.445          39.100  
R14  19657303.852   104784639.697        -670.770          52.800    19657301.625   104784682.700        -670.770          51.200    19657309.719    81499102.188        -521.711          50.000    19657309.520    81499088.192        -521.711          49.800  
J07  37152774.344   195239122.540           0.133          40.400    37152767.332   195239200.705           0.133          46.100    37152781.172   152134447.672           0.105          47.800    37152780.758   145795500.174           0.102          40.600  
J02  37091661.109   194917953.892         171.723          44.000    37091656.457   194918051.919         171.723          44.300    37091669.789   151884198.239         133.809          46.500    37091669.598   145555664.813         128.234          39.400  
J04  38161624.688   200540666.423         607.980          47.600    38161620.566   200540670.967         607.980          50.100    38161631.188   156265507.473         473.750          52.600    38161630.277   149754410.743         454.012          43.700  
C41  22179902.000   115496649.252        -843.672          49.600                                                                    22179901.711    93850507.247        -685.555          51.200  
R15  20531716.766                        3302.836          50.600    20531714.637                        3302.836          48.500    20531722.813                        2568.875          47.200    20531722.457                        2568.875          46.800  
G24  19825567.734   104184049.089        -272.043          51.000    19825577.398    81182475.545        -211.980          55.700    19825577.457    81182474.546        -211.980          53.200    19825574.750    77799839.967        -203.148          46.500  
G05  23721892.313   124659389.407       -3399.320          39.600    23721900.746    97137223.918       -2648.820          26.400    23721901.938    97137227.920       -2648.820          38.300                                                                  
G15  21057782.211   110659421.051       -1511.117          48.600    21057788.938    86228240.309       -1177.492          42.500    21057789.242    86228247.300       -1177.492          47.300                                                                  
C39  36617897.039   190679148.169         -26.496          47.600                                                                    36617887.699   154942327.107         -21.527          48.800  
R05  21426432.258   114536694.677        2582.469          37.800    21426431.426   114536490.688        2582.469          37.300    21426438.785    89084014.528        2008.590          38.500    21426438.637    89084014.537        2008.590          38.700  
G12  23303762.273   122461960.179        3329.309          40.400    23303770.887    95425058.204        2594.266          25.100    23303770.582    95425053.206        2594.266          38.100                                                                  
C33  25933560.625   135042900.137       -2524.879          34.600                                                                    25933565.273   109733380.666       -2051.672          36.200  
E25  24966148.758   131198046.373        1966.891          48.800    24966154.137   100528405.446        1507.098          50.000    24966154.848    97972593.202        1468.781          38.100    24966144.395   106491911.946        1596.504          48.400    24966155.375    99250508.129        1487.941          51.500  
C23  22173275.805   115462227.266        1194.430          51.800                                                                    22173258.105    93822386.712         970.570          51.300  
C32  22800784.297   118729686.629        1741.461          49.200                                                                    22800775.629    96477538.144        1415.078          49.200  
E24  25939603.008   136313591.568        -726.043          46.400    25939605.746   104448114.938        -556.320          44.200    25939606.559   101792610.553        -542.176          34.100    25939598.793   110644151.744        -589.320          43.300    25939607.840   103120384.050        -549.246          45.700  
E15  25571314.695   134378154.311       -1538.602          44.800    25571320.594   102965097.127       -1178.930          47.400    25571320.652   100347308.442       -1148.957          36.200    25571311.379   109073152.876       -1248.863          44.500    25571322.230   101656208.090       -1163.941          48.900  
C25  23154171.070   120569924.101       -1781.176          47.000                                                                    23154160.820    97972896.682       -1447.352          46.900  
E03  24125859.320   126782301.515         707.348          51.600    24125863.449    97144928.566         541.992          54.200    24125863.840    94675106.548         528.211          44.000    24125854.309   102907730.212         574.145          51.300    24125864.918    95910058.859         535.102          55.400  
E05  24774647.930   130191683.914       -1074.148          48.800    24774652.703    99757317.533        -823.047          50.600    24774652.332    97221095.433        -802.125          38.800    24774642.965   105675056.443        -871.875          48.300    24774654.129    98489231.285        -812.586          51.500  
> 2022 08 25 08 37 57.0000000  0 30                     
G23  20920906.055   109940200.206        1871.738          46.000    20920913.305    85667655.235        1458.496          40.700    20920912.871    85667648.232        1458.496          49.600    20920914.617    82098150.008        1397.727          42.600  
G18  22421426.844   117825513.707       -2413.145          41.000    22421434.672    91812004.288       -1880.371          28.600    22421434.973    91812011.287       -1880.371          43.600    22421435.266    87986507.858       -1802.023          36.300  
R04  19897636.539   106550992.851         199.785          51.600    19897634.945   106551049.862         199.785          49.000    19897641.125    82872988.099         155.387          50.100    19897641.250    82873004.095         155.387          50.800  
C13  36287294.203   188957523.752        -556.078          48.400    36287297.184   146113928.360        -429.996          47.600    36287288.512   153543410.657        -451.859          46.200  
C06  37023978.547   192793644.203         119.027          42.400    37023975.055   149080253.755          92.039          45.800    37023967.066   156660567.799          96.719          42.900  
R03  22175162.992   118705613.962       -2236.277          46.200    22175162.516   118705621.969       -2236.277          45.300    22175170.363    92326510.883       -1739.324          42.400    22175170.289    92326470.884       -1739.324          42.900  
C16  36982652.242   192578404.505           4.621          45.600    36982653.938   148913889.131           3.570          45.500    36982644.590   156485730.560           3.754          43.000  
C38  36562518.477   190390623.432       -1212.758          49.000                                                                    36562510.141   154707946.820        -985.465          48.000  
C09  38659425.484   201309828.177         141.988          39.600    38659423.918   155665514.965         109.793          42.600    38659414.801   163580673.234         115.375          38.900  
R14  19657429.789   104785311.031        -671.547          52.800    19657427.625   104785354.031        -671.547          50.900    19657435.633    81499624.335        -522.313          49.900    19657435.555    81499610.341        -522.313          49.900  
J07  37152774.336   195239122.530           0.172          40.800    37152767.293   195239200.693           0.172          46.100    37152780.891   152134447.664           0.133          47.800    37152780.777   145795500.165           0.129          40.600  
J02  37091628.461   194917782.316         171.773          44.600    37091623.582   194917880.342         171.773          44.600    37091637.051   151884064.543         133.848          46.600    37091636.969   145555536.688         128.270          39.200  
J04  38161509.016   200540058.550         608.063          48.000    38161504.695   200540063.093         608.063          50.000    38161515.758   156265033.806         473.813          52.700    38161514.590   149753956.809         454.070          44.100  
C41  22180064.078   115497493.289        -843.988          50.200                                                                    22180063.738    93851193.097        -685.809          51.100  
R15  20531098.766                        3302.352          50.400    20531096.797                        3302.352          48.400    20531104.766                        2568.496          47.000    20531104.484                        2568.496          46.600  
G24  19825619.578   104184321.574        -272.559          51.400    19825629.293    81182687.872        -212.383          56.300    19825629.410    81182686.872        -212.383          53.200    19825626.629    77800043.446        -203.535          46.600  
G05  23722539.234   124662788.969       -3399.449          39.600    23722547.699    97139872.918       -2648.922          26.800    23722548.551    97139876.924       -2648.922          38.100                                                                  
G15  21058069.820   110660932.398       -1511.301          48.600    21058076.695    86229417.980       -1177.637          42.300    21058076.918    86229424.973       -1177.637          47.600                                                                  
C39  36617902.141   190679174.781         -26.402          47.400                                                                    36617892.777   154942348.733         -21.453          49.300  
R05  21425949.180   114534112.364        2582.430          38.200    21425948.172   114533908.375        2582.430          37.500    21425955.813    89082006.070        2008.559          37.900    21425955.664    89082006.080        2008.559          38.200  
G12  23303128.758   122458631.077        3329.238          41.000    23303137.430    95422464.102        2594.211          24.700    23303136.949    95422459.103        2594.211          37.500                                                                  
C33  25934045.563   135045425.393       -2525.055          34.200                                                                    25934050.270   109735432.648       -2051.813          36.100  
E25  24965774.531   131196079.792        1966.660          49.000    24965779.891   100526898.585        1506.922          49.900    24965780.594    97971124.652        1468.609          38.900    24965770.219   106490315.698        1596.313          48.800    24965781.137    99249020.424        1487.766          51.400  
C23  22173046.500   115461033.212        1194.078          51.200                                                                    22173028.836    93821416.445         970.285          50.600  
C32  22800449.898   118727945.380        1741.379          49.200                                                                    22800441.277    96476123.240        1415.012          49.100  
E24  25939741.234   136314317.956        -726.402          46.800    25939744.035   104448671.523        -556.594          44.400    25939744.676   101793152.986        -542.441          34.500    25939737.039   110644741.348        -589.613          43.700    25939746.082   103120933.559        -549.520          45.800  
E15  25571607.547   134379693.250       -1538.945          45.000    25571613.484   102966276.310       -1179.191          47.500    25571613.418   100348457.649       -1149.215          36.000    25571604.184   109074402.013       -1249.145          44.500    25571615.066   101657372.284       -1164.203          49.000  
C25  23154513.203   120571705.638       -1781.547          47.400                                                                    23154502.945    97974344.325       -1447.652          46.700  
E03  24125724.750   126781594.323         707.410          51.400    24125728.840    97144386.692         542.043          54.000    24125729.313    94674578.450         528.262          43.200    24125719.848   102907156.192         574.199          51.200    24125730.336    95909523.872         535.152          55.100  
E05  24774852.375   130192758.266       -1074.156          49.000    24774857.148    99758140.740        -823.055          50.500    24774856.727    97221897.711        -802.129          39.300    24774847.406   105675928.485        -871.879          48.100    24774858.602    98490044.028        -812.594          51.300  
